% program   : RTKPOST demo5 b34j
% inp file  : C:\Users\cs21014\Documents\Kitani\241112hyod\src\12\GNSS_MT\gnss0\ubx\241112_16.obs
% inp file  : C:\Users\cs21014\Documents\Kitani\241112hyod\src\rtk_base\COM4___9600_241112_050705.obs
% inp file  : C:\Users\cs21014\Documents\Kitani\241112hyod\src\rtk_base\COM4___9600_241112_050705.nav
% obs start : 2024/11/12 07:33:18.0 GPST (week2340 199998.0s)
% obs end   : 2024/11/12 07:37:49.4 GPST (week2340 200269.4s)
% pos mode  : Kinematic
% freqs     : L1+L2/E5b+L5
% solution  : Combined-Phase Reset
% elev mask : 15.0 deg
% dynamics  : on
% tidecorr  : on
% ionos opt : Broadcast
% tropo opt : Saastamoinen
% ephemeris : Broadcast
% navi sys  : GPS GLONASS Galileo QZSS BDS NavIC
% amb res   : Fix and Hold
% amb glo   : Fix and Hold
% val thres : 3.0
% antenna1  :                       ( 0.0000  0.0000  0.0000)
% antenna2  :                       ( 0.0000  0.0000  0.0000)
% ref pos   : 34.744454383  137.764618776    40.7897
%
% (lat/lon/height=WGS84/ellipsoidal,Q=1:fix,2:float,3:sbas,4:dgps,5:single,6:ppp,ns=# of satellites)
%  GPST                  latitude(deg) longitude(deg)  height(m)   Q  ns   sdn(m)   sde(m)   sdu(m)  sdne(m)  sdeu(m)  sdun(m) age(s)  ratio
2024/11/12 07:33:18.000   34.744630167  137.764305592    40.9999   1  24   0.0041   0.0041   0.0095   0.0022  -0.0032  -0.0049  -0.02   12.9
2024/11/12 07:33:18.100   34.744630162  137.764305589    41.0004   1  24   0.0041   0.0041   0.0095   0.0022  -0.0032  -0.0049   0.08   12.9
2024/11/12 07:33:18.200   34.744630171  137.764305583    41.0006   1  24   0.0041   0.0041   0.0095   0.0022  -0.0032  -0.0049   0.18   12.8
2024/11/12 07:33:18.300   34.744630155  137.764305598    41.0032   1  24   0.0041   0.0041   0.0095   0.0022  -0.0032  -0.0049   0.28   12.8
2024/11/12 07:33:18.400   34.744630164  137.764305596    41.0022   1  24   0.0042   0.0041   0.0095   0.0022  -0.0032  -0.0049   0.38   12.8
2024/11/12 07:33:18.500   34.744630174  137.764305589    41.0003   1  24   0.0042   0.0042   0.0096   0.0022  -0.0032  -0.0049   0.48   12.8
2024/11/12 07:33:18.600   34.744630147  137.764305597    41.0015   1  24   0.0042   0.0041   0.0096   0.0022  -0.0032  -0.0049  -0.42   12.8
2024/11/12 07:33:18.700   34.744630146  137.764305595    41.0019   1  24   0.0041   0.0041   0.0096   0.0022  -0.0032  -0.0049  -0.32   12.8
2024/11/12 07:33:18.800   34.744630153  137.764305597    41.0025   1  24   0.0041   0.0041   0.0096   0.0022  -0.0033  -0.0049  -0.22   12.8
2024/11/12 07:33:18.900   34.744630152  137.764305589    41.0000   1  24   0.0041   0.0041   0.0096   0.0022  -0.0033  -0.0049  -0.12   12.8
2024/11/12 07:33:19.000   34.744630160  137.764305597    40.9994   1  24   0.0042   0.0041   0.0097   0.0023  -0.0033  -0.0049  -0.02   12.7
2024/11/12 07:33:19.100   34.744630160  137.764305600    41.0002   1  24   0.0042   0.0042   0.0098   0.0023  -0.0033  -0.0049   0.08   12.7
2024/11/12 07:33:19.200   34.744630164  137.764305600    40.9971   1  24   0.0042   0.0042   0.0099   0.0023  -0.0034  -0.0050   0.18   12.7
2024/11/12 07:33:19.300   34.744630161  137.764305588    40.9991   1  24   0.0042   0.0042   0.0101   0.0023  -0.0034  -0.0050   0.28   12.7
2024/11/12 07:33:19.400   34.744630162  137.764305597    40.9976   1  24   0.0042   0.0042   0.0100   0.0023  -0.0034  -0.0049   0.38   12.7
2024/11/12 07:33:19.500   34.744630170  137.764305599    40.9938   1  24   0.0041   0.0041   0.0094   0.0022  -0.0032  -0.0049   0.48   11.2
2024/11/12 07:33:19.600   34.744630177  137.764305600    40.9976   1  24   0.0041   0.0041   0.0093   0.0022  -0.0032  -0.0049  -0.42    9.5
2024/11/12 07:33:19.700   34.744630175  137.764305586    40.9979   1  24   0.0041   0.0041   0.0089   0.0021  -0.0030  -0.0048  -0.32    9.4
2024/11/12 07:33:19.800   34.744630161  137.764305602    40.9981   1  24   0.0041   0.0039   0.0088   0.0022  -0.0030  -0.0048  -0.22    8.3
2024/11/12 07:33:19.900   34.744630168  137.764305609    40.9983   1  24   0.0040   0.0039   0.0087   0.0021  -0.0031  -0.0049  -0.12    8.0
2024/11/12 07:33:20.000   34.744630168  137.764305610    40.9996   1  24   0.0040   0.0039   0.0087   0.0021  -0.0031  -0.0049  -0.02    7.9
2024/11/12 07:33:20.100   34.744630166  137.764305623    40.9996   1  24   0.0040   0.0039   0.0087   0.0021  -0.0031  -0.0049   0.08    7.9
2024/11/12 07:33:20.200   34.744630158  137.764305618    41.0007   1  24   0.0040   0.0039   0.0087   0.0021  -0.0031  -0.0049   0.18    7.9
2024/11/12 07:33:20.300   34.744630171  137.764305621    40.9982   1  24   0.0040   0.0039   0.0087   0.0021  -0.0031  -0.0049   0.28    7.9
2024/11/12 07:33:20.400   34.744630159  137.764305616    40.9986   1  24   0.0040   0.0039   0.0087   0.0021  -0.0031  -0.0049   0.38    7.9
2024/11/12 07:33:20.500   34.744630161  137.764305609    40.9995   1  24   0.0040   0.0039   0.0087   0.0021  -0.0031  -0.0049   0.48    7.9
2024/11/12 07:33:20.600   34.744630168  137.764305600    40.9975   1  24   0.0040   0.0039   0.0087   0.0021  -0.0031  -0.0049  -0.42    7.9
2024/11/12 07:33:20.700   34.744630174  137.764305601    40.9968   1  24   0.0040   0.0039   0.0087   0.0021  -0.0031  -0.0049  -0.32    7.9
2024/11/12 07:33:20.800   34.744630163  137.764305609    40.9984   1  24   0.0040   0.0039   0.0087   0.0021  -0.0031  -0.0049  -0.22    7.9
2024/11/12 07:33:20.900   34.744630183  137.764305592    40.9968   1  24   0.0040   0.0039   0.0087   0.0021  -0.0030  -0.0049  -0.12    7.9
2024/11/12 07:33:21.000   34.744630175  137.764305612    40.9963   1  24   0.0040   0.0039   0.0087   0.0021  -0.0030  -0.0049  -0.02    7.9
2024/11/12 07:33:21.100   34.744630162  137.764305615    40.9974   1  24   0.0040   0.0039   0.0087   0.0021  -0.0030  -0.0049   0.08    7.8
2024/11/12 07:33:21.200   34.744630161  137.764305610    40.9985   1  24   0.0040   0.0038   0.0086   0.0021  -0.0030  -0.0048   0.18    7.8
2024/11/12 07:33:21.300   34.744630161  137.764305601    40.9983   1  25   0.0039   0.0035   0.0084   0.0017  -0.0025  -0.0046   0.28    7.8
2024/11/12 07:33:21.400   34.744630158  137.764305609    41.0001   1  27   0.0037   0.0035   0.0080   0.0015  -0.0022  -0.0044   0.38    7.8
2024/11/12 07:33:21.500   34.744630155  137.764305603    41.0007   1  27   0.0037   0.0035   0.0080   0.0015  -0.0022  -0.0044   0.48    7.8
2024/11/12 07:33:21.600   34.744630156  137.764305589    41.0009   1  27   0.0037   0.0035   0.0080   0.0015  -0.0022  -0.0044  -0.42    7.7
2024/11/12 07:33:21.700   34.744630158  137.764305592    40.9995   1  27   0.0037   0.0035   0.0080   0.0015  -0.0022  -0.0044  -0.32    7.7
2024/11/12 07:33:21.800   34.744630158  137.764305593    40.9972   1  27   0.0037   0.0034   0.0080   0.0015  -0.0022  -0.0044  -0.22    7.7
2024/11/12 07:33:21.900   34.744630157  137.764305588    40.9993   1  27   0.0026   0.0024   0.0056   0.0010  -0.0015  -0.0031  -0.12    5.5
2024/11/12 07:33:22.000   34.744630155  137.764305602    40.9997   1  27   0.0026   0.0024   0.0057   0.0010  -0.0015  -0.0031  -0.02    6.0
2024/11/12 07:33:22.100   34.744630155  137.764305592    40.9994   1  27   0.0026   0.0024   0.0057   0.0010  -0.0015  -0.0031   0.08    6.5
2024/11/12 07:33:22.200   34.744630152  137.764305600    41.0001   1  27   0.0026   0.0024   0.0056   0.0010  -0.0015  -0.0031   0.18    6.9
2024/11/12 07:33:22.300   34.744630148  137.764305605    41.0009   1  27   0.0026   0.0024   0.0056   0.0010  -0.0015  -0.0031   0.28    7.1
2024/11/12 07:33:22.400   34.744630150  137.764305605    41.0000   1  27   0.0026   0.0024   0.0056   0.0010  -0.0015  -0.0031   0.38    7.1
2024/11/12 07:33:22.500   34.744630149  137.764305598    40.9994   1  27   0.0026   0.0024   0.0056   0.0010  -0.0015  -0.0031   0.48    7.2
2024/11/12 07:33:22.600   34.744630156  137.764305597    40.9974   1  27   0.0026   0.0024   0.0056   0.0010  -0.0015  -0.0031  -0.42    7.3
2024/11/12 07:33:22.700   34.744630153  137.764305596    40.9986   1  27   0.0026   0.0024   0.0056   0.0010  -0.0015  -0.0031  -0.32    7.3
2024/11/12 07:33:22.800   34.744630157  137.764305596    40.9968   1  28   0.0026   0.0024   0.0056   0.0010  -0.0015  -0.0031  -0.22    7.4
2024/11/12 07:33:22.900   34.744630165  137.764305609    40.9963   1  28   0.0026   0.0024   0.0056   0.0010  -0.0014  -0.0031  -0.12    7.5
2024/11/12 07:33:23.000   34.744630162  137.764305608    40.9962   1  28   0.0026   0.0024   0.0056   0.0010  -0.0014  -0.0031  -0.02    7.6
2024/11/12 07:33:23.100   34.744630162  137.764305586    40.9973   1  28   0.0026   0.0024   0.0056   0.0010  -0.0014  -0.0031   0.08    7.6
2024/11/12 07:33:23.200   34.744630159  137.764305600    40.9972   1  28   0.0026   0.0024   0.0056   0.0010  -0.0014  -0.0031   0.18    7.7
2024/11/12 07:33:23.300   34.744630146  137.764305598    40.9969   1  27   0.0026   0.0024   0.0056   0.0010  -0.0015  -0.0031   0.28    7.7
2024/11/12 07:33:23.400   34.744630162  137.764305604    40.9969   1  27   0.0026   0.0024   0.0056   0.0010  -0.0015  -0.0031   0.38    7.7
2024/11/12 07:33:23.500   34.744630169  137.764305594    40.9953   1  27   0.0026   0.0024   0.0056   0.0010  -0.0015  -0.0031   0.48    7.7
2024/11/12 07:33:23.600   34.744630168  137.764305597    40.9959   1  27   0.0026   0.0024   0.0056   0.0010  -0.0015  -0.0031  -0.42    7.8
2024/11/12 07:33:23.700   34.744630167  137.764305582    40.9948   1  27   0.0026   0.0024   0.0056   0.0010  -0.0015  -0.0031  -0.32    7.9
2024/11/12 07:33:23.800   34.744630166  137.764305592    40.9951   1  27   0.0026   0.0024   0.0056   0.0010  -0.0015  -0.0031  -0.22    8.0
2024/11/12 07:33:23.900   34.744630164  137.764305588    40.9978   1  27   0.0026   0.0024   0.0056   0.0010  -0.0015  -0.0031  -0.12    8.2
2024/11/12 07:33:24.000   34.744630166  137.764305600    40.9967   1  27   0.0026   0.0024   0.0056   0.0010  -0.0015  -0.0031  -0.02    8.3
2024/11/12 07:33:24.100   34.744630164  137.764305595    40.9970   1  27   0.0026   0.0024   0.0056   0.0010  -0.0015  -0.0031   0.08    8.4
2024/11/12 07:33:24.200   34.744630170  137.764305600    40.9943   1  27   0.0026   0.0024   0.0056   0.0010  -0.0015  -0.0031   0.18    8.4
2024/11/12 07:33:24.300   34.744630173  137.764305597    40.9947   1  27   0.0026   0.0024   0.0056   0.0010  -0.0015  -0.0031   0.28    8.5
2024/11/12 07:33:24.400   34.744630160  137.764305612    40.9960   1  27   0.0026   0.0024   0.0056   0.0010  -0.0015  -0.0031   0.38    8.5
2024/11/12 07:33:24.500   34.744630166  137.764305592    40.9964   1  27   0.0026   0.0024   0.0056   0.0010  -0.0015  -0.0031   0.48    8.6
2024/11/12 07:33:24.600   34.744630155  137.764305601    40.9967   1  27   0.0026   0.0024   0.0056   0.0010  -0.0015  -0.0031  -0.42    8.6
2024/11/12 07:33:24.700   34.744630161  137.764305592    40.9968   1  27   0.0026   0.0024   0.0056   0.0010  -0.0015  -0.0031  -0.32    8.7
2024/11/12 07:33:24.800   34.744630149  137.764305593    40.9972   1  27   0.0026   0.0024   0.0056   0.0010  -0.0015  -0.0031  -0.22    8.8
2024/11/12 07:33:24.900   34.744630162  137.764305604    40.9970   1  27   0.0026   0.0024   0.0056   0.0010  -0.0015  -0.0031  -0.12    8.8
2024/11/12 07:33:25.000   34.744630156  137.764305601    40.9978   1  27   0.0026   0.0024   0.0056   0.0010  -0.0015  -0.0031  -0.02    8.8
2024/11/12 07:33:25.100   34.744630150  137.764305604    40.9977   1  27   0.0026   0.0024   0.0056   0.0010  -0.0015  -0.0031   0.08    8.9
2024/11/12 07:33:25.200   34.744630152  137.764305601    40.9985   1  27   0.0026   0.0024   0.0056   0.0010  -0.0015  -0.0031   0.18    8.9
2024/11/12 07:33:25.300   34.744630147  137.764305609    40.9994   1  27   0.0026   0.0024   0.0056   0.0010  -0.0015  -0.0031   0.28    8.9
2024/11/12 07:33:25.400   34.744630155  137.764305610    40.9974   1  27   0.0026   0.0024   0.0056   0.0010  -0.0015  -0.0031   0.38    9.0
2024/11/12 07:33:25.500   34.744630145  137.764305608    40.9985   1  27   0.0026   0.0024   0.0056   0.0010  -0.0015  -0.0031   0.48    9.0
2024/11/12 07:33:25.600   34.744630164  137.764305593    40.9962   1  27   0.0026   0.0024   0.0056   0.0010  -0.0015  -0.0031  -0.42    9.0
2024/11/12 07:33:25.700   34.744630165  137.764305590    40.9959   1  27   0.0026   0.0024   0.0056   0.0010  -0.0015  -0.0031  -0.32    9.1
2024/11/12 07:33:25.800   34.744630153  137.764305593    40.9971   1  27   0.0026   0.0024   0.0056   0.0010  -0.0015  -0.0031  -0.22    9.1
2024/11/12 07:33:25.900   34.744630167  137.764305595    40.9974   1  27   0.0026   0.0024   0.0056   0.0010  -0.0015  -0.0031  -0.12    9.2
2024/11/12 07:33:26.000   34.744630166  137.764305598    40.9965   1  27   0.0026   0.0024   0.0056   0.0010  -0.0015  -0.0031  -0.02    9.2
2024/11/12 07:33:26.100   34.744630159  137.764305599    40.9990   1  27   0.0026   0.0024   0.0056   0.0010  -0.0015  -0.0031   0.08    9.2
2024/11/12 07:33:26.200   34.744630167  137.764305600    40.9969   1  27   0.0026   0.0024   0.0056   0.0010  -0.0015  -0.0031   0.18    9.2
2024/11/12 07:33:26.300   34.744630168  137.764305598    40.9958   1  27   0.0026   0.0024   0.0056   0.0010  -0.0015  -0.0031   0.28    9.2
2024/11/12 07:33:26.400   34.744630167  137.764305602    40.9977   1  27   0.0026   0.0024   0.0056   0.0010  -0.0015  -0.0031   0.38    9.3
2024/11/12 07:33:26.500   34.744630165  137.764305604    40.9969   1  27   0.0026   0.0024   0.0056   0.0010  -0.0015  -0.0031   0.48    9.3
2024/11/12 07:33:26.600   34.744630156  137.764305597    40.9998   1  27   0.0026   0.0024   0.0056   0.0010  -0.0015  -0.0031  -0.42    9.3
2024/11/12 07:33:26.700   34.744630153  137.764305616    40.9999   1  27   0.0026   0.0024   0.0056   0.0010  -0.0015  -0.0031  -0.32    9.3
2024/11/12 07:33:26.800   34.744630148  137.764305605    41.0009   1  27   0.0026   0.0024   0.0056   0.0010  -0.0015  -0.0031  -0.22    9.4
2024/11/12 07:33:26.900   34.744630147  137.764305607    41.0013   1  27   0.0026   0.0024   0.0056   0.0010  -0.0015  -0.0031  -0.12    9.4
2024/11/12 07:33:27.000   34.744630158  137.764305617    40.9996   1  27   0.0026   0.0024   0.0056   0.0010  -0.0015  -0.0031  -0.02    9.4
2024/11/12 07:33:27.100   34.744630152  137.764305613    41.0008   1  27   0.0026   0.0024   0.0056   0.0010  -0.0015  -0.0031   0.08    9.4
2024/11/12 07:33:27.200   34.744630156  137.764305624    40.9986   1  27   0.0026   0.0024   0.0056   0.0010  -0.0015  -0.0031   0.18    9.4
2024/11/12 07:33:27.300   34.744630150  137.764305616    41.0009   1  27   0.0026   0.0024   0.0056   0.0010  -0.0015  -0.0031   0.28    9.4
2024/11/12 07:33:27.400   34.744630144  137.764305606    41.0007   1  27   0.0026   0.0024   0.0056   0.0010  -0.0015  -0.0031   0.38    9.4
2024/11/12 07:33:27.500   34.744630142  137.764305610    40.9988   1  27   0.0026   0.0024   0.0056   0.0010  -0.0015  -0.0031   0.48    9.4
2024/11/12 07:33:27.600   34.744630184  137.764305606    40.9952   1  27   0.0026   0.0024   0.0056   0.0010  -0.0015  -0.0031  -0.42    9.5
2024/11/12 07:33:27.700   34.744630169  137.764305603    40.9964   1  27   0.0026   0.0024   0.0056   0.0010  -0.0015  -0.0031  -0.32    9.5
2024/11/12 07:33:27.800   34.744630167  137.764305613    40.9961   1  27   0.0026   0.0024   0.0056   0.0010  -0.0015  -0.0031  -0.22    9.5
2024/11/12 07:33:27.900   34.744630160  137.764305609    40.9967   1  27   0.0026   0.0024   0.0056   0.0010  -0.0015  -0.0031  -0.12    9.5
2024/11/12 07:33:28.000   34.744630161  137.764305612    40.9970   1  27   0.0026   0.0024   0.0056   0.0010  -0.0015  -0.0031  -0.02    9.5
2024/11/12 07:33:28.100   34.744630166  137.764305614    40.9968   1  27   0.0026   0.0024   0.0056   0.0010  -0.0015  -0.0031   0.08    9.5
2024/11/12 07:33:28.200   34.744630159  137.764305615    40.9976   1  27   0.0026   0.0024   0.0056   0.0010  -0.0015  -0.0031   0.18    9.5
2024/11/12 07:33:28.300   34.744630168  137.764305613    40.9959   1  27   0.0026   0.0024   0.0056   0.0010  -0.0015  -0.0031   0.28    9.5
2024/11/12 07:33:28.400   34.744630172  137.764305612    40.9955   1  27   0.0026   0.0024   0.0056   0.0010  -0.0015  -0.0031   0.38    9.5
2024/11/12 07:33:28.500   34.744630170  137.764305614    40.9960   1  27   0.0026   0.0024   0.0056   0.0010  -0.0015  -0.0031   0.48    9.5
2024/11/12 07:33:28.600   34.744630156  137.764305609    40.9992   1  27   0.0026   0.0024   0.0055   0.0010  -0.0015  -0.0030  -0.42    9.4
2024/11/12 07:33:28.700   34.744630154  137.764305608    41.0002   1  27   0.0025   0.0024   0.0054   0.0010  -0.0015  -0.0030  -0.32    9.4
2024/11/12 07:33:28.800   34.744630148  137.764305616    40.9998   1  27   0.0025   0.0024   0.0054   0.0010  -0.0015  -0.0029  -0.22    9.4
2024/11/12 07:33:28.900   34.744630156  137.764305595    41.0004   1  27   0.0025   0.0024   0.0054   0.0010  -0.0015  -0.0029  -0.12    9.4
2024/11/12 07:33:29.000   34.744630168  137.764305604    40.9977   1  27   0.0025   0.0024   0.0053   0.0010  -0.0015  -0.0029  -0.02    3.3
2024/11/12 07:33:29.100   34.744630146  137.764305598    40.9986   1  27   0.0025   0.0024   0.0053   0.0010  -0.0015  -0.0029   0.08    3.8
2024/11/12 07:33:29.200   34.744630156  137.764305607    40.9992   1  27   0.0025   0.0024   0.0053   0.0010  -0.0015  -0.0029   0.18    4.2
2024/11/12 07:33:29.300   34.744630164  137.764305605    40.9986   1  27   0.0025   0.0024   0.0053   0.0010  -0.0014  -0.0029   0.28    4.6
2024/11/12 07:33:29.400   34.744630150  137.764305595    41.0013   1  27   0.0025   0.0024   0.0053   0.0010  -0.0013  -0.0029   0.38    5.0
2024/11/12 07:33:29.500   34.744630155  137.764305586    41.0008   1  28   0.0025   0.0024   0.0053   0.0010  -0.0013  -0.0029   0.48    5.4
2024/11/12 07:33:29.600   34.744630166  137.764305592    41.0006   1  28   0.0025   0.0024   0.0053   0.0009  -0.0013  -0.0029  -0.42    5.8
2024/11/12 07:33:29.700   34.744630163  137.764305595    40.9982   1  28   0.0025   0.0023   0.0053   0.0009  -0.0013  -0.0029  -0.32    6.2
2024/11/12 07:33:29.800   34.744630166  137.764305587    40.9977   1  28   0.0025   0.0023   0.0052   0.0009  -0.0013  -0.0029  -0.22    6.7
2024/11/12 07:33:29.900   34.744630172  137.764305588    40.9969   1  28   0.0025   0.0023   0.0052   0.0009  -0.0013  -0.0029  -0.12    7.1
2024/11/12 07:33:30.000   34.744630169  137.764305601    40.9959   1  28   0.0025   0.0023   0.0052   0.0009  -0.0012  -0.0029  -0.02    7.5
2024/11/12 07:33:30.100   34.744630156  137.764305595    40.9989   1  28   0.0025   0.0023   0.0052   0.0009  -0.0012  -0.0029   0.08    7.8
2024/11/12 07:33:30.200   34.744630149  137.764305589    41.0017   1  28   0.0025   0.0023   0.0052   0.0009  -0.0012  -0.0029   0.18    8.2
2024/11/12 07:33:30.300   34.744630147  137.764305598    41.0016   1  28   0.0025   0.0023   0.0052   0.0009  -0.0012  -0.0029   0.28    8.6
2024/11/12 07:33:30.400   34.744630146  137.764305584    41.0009   1  28   0.0025   0.0023   0.0052   0.0009  -0.0012  -0.0029   0.38    9.0
2024/11/12 07:33:30.500   34.744630159  137.764305601    40.9984   1  28   0.0025   0.0023   0.0052   0.0009  -0.0012  -0.0029   0.48    9.3
2024/11/12 07:33:30.600   34.744630172  137.764305611    40.9975   1  28   0.0025   0.0023   0.0052   0.0009  -0.0012  -0.0029  -0.42    9.3
2024/11/12 07:33:30.700   34.744630175  137.764305601    40.9962   1  28   0.0025   0.0023   0.0052   0.0009  -0.0012  -0.0029  -0.32    9.3
2024/11/12 07:33:30.800   34.744630161  137.764305601    40.9991   1  28   0.0025   0.0023   0.0052   0.0009  -0.0012  -0.0029  -0.22    9.3
2024/11/12 07:33:30.900   34.744630147  137.764305606    41.0016   1  28   0.0025   0.0023   0.0052   0.0009  -0.0012  -0.0029  -0.12    9.3
2024/11/12 07:33:31.000   34.744630142  137.764305605    41.0009   1  28   0.0025   0.0023   0.0052   0.0009  -0.0012  -0.0029  -0.02    9.3
2024/11/12 07:33:31.100   34.744630157  137.764305602    40.9992   1  28   0.0025   0.0023   0.0052   0.0009  -0.0012  -0.0029   0.08    9.3
2024/11/12 07:33:31.200   34.744630151  137.764305597    40.9999   1  28   0.0025   0.0023   0.0052   0.0009  -0.0012  -0.0029   0.18    9.3
2024/11/12 07:33:31.300   34.744630165  137.764305587    40.9966   1  28   0.0025   0.0023   0.0052   0.0009  -0.0012  -0.0029   0.28    9.3
2024/11/12 07:33:31.400   34.744630182  137.764305589    40.9948   1  28   0.0025   0.0023   0.0052   0.0009  -0.0012  -0.0029   0.38    9.3
2024/11/12 07:33:31.500   34.744630178  137.764305596    40.9944   1  28   0.0025   0.0023   0.0052   0.0009  -0.0012  -0.0029   0.48    9.3
2024/11/12 07:33:31.600   34.744630166  137.764305579    40.9953   1  28   0.0025   0.0023   0.0052   0.0009  -0.0012  -0.0029  -0.42    9.3
2024/11/12 07:33:31.700   34.744630164  137.764305580    40.9978   1  28   0.0025   0.0023   0.0052   0.0009  -0.0012  -0.0029  -0.32    9.3
2024/11/12 07:33:31.800   34.744630163  137.764305592    40.9990   1  28   0.0025   0.0023   0.0052   0.0009  -0.0012  -0.0029  -0.22    9.3
2024/11/12 07:33:31.900   34.744630143  137.764305586    41.0020   1  28   0.0025   0.0023   0.0052   0.0009  -0.0012  -0.0029  -0.12    9.3
2024/11/12 07:33:32.000   34.744630152  137.764305570    40.9988   1  28   0.0025   0.0023   0.0052   0.0009  -0.0012  -0.0028  -0.02    9.4
2024/11/12 07:33:32.100   34.744630162  137.764305585    40.9983   1  28   0.0025   0.0023   0.0052   0.0009  -0.0012  -0.0029   0.08    9.4
2024/11/12 07:33:32.200   34.744630135  137.764305580    41.0031   1  28   0.0025   0.0023   0.0052   0.0009  -0.0012  -0.0029   0.18    9.4
2024/11/12 07:33:32.300   34.744630145  137.764305581    41.0011   1  28   0.0025   0.0023   0.0052   0.0009  -0.0012  -0.0029   0.28    9.4
2024/11/12 07:33:32.400   34.744630148  137.764305591    41.0012   1  28   0.0025   0.0023   0.0052   0.0009  -0.0012  -0.0029   0.38    9.4
2024/11/12 07:33:32.500   34.744630145  137.764305579    41.0017   1  28   0.0025   0.0023   0.0052   0.0009  -0.0012  -0.0029   0.48    9.4
2024/11/12 07:33:32.600   34.744630156  137.764305576    40.9979   1  28   0.0025   0.0023   0.0052   0.0009  -0.0012  -0.0029  -0.42    9.4
2024/11/12 07:33:32.700   34.744630159  137.764305577    41.0001   1  28   0.0025   0.0023   0.0052   0.0009  -0.0012  -0.0029  -0.32    9.4
2024/11/12 07:33:32.800   34.744630168  137.764305582    40.9985   1  28   0.0025   0.0023   0.0052   0.0009  -0.0012  -0.0029  -0.22    9.4
2024/11/12 07:33:32.900   34.744630170  137.764305580    40.9979   1  28   0.0025   0.0023   0.0052   0.0009  -0.0012  -0.0029  -0.12    9.4
2024/11/12 07:33:33.000   34.744630159  137.764305570    40.9983   1  28   0.0025   0.0023   0.0052   0.0009  -0.0012  -0.0028  -0.02    9.3
2024/11/12 07:33:33.100   34.744630155  137.764305584    41.0001   1  28   0.0025   0.0023   0.0052   0.0009  -0.0012  -0.0028   0.08    9.3
2024/11/12 07:33:33.200   34.744630150  137.764305571    40.9988   1  28   0.0025   0.0023   0.0052   0.0009  -0.0012  -0.0029   0.18    9.3
2024/11/12 07:33:33.300   34.744630154  137.764305574    40.9989   1  28   0.0025   0.0023   0.0052   0.0009  -0.0012  -0.0029   0.28    9.3
2024/11/12 07:33:33.400   34.744630150  137.764305591    40.9998   1  28   0.0025   0.0023   0.0052   0.0009  -0.0012  -0.0029   0.38    9.3
2024/11/12 07:33:33.500   34.744630146  137.764305566    40.9985   1  28   0.0025   0.0023   0.0052   0.0009  -0.0012  -0.0029   0.48    9.3
2024/11/12 07:33:33.600   34.744630153  137.764305573    40.9960   1  28   0.0025   0.0023   0.0052   0.0009  -0.0012  -0.0029  -0.42    9.3
2024/11/12 07:33:33.700   34.744630161  137.764305576    40.9970   1  28   0.0025   0.0023   0.0052   0.0009  -0.0012  -0.0029  -0.32    9.3
2024/11/12 07:33:33.800   34.744630146  137.764305583    40.9981   1  28   0.0025   0.0023   0.0052   0.0009  -0.0012  -0.0029  -0.22    9.3
2024/11/12 07:33:33.900   34.744630144  137.764305582    40.9968   1  28   0.0025   0.0023   0.0052   0.0009  -0.0012  -0.0028  -0.12    9.3
2024/11/12 07:33:34.000   34.744630145  137.764305576    40.9993   1  28   0.0025   0.0023   0.0052   0.0009  -0.0012  -0.0028  -0.02    9.3
2024/11/12 07:33:34.100   34.744630148  137.764305576    41.0010   1  28   0.0025   0.0023   0.0052   0.0009  -0.0012  -0.0028   0.08    9.3
2024/11/12 07:33:34.200   34.744630151  137.764305586    40.9986   1  28   0.0025   0.0023   0.0052   0.0009  -0.0012  -0.0029   0.18    9.3
2024/11/12 07:33:34.300   34.744630148  137.764305583    40.9996   1  28   0.0025   0.0023   0.0052   0.0009  -0.0012  -0.0029   0.28    9.3
2024/11/12 07:33:34.400   34.744630142  137.764305578    40.9998   1  28   0.0025   0.0023   0.0052   0.0009  -0.0012  -0.0029   0.38    9.3
2024/11/12 07:33:34.500   34.744630151  137.764305604    40.9999   1  28   0.0025   0.0023   0.0052   0.0009  -0.0012  -0.0029   0.48    9.3
2024/11/12 07:33:34.600   34.744630159  137.764305598    40.9976   1  28   0.0025   0.0023   0.0052   0.0009  -0.0012  -0.0029  -0.42    9.3
2024/11/12 07:33:34.700   34.744630149  137.764305594    40.9979   1  28   0.0025   0.0023   0.0052   0.0009  -0.0012  -0.0029  -0.32    9.3
2024/11/12 07:33:34.800   34.744630161  137.764305606    40.9970   1  28   0.0025   0.0023   0.0052   0.0009  -0.0012  -0.0029  -0.22    9.3
2024/11/12 07:33:34.900   34.744630152  137.764305603    40.9962   1  28   0.0025   0.0023   0.0052   0.0009  -0.0012  -0.0028  -0.12    9.3
2024/11/12 07:33:35.000   34.744630161  137.764305596    40.9977   1  28   0.0025   0.0023   0.0052   0.0009  -0.0012  -0.0028  -0.02    9.3
2024/11/12 07:33:35.100   34.744630155  137.764305590    40.9967   1  28   0.0025   0.0023   0.0052   0.0009  -0.0012  -0.0028   0.08    9.3
2024/11/12 07:33:35.200   34.744630156  137.764305605    40.9959   1  28   0.0025   0.0023   0.0052   0.0009  -0.0012  -0.0029   0.18    9.3
2024/11/12 07:33:35.300   34.744630163  137.764305602    40.9967   1  28   0.0025   0.0023   0.0052   0.0009  -0.0012  -0.0029   0.28    9.3
2024/11/12 07:33:35.400   34.744630155  137.764305605    40.9972   1  28   0.0025   0.0023   0.0052   0.0009  -0.0012  -0.0029   0.38    9.3
2024/11/12 07:33:35.500   34.744630145  137.764305605    40.9975   1  28   0.0025   0.0023   0.0052   0.0009  -0.0012  -0.0029   0.48    9.3
2024/11/12 07:33:35.600   34.744630151  137.764305585    40.9973   1  28   0.0025   0.0023   0.0052   0.0009  -0.0012  -0.0029  -0.42    9.3
2024/11/12 07:33:35.700   34.744630155  137.764305595    40.9983   1  28   0.0025   0.0023   0.0052   0.0009  -0.0012  -0.0029  -0.32    9.3
2024/11/12 07:33:35.800   34.744630152  137.764305597    40.9982   1  28   0.0025   0.0023   0.0052   0.0009  -0.0012  -0.0029  -0.22    9.3
2024/11/12 07:33:35.900   34.744630162  137.764305592    40.9954   1  28   0.0025   0.0023   0.0052   0.0009  -0.0012  -0.0028  -0.12    9.3
2024/11/12 07:33:36.000   34.744630150  137.764305577    40.9970   1  28   0.0025   0.0023   0.0052   0.0009  -0.0012  -0.0028  -0.02    9.4
2024/11/12 07:33:36.100   34.744630155  137.764305597    40.9967   1  28   0.0025   0.0023   0.0052   0.0009  -0.0012  -0.0028   0.08    9.4
2024/11/12 07:33:36.200   34.744630167  137.764305583    40.9942   1  28   0.0025   0.0023   0.0052   0.0009  -0.0012  -0.0029   0.18    9.4
2024/11/12 07:33:36.300   34.744630162  137.764305594    40.9954   1  28   0.0025   0.0023   0.0052   0.0009  -0.0012  -0.0029   0.28    9.4
2024/11/12 07:33:36.400   34.744630165  137.764305584    40.9959   1  28   0.0025   0.0023   0.0052   0.0009  -0.0012  -0.0029   0.38    9.4
2024/11/12 07:33:36.500   34.744630149  137.764305592    40.9964   1  28   0.0025   0.0023   0.0052   0.0009  -0.0012  -0.0029   0.48    9.4
2024/11/12 07:33:36.600   34.744630162  137.764305590    40.9987   1  28   0.0025   0.0023   0.0052   0.0009  -0.0012  -0.0029  -0.42    9.4
2024/11/12 07:33:36.700   34.744630160  137.764305584    40.9985   1  28   0.0025   0.0023   0.0052   0.0009  -0.0012  -0.0029  -0.32    9.4
2024/11/12 07:33:36.800   34.744630158  137.764305592    40.9992   1  28   0.0025   0.0023   0.0052   0.0009  -0.0011  -0.0028  -0.22    9.4
2024/11/12 07:33:36.900   34.744630155  137.764305594    40.9987   1  28   0.0025   0.0023   0.0052   0.0009  -0.0011  -0.0028  -0.12    9.4
2024/11/12 07:33:37.000   34.744630155  137.764305569    40.9997   1  28   0.0025   0.0022   0.0052   0.0009  -0.0011  -0.0028  -0.02    9.4
2024/11/12 07:33:37.100   34.744630155  137.764305578    40.9980   1  28   0.0025   0.0022   0.0052   0.0009  -0.0010  -0.0028   0.08    9.4
2024/11/12 07:33:37.200   34.744630159  137.764305589    40.9989   1  28   0.0025   0.0022   0.0052   0.0009  -0.0010  -0.0028   0.18    9.4
2024/11/12 07:33:37.300   34.744630151  137.764305591    41.0016   1  28   0.0025   0.0022   0.0052   0.0009  -0.0010  -0.0028   0.28    9.4
2024/11/12 07:33:37.400   34.744630140  137.764305578    41.0021   1  28   0.0025   0.0022   0.0052   0.0009  -0.0010  -0.0028   0.38    9.4
2024/11/12 07:33:37.500   34.744630151  137.764305590    41.0015   1  28   0.0025   0.0022   0.0052   0.0009  -0.0010  -0.0028   0.48    9.4
2024/11/12 07:33:37.600   34.744630155  137.764305583    40.9995   1  28   0.0025   0.0022   0.0052   0.0009  -0.0010  -0.0028  -0.42    9.4
2024/11/12 07:33:37.700   34.744630166  137.764305585    40.9970   1  28   0.0025   0.0022   0.0052   0.0009  -0.0010  -0.0028  -0.32    9.4
2024/11/12 07:33:37.800   34.744630163  137.764305585    40.9984   1  28   0.0025   0.0022   0.0052   0.0009  -0.0010  -0.0028  -0.22    9.4
2024/11/12 07:33:37.900   34.744630157  137.764305580    40.9983   1  28   0.0025   0.0022   0.0052   0.0009  -0.0010  -0.0028  -0.12    9.4
2024/11/12 07:33:38.000   34.744630158  137.764305593    40.9992   1  28   0.0025   0.0022   0.0052   0.0009  -0.0010  -0.0028  -0.02    9.4
2024/11/12 07:33:38.100   34.744630160  137.764305577    40.9989   1  28   0.0025   0.0022   0.0052   0.0009  -0.0010  -0.0028   0.08    9.4
2024/11/12 07:33:38.200   34.744630153  137.764305588    41.0008   1  28   0.0025   0.0022   0.0052   0.0009  -0.0010  -0.0028   0.18    9.4
2024/11/12 07:33:38.300   34.744630151  137.764305571    41.0016   1  28   0.0025   0.0022   0.0052   0.0009  -0.0010  -0.0028   0.28    3.0
2024/11/12 07:33:38.400   34.744630142  137.764305575    41.0037   1  28   0.0025   0.0022   0.0052   0.0009  -0.0010  -0.0028   0.38    3.0
2024/11/12 07:33:38.500   34.744630150  137.764305575    41.0013   1  28   0.0025   0.0022   0.0052   0.0009  -0.0010  -0.0028   0.48    3.0
2024/11/12 07:33:38.600   34.744630166  137.764305566    40.9983   1  28   0.0025   0.0022   0.0052   0.0009  -0.0010  -0.0028  -0.42    3.0
2024/11/12 07:33:38.700   34.744630163  137.764305579    40.9974   1  28   0.0025   0.0022   0.0052   0.0009  -0.0010  -0.0028  -0.32    3.1
2024/11/12 07:33:38.800   34.744630154  137.764305572    40.9980   1  28   0.0025   0.0022   0.0052   0.0009  -0.0010  -0.0028  -0.22    3.1
2024/11/12 07:33:38.900   34.744630165  137.764305574    40.9976   1  28   0.0025   0.0022   0.0052   0.0009  -0.0010  -0.0028  -0.12    3.1
2024/11/12 07:33:39.000   34.744630161  137.764305571    41.0003   1  28   0.0025   0.0022   0.0052   0.0009  -0.0010  -0.0028  -0.02    3.1
2024/11/12 07:33:39.100   34.744630155  137.764305574    40.9992   1  28   0.0025   0.0022   0.0052   0.0009  -0.0010  -0.0028   0.08    3.1
2024/11/12 07:33:39.200   34.744630152  137.764305573    40.9998   1  28   0.0025   0.0022   0.0051   0.0009  -0.0010  -0.0028   0.18    3.1
2024/11/12 07:33:39.300   34.744630155  137.764305582    40.9994   1  29   0.0025   0.0022   0.0051   0.0009  -0.0011  -0.0028   0.28    3.2
2024/11/12 07:33:39.400   34.744630156  137.764305571    40.9982   1  29   0.0025   0.0022   0.0051   0.0009  -0.0011  -0.0028   0.38    3.2
2024/11/12 07:33:39.500   34.744630152  137.764305577    40.9980   1  29   0.0025   0.0022   0.0050   0.0009  -0.0011  -0.0027   0.48    3.2
2024/11/12 07:33:39.600   34.744630174  137.764305568    40.9948   1  29   0.0025   0.0022   0.0050   0.0009  -0.0012  -0.0027  -0.42    3.2
2024/11/12 07:33:39.700   34.744630180  137.764305570    40.9943   1  29   0.0025   0.0022   0.0050   0.0009  -0.0012  -0.0027  -0.32    3.2
2024/11/12 07:33:39.800   34.744630163  137.764305577    40.9954   1  29   0.0025   0.0022   0.0050   0.0009  -0.0012  -0.0027  -0.22    3.2
2024/11/12 07:33:39.900   34.744630169  137.764305572    40.9967   1  29   0.0025   0.0022   0.0050   0.0009  -0.0012  -0.0027  -0.12    3.2
2024/11/12 07:33:40.000   34.744630164  137.764305568    40.9968   1  29   0.0025   0.0022   0.0050   0.0009  -0.0012  -0.0027  -0.02    3.3
2024/11/12 07:33:40.100   34.744630165  137.764305578    40.9971   1  29   0.0025   0.0022   0.0050   0.0009  -0.0012  -0.0027   0.08    3.3
2024/11/12 07:33:40.200   34.744630159  137.764305576    40.9989   1  29   0.0025   0.0022   0.0050   0.0009  -0.0012  -0.0027   0.18    3.3
2024/11/12 07:33:40.300   34.744630162  137.764305576    40.9965   1  29   0.0025   0.0022   0.0050   0.0009  -0.0012  -0.0027   0.28    3.3
2024/11/12 07:33:40.400   34.744630166  137.764305569    40.9954   1  29   0.0025   0.0022   0.0050   0.0009  -0.0012  -0.0027   0.38    3.3
2024/11/12 07:33:40.500   34.744630166  137.764305572    40.9985   1  29   0.0025   0.0022   0.0050   0.0009  -0.0012  -0.0027   0.48    3.3
2024/11/12 07:33:40.600   34.744630159  137.764305564    40.9998   1  29   0.0025   0.0022   0.0050   0.0009  -0.0012  -0.0027  -0.42    3.3
2024/11/12 07:33:40.700   34.744630157  137.764305562    40.9988   1  29   0.0025   0.0022   0.0050   0.0009  -0.0012  -0.0027  -0.32    3.4
2024/11/12 07:33:40.800   34.744630154  137.764305553    40.9998   1  29   0.0025   0.0022   0.0050   0.0009  -0.0012  -0.0027  -0.22    3.4
2024/11/12 07:33:40.900   34.744630157  137.764305559    41.0003   1  29   0.0025   0.0022   0.0050   0.0009  -0.0012  -0.0027  -0.12    3.4
2024/11/12 07:33:41.000   34.744630162  137.764305568    41.0006   1  29   0.0025   0.0022   0.0050   0.0009  -0.0012  -0.0027  -0.02    3.4
2024/11/12 07:33:41.100   34.744630148  137.764305565    41.0005   1  29   0.0025   0.0022   0.0050   0.0009  -0.0012  -0.0027   0.08    3.4
2024/11/12 07:33:41.200   34.744630158  137.764305565    40.9998   1  29   0.0025   0.0022   0.0050   0.0009  -0.0012  -0.0027   0.18    3.4
2024/11/12 07:33:41.300   34.744630160  137.764305563    41.0028   1  29   0.0025   0.0022   0.0050   0.0009  -0.0012  -0.0027   0.28    3.4
2024/11/12 07:33:41.400   34.744630166  137.764305574    41.0033   1  29   0.0025   0.0022   0.0050   0.0010  -0.0012  -0.0027   0.38    3.4
2024/11/12 07:33:41.500   34.744630157  137.764305575    41.0025   1  29   0.0025   0.0022   0.0050   0.0010  -0.0012  -0.0027   0.48    3.4
2024/11/12 07:33:41.600   34.744630149  137.764305571    41.0022   1  29   0.0025   0.0022   0.0050   0.0010  -0.0012  -0.0027  -0.42    3.4
2024/11/12 07:33:41.700   34.744630160  137.764305567    41.0007   1  29   0.0025   0.0022   0.0050   0.0010  -0.0012  -0.0027  -0.32    3.4
2024/11/12 07:33:41.800   34.744630152  137.764305570    41.0000   1  29   0.0025   0.0022   0.0050   0.0009  -0.0012  -0.0027  -0.22    3.4
2024/11/12 07:33:41.900   34.744630150  137.764305576    41.0002   1  29   0.0025   0.0022   0.0050   0.0009  -0.0012  -0.0027  -0.12    3.5
2024/11/12 07:33:42.000   34.744630162  137.764305580    40.9984   1  29   0.0024   0.0022   0.0050   0.0009  -0.0012  -0.0027  -0.02    3.5
2024/11/12 07:33:42.100   34.744630160  137.764305577    40.9981   1  29   0.0024   0.0022   0.0050   0.0009  -0.0012  -0.0027   0.08    3.5
2024/11/12 07:33:42.200   34.744630163  137.764305569    40.9983   1  29   0.0025   0.0022   0.0050   0.0009  -0.0012  -0.0027   0.18    3.0
2024/11/12 07:33:42.300   34.744630163  137.764305572    40.9987   1  29   0.0025   0.0022   0.0050   0.0009  -0.0012  -0.0027   0.28    3.1
2024/11/12 07:33:42.400   34.744630160  137.764305577    40.9998   1  29   0.0025   0.0022   0.0050   0.0010  -0.0012  -0.0027   0.38    3.1
2024/11/12 07:33:42.500   34.744630155  137.764305582    40.9991   1  29   0.0025   0.0022   0.0050   0.0010  -0.0012  -0.0027   0.48    3.1
2024/11/12 07:33:42.600   34.744630166  137.764305557    40.9972   1  29   0.0025   0.0022   0.0050   0.0010  -0.0012  -0.0027  -0.42    3.2
2024/11/12 07:33:42.700   34.744630164  137.764305557    40.9970   1  29   0.0025   0.0022   0.0050   0.0009  -0.0012  -0.0027  -0.32    3.2
2024/11/12 07:33:42.800   34.744630156  137.764305555    40.9985   1  29   0.0025   0.0022   0.0050   0.0009  -0.0012  -0.0027  -0.22    3.2
2024/11/12 07:33:42.900   34.744630152  137.764305551    41.0012   1  29   0.0024   0.0022   0.0050   0.0009  -0.0012  -0.0027  -0.12    3.3
2024/11/12 07:33:43.000   34.744630142  137.764305549    41.0023   1  29   0.0024   0.0022   0.0050   0.0009  -0.0012  -0.0027  -0.02    3.3
2024/11/12 07:33:43.100   34.744630137  137.764305560    41.0045   1  29   0.0024   0.0022   0.0050   0.0009  -0.0012  -0.0027   0.08    3.3
2024/11/12 07:33:43.200   34.744630134  137.764305554    41.0068   1  29   0.0025   0.0022   0.0050   0.0009  -0.0012  -0.0027   0.18    3.4
2024/11/12 07:33:43.300   34.744630133  137.764305544    41.0055   1  29   0.0025   0.0022   0.0050   0.0009  -0.0012  -0.0027   0.28    3.4
2024/11/12 07:33:43.400   34.744630144  137.764305538    41.0040   1  29   0.0025   0.0022   0.0050   0.0010  -0.0012  -0.0027   0.38    3.4
2024/11/12 07:33:43.500   34.744630135  137.764305544    41.0040   1  29   0.0025   0.0022   0.0050   0.0010  -0.0012  -0.0027   0.48    3.4
2024/11/12 07:33:43.600   34.744630139  137.764305546    41.0035   1  29   0.0025   0.0022   0.0050   0.0010  -0.0012  -0.0027  -0.42    3.5
2024/11/12 07:33:43.700   34.744630151  137.764305541    41.0020   1  29   0.0025   0.0022   0.0050   0.0009  -0.0012  -0.0027  -0.32    3.5
2024/11/12 07:33:43.800   34.744630152  137.764305554    41.0019   1  29   0.0025   0.0022   0.0050   0.0009  -0.0012  -0.0027  -0.22    3.5
2024/11/12 07:33:43.900   34.744630154  137.764305547    41.0023   1  29   0.0024   0.0022   0.0050   0.0009  -0.0012  -0.0027  -0.12    3.6
2024/11/12 07:33:44.000   34.744630154  137.764305566    41.0022   1  29   0.0024   0.0022   0.0050   0.0009  -0.0012  -0.0027  -0.02    3.6
2024/11/12 07:33:44.100   34.744630146  137.764305551    41.0052   1  29   0.0024   0.0022   0.0050   0.0009  -0.0012  -0.0027   0.08    3.6
2024/11/12 07:33:44.200   34.744630146  137.764305549    41.0040   1  29   0.0025   0.0022   0.0050   0.0009  -0.0012  -0.0027   0.18    3.6
2024/11/12 07:33:44.300   34.744630148  137.764305558    41.0041   1  29   0.0025   0.0022   0.0050   0.0009  -0.0012  -0.0027   0.28    3.7
2024/11/12 07:33:44.400   34.744630141  137.764305554    41.0048   1  29   0.0025   0.0022   0.0050   0.0010  -0.0012  -0.0027   0.38    3.7
2024/11/12 07:33:44.500   34.744630144  137.764305559    41.0042   1  29   0.0025   0.0022   0.0050   0.0010  -0.0012  -0.0027   0.48    3.7
2024/11/12 07:33:44.600   34.744630149  137.764305558    41.0018   1  29   0.0025   0.0022   0.0050   0.0010  -0.0012  -0.0027  -0.42    3.7
2024/11/12 07:33:44.700   34.744630147  137.764305564    41.0023   1  29   0.0025   0.0022   0.0050   0.0009  -0.0012  -0.0027  -0.32    3.8
2024/11/12 07:33:44.800   34.744630146  137.764305557    41.0013   1  29   0.0025   0.0022   0.0050   0.0009  -0.0012  -0.0027  -0.22    3.8
2024/11/12 07:33:44.900   34.744630139  137.764305559    41.0028   1  29   0.0024   0.0022   0.0050   0.0009  -0.0012  -0.0027  -0.12    3.8
2024/11/12 07:33:45.000   34.744630147  137.764305562    41.0024   1  29   0.0024   0.0022   0.0050   0.0009  -0.0012  -0.0027  -0.02    3.8
2024/11/12 07:33:45.100   34.744630145  137.764305564    41.0027   1  29   0.0024   0.0022   0.0050   0.0009  -0.0012  -0.0027   0.08    3.8
2024/11/12 07:33:45.200   34.744630134  137.764305564    41.0035   1  29   0.0025   0.0022   0.0050   0.0009  -0.0012  -0.0027   0.18    3.8
2024/11/12 07:33:45.300   34.744630141  137.764305568    41.0035   1  29   0.0025   0.0022   0.0050   0.0010  -0.0012  -0.0027   0.28    3.0
2024/11/12 07:33:45.400   34.744630141  137.764305565    41.0030   1  29   0.0025   0.0022   0.0050   0.0010  -0.0012  -0.0027   0.38    3.0
2024/11/12 07:33:45.500   34.744630139  137.764305559    41.0023   1  29   0.0025   0.0022   0.0050   0.0010  -0.0012  -0.0027   0.48    3.1
2024/11/12 07:33:45.600   34.744630154  137.764305556    41.0010   1  29   0.0025   0.0022   0.0050   0.0010  -0.0012  -0.0027  -0.42    3.1
2024/11/12 07:33:45.700   34.744630158  137.764305554    41.0007   1  29   0.0025   0.0022   0.0050   0.0010  -0.0012  -0.0027  -0.32    3.1
2024/11/12 07:33:45.800   34.744630154  137.764305568    41.0015   1  29   0.0025   0.0022   0.0050   0.0010  -0.0012  -0.0027  -0.22    3.1
2024/11/12 07:33:45.900   34.744630158  137.764305571    41.0019   1  29   0.0024   0.0022   0.0050   0.0009  -0.0012  -0.0027  -0.12    3.2
2024/11/12 07:33:46.000   34.744630154  137.764305571    41.0009   1  29   0.0024   0.0022   0.0050   0.0009  -0.0012  -0.0027  -0.02    3.2
2024/11/12 07:33:46.100   34.744630148  137.764305570    41.0022   1  29   0.0024   0.0022   0.0050   0.0009  -0.0012  -0.0027   0.08    3.2
2024/11/12 07:33:46.200   34.744630148  137.764305563    41.0025   1  29   0.0024   0.0022   0.0050   0.0009  -0.0012  -0.0027   0.18    3.2
2024/11/12 07:33:46.300   34.744630144  137.764305563    41.0052   1  29   0.0025   0.0022   0.0050   0.0010  -0.0012  -0.0027   0.28    3.3
2024/11/12 07:33:46.400   34.744630143  137.764305560    41.0041   1  29   0.0025   0.0022   0.0050   0.0010  -0.0012  -0.0027   0.38    3.3
2024/11/12 07:33:46.500   34.744630144  137.764305565    41.0042   1  29   0.0025   0.0022   0.0050   0.0010  -0.0012  -0.0027   0.48    3.3
2024/11/12 07:33:46.600   34.744630160  137.764305583    41.0003   1  29   0.0025   0.0022   0.0050   0.0010  -0.0012  -0.0027  -0.42    3.3
2024/11/12 07:33:46.700   34.744630160  137.764305575    40.9995   1  29   0.0025   0.0022   0.0050   0.0010  -0.0012  -0.0027  -0.32    3.4
2024/11/12 07:33:46.800   34.744630156  137.764305567    40.9991   1  29   0.0025   0.0022   0.0050   0.0009  -0.0012  -0.0027  -0.22    3.4
2024/11/12 07:33:46.900   34.744630152  137.764305570    40.9996   1  29   0.0024   0.0022   0.0050   0.0009  -0.0012  -0.0027  -0.12    3.4
2024/11/12 07:33:47.000   34.744630156  137.764305570    41.0001   1  29   0.0024   0.0022   0.0050   0.0009  -0.0012  -0.0027  -0.02    3.5
2024/11/12 07:33:47.100   34.744630153  137.764305577    41.0010   1  29   0.0024   0.0022   0.0050   0.0009  -0.0012  -0.0027   0.08    3.5
2024/11/12 07:33:47.200   34.744630153  137.764305576    41.0000   1  29   0.0024   0.0022   0.0050   0.0009  -0.0012  -0.0027   0.18    3.5
2024/11/12 07:33:47.300   34.744630150  137.764305569    41.0009   1  29   0.0025   0.0022   0.0050   0.0010  -0.0012  -0.0027   0.28    3.5
2024/11/12 07:33:47.400   34.744630153  137.764305575    41.0018   1  29   0.0025   0.0022   0.0050   0.0010  -0.0012  -0.0027   0.38    3.5
2024/11/12 07:33:47.500   34.744630157  137.764305566    41.0013   1  29   0.0025   0.0022   0.0050   0.0010  -0.0012  -0.0027   0.48    3.6
2024/11/12 07:33:47.600   34.744630152  137.764305564    41.0013   1  29   0.0025   0.0022   0.0050   0.0010  -0.0012  -0.0027  -0.42    3.6
2024/11/12 07:33:47.700   34.744630149  137.764305572    41.0016   1  29   0.0025   0.0022   0.0050   0.0010  -0.0012  -0.0027  -0.32    3.6
2024/11/12 07:33:47.800   34.744630150  137.764305567    41.0026   1  29   0.0025   0.0022   0.0050   0.0009  -0.0012  -0.0027  -0.22    3.6
2024/11/12 07:33:47.900   34.744630151  137.764305568    41.0030   1  29   0.0024   0.0022   0.0050   0.0009  -0.0012  -0.0027  -0.12    3.7
2024/11/12 07:33:48.000   34.744630138  137.764305555    41.0048   1  29   0.0024   0.0022   0.0050   0.0009  -0.0012  -0.0027  -0.02    3.7
2024/11/12 07:33:48.100   34.744630141  137.764305559    41.0057   1  29   0.0024   0.0022   0.0050   0.0009  -0.0012  -0.0027   0.08    3.7
2024/11/12 07:33:48.200   34.744630144  137.764305570    41.0060   1  29   0.0024   0.0022   0.0050   0.0009  -0.0012  -0.0027   0.18    3.7
2024/11/12 07:33:48.300   34.744630139  137.764305562    41.0056   1  29   0.0025   0.0022   0.0050   0.0009  -0.0012  -0.0027   0.28    3.7
2024/11/12 07:33:48.400   34.744630143  137.764305568    41.0044   1  29   0.0025   0.0022   0.0050   0.0010  -0.0012  -0.0027   0.38    3.8
2024/11/12 07:33:48.500   34.744630146  137.764305570    41.0027   1  29   0.0025   0.0022   0.0050   0.0010  -0.0012  -0.0027   0.48    3.8
2024/11/12 07:33:48.600   34.744630153  137.764305564    40.9995   1  29   0.0025   0.0022   0.0050   0.0010  -0.0012  -0.0027  -0.42    3.8
2024/11/12 07:33:48.700   34.744630152  137.764305566    40.9994   1  29   0.0025   0.0022   0.0050   0.0010  -0.0012  -0.0027  -0.32    3.8
2024/11/12 07:33:48.800   34.744630159  137.764305563    40.9994   1  29   0.0025   0.0022   0.0050   0.0009  -0.0012  -0.0027  -0.22    3.9
2024/11/12 07:33:48.900   34.744630156  137.764305571    41.0005   1  29   0.0024   0.0022   0.0050   0.0009  -0.0012  -0.0027  -0.12    3.9
2024/11/12 07:33:49.000   34.744630151  137.764305575    41.0008   1  29   0.0024   0.0022   0.0050   0.0009  -0.0012  -0.0027  -0.02    3.9
2024/11/12 07:33:49.100   34.744630144  137.764305570    41.0029   1  29   0.0024   0.0022   0.0050   0.0009  -0.0012  -0.0027   0.08    3.9
2024/11/12 07:33:49.200   34.744630150  137.764305562    41.0031   1  29   0.0024   0.0022   0.0050   0.0009  -0.0012  -0.0027   0.18    3.9
2024/11/12 07:33:49.300   34.744630147  137.764305561    41.0027   1  29   0.0025   0.0022   0.0050   0.0009  -0.0012  -0.0027   0.28    4.0
2024/11/12 07:33:49.400   34.744630137  137.764305558    41.0042   1  29   0.0025   0.0022   0.0050   0.0010  -0.0012  -0.0027   0.38    4.0
2024/11/12 07:33:49.500   34.744630140  137.764305558    41.0047   1  29   0.0025   0.0022   0.0050   0.0010  -0.0012  -0.0027   0.48    4.0
2024/11/12 07:33:49.600   34.744630146  137.764305568    41.0047   1  29   0.0025   0.0022   0.0050   0.0010  -0.0012  -0.0027  -0.42    4.0
2024/11/12 07:33:49.700   34.744630137  137.764305554    41.0056   1  29   0.0025   0.0022   0.0050   0.0009  -0.0012  -0.0027  -0.32    4.1
2024/11/12 07:33:49.800   34.744630135  137.764305564    41.0058   1  29   0.0025   0.0022   0.0050   0.0009  -0.0012  -0.0027  -0.22    4.1
2024/11/12 07:33:49.900   34.744630136  137.764305574    41.0049   1  29   0.0024   0.0022   0.0050   0.0009  -0.0012  -0.0027  -0.12    4.1
2024/11/12 07:33:50.000   34.744630145  137.764305568    41.0044   1  29   0.0024   0.0022   0.0050   0.0009  -0.0012  -0.0027  -0.02    4.1
2024/11/12 07:33:50.100   34.744630137  137.764305563    41.0060   1  29   0.0024   0.0022   0.0050   0.0009  -0.0012  -0.0027   0.08    4.1
2024/11/12 07:33:50.200   34.744630143  137.764305558    41.0060   1  29   0.0024   0.0022   0.0050   0.0009  -0.0012  -0.0027   0.18    4.2
2024/11/12 07:33:50.300   34.744630144  137.764305568    41.0038   1  29   0.0025   0.0022   0.0050   0.0009  -0.0012  -0.0027   0.28    4.2
2024/11/12 07:33:50.400   34.744630147  137.764305568    41.0057   1  29   0.0025   0.0022   0.0050   0.0010  -0.0012  -0.0027   0.38    4.2
2024/11/12 07:33:50.500   34.744630144  137.764305573    41.0051   1  29   0.0025   0.0022   0.0050   0.0010  -0.0012  -0.0027   0.48    4.2
2024/11/12 07:33:50.600   34.744630157  137.764305567    41.0010   1  29   0.0025   0.0022   0.0050   0.0010  -0.0012  -0.0027  -0.42    4.2
2024/11/12 07:33:50.700   34.744630160  137.764305577    41.0007   1  29   0.0025   0.0022   0.0050   0.0009  -0.0012  -0.0027  -0.32    4.2
2024/11/12 07:33:50.800   34.744630149  137.764305573    41.0015   1  29   0.0025   0.0022   0.0050   0.0009  -0.0012  -0.0027  -0.22    4.2
2024/11/12 07:33:50.900   34.744630153  137.764305567    41.0027   1  29   0.0024   0.0022   0.0050   0.0009  -0.0012  -0.0027  -0.12    4.2
2024/11/12 07:33:51.000   34.744630150  137.764305577    41.0019   1  29   0.0024   0.0022   0.0050   0.0009  -0.0012  -0.0027  -0.02    4.3
2024/11/12 07:33:51.100   34.744630149  137.764305571    41.0055   1  29   0.0024   0.0022   0.0050   0.0009  -0.0012  -0.0027   0.08    4.3
2024/11/12 07:33:51.200   34.744630145  137.764305580    41.0060   1  29   0.0024   0.0022   0.0050   0.0009  -0.0012  -0.0027   0.18    4.3
2024/11/12 07:33:51.300   34.744630153  137.764305572    41.0048   1  29   0.0025   0.0022   0.0050   0.0009  -0.0012  -0.0027   0.28    4.3
2024/11/12 07:33:51.400   34.744630150  137.764305576    41.0066   1  29   0.0025   0.0022   0.0050   0.0010  -0.0012  -0.0027   0.38    4.3
2024/11/12 07:33:51.500   34.744630146  137.764305572    41.0066   1  29   0.0025   0.0022   0.0050   0.0010  -0.0012  -0.0027   0.48    4.3
2024/11/12 07:33:51.600   34.744630136  137.764305567    41.0058   1  29   0.0025   0.0022   0.0050   0.0010  -0.0012  -0.0027  -0.42    4.3
2024/11/12 07:33:51.700   34.744630141  137.764305573    41.0036   1  29   0.0025   0.0022   0.0050   0.0009  -0.0012  -0.0027  -0.32    4.3
2024/11/12 07:33:51.800   34.744630144  137.764305570    41.0047   1  29   0.0025   0.0022   0.0050   0.0009  -0.0012  -0.0027  -0.22    4.3
2024/11/12 07:33:51.900   34.744630141  137.764305564    41.0053   1  29   0.0024   0.0022   0.0050   0.0009  -0.0012  -0.0027  -0.12    4.3
2024/11/12 07:33:52.000   34.744630136  137.764305577    41.0049   1  29   0.0024   0.0022   0.0050   0.0009  -0.0012  -0.0027  -0.02    4.3
2024/11/12 07:33:52.100   34.744630142  137.764305569    41.0063   1  29   0.0024   0.0022   0.0050   0.0009  -0.0012  -0.0027   0.08    4.3
2024/11/12 07:33:52.200   34.744630136  137.764305570    41.0054   1  29   0.0024   0.0022   0.0050   0.0009  -0.0012  -0.0027   0.18    4.3
2024/11/12 07:33:52.300   34.744630129  137.764305571    41.0071   1  29   0.0025   0.0022   0.0050   0.0009  -0.0012  -0.0027   0.28    4.3
2024/11/12 07:33:52.400   34.744630131  137.764305571    41.0057   1  29   0.0025   0.0022   0.0050   0.0009  -0.0012  -0.0027   0.38    4.3
2024/11/12 07:33:52.500   34.744630127  137.764305570    41.0053   1  29   0.0025   0.0022   0.0050   0.0010  -0.0012  -0.0027   0.48    4.3
2024/11/12 07:33:52.600   34.744630148  137.764305580    41.0028   1  29   0.0025   0.0022   0.0050   0.0010  -0.0012  -0.0027  -0.42    4.4
2024/11/12 07:33:52.700   34.744630152  137.764305580    41.0043   1  29   0.0025   0.0022   0.0050   0.0009  -0.0012  -0.0027  -0.32    4.4
2024/11/12 07:33:52.800   34.744630147  137.764305580    41.0051   1  29   0.0025   0.0022   0.0050   0.0009  -0.0012  -0.0027  -0.22    4.4
2024/11/12 07:33:52.900   34.744630142  137.764305567    41.0062   1  29   0.0024   0.0022   0.0050   0.0009  -0.0012  -0.0027  -0.12    4.4
2024/11/12 07:33:53.000   34.744630143  137.764305583    41.0061   1  29   0.0024   0.0022   0.0050   0.0009  -0.0012  -0.0027  -0.02    4.4
2024/11/12 07:33:53.100   34.744630140  137.764305576    41.0061   1  29   0.0024   0.0022   0.0050   0.0009  -0.0012  -0.0027   0.08    4.4
2024/11/12 07:33:53.200   34.744630145  137.764305586    41.0046   1  29   0.0024   0.0022   0.0050   0.0009  -0.0012  -0.0027   0.18    4.4
2024/11/12 07:33:53.300   34.744630143  137.764305578    41.0050   1  29   0.0025   0.0022   0.0050   0.0009  -0.0012  -0.0027   0.28    4.4
2024/11/12 07:33:53.400   34.744630145  137.764305602    41.0030   1  29   0.0025   0.0022   0.0050   0.0009  -0.0012  -0.0027   0.38    4.4
2024/11/12 07:33:53.500   34.744630150  137.764305595    41.0021   1  29   0.0025   0.0022   0.0050   0.0010  -0.0012  -0.0027   0.48    4.4
2024/11/12 07:33:53.600   34.744630146  137.764305581    41.0020   1  29   0.0025   0.0022   0.0050   0.0010  -0.0012  -0.0027  -0.42    4.4
2024/11/12 07:33:53.700   34.744630140  137.764305595    41.0035   1  29   0.0025   0.0022   0.0050   0.0009  -0.0012  -0.0027  -0.32    4.4
2024/11/12 07:33:53.800   34.744630138  137.764305595    41.0010   1  29   0.0025   0.0022   0.0050   0.0009  -0.0012  -0.0027  -0.22    4.4
2024/11/12 07:33:53.900   34.744630150  137.764305596    41.0001   1  29   0.0024   0.0022   0.0050   0.0009  -0.0012  -0.0027  -0.12    4.5
2024/11/12 07:33:54.000   34.744630157  137.764305596    40.9991   1  29   0.0024   0.0022   0.0050   0.0009  -0.0012  -0.0027  -0.02    4.5
2024/11/12 07:33:54.100   34.744630139  137.764305608    41.0006   1  29   0.0024   0.0022   0.0050   0.0009  -0.0012  -0.0027   0.08    4.5
2024/11/12 07:33:54.200   34.744630137  137.764305600    41.0018   1  29   0.0024   0.0022   0.0050   0.0009  -0.0012  -0.0027   0.18    4.5
2024/11/12 07:33:54.300   34.744630141  137.764305582    41.0015   1  29   0.0025   0.0022   0.0050   0.0009  -0.0012  -0.0027   0.28    4.5
2024/11/12 07:33:54.400   34.744630142  137.764305601    41.0024   1  29   0.0025   0.0022   0.0050   0.0009  -0.0012  -0.0027   0.38    4.5
2024/11/12 07:33:54.500   34.744630140  137.764305593    41.0023   1  29   0.0025   0.0022   0.0050   0.0010  -0.0012  -0.0027   0.48    4.5
2024/11/12 07:33:54.600   34.744630138  137.764305599    41.0028   1  29   0.0025   0.0022   0.0050   0.0009  -0.0012  -0.0027  -0.42    4.5
2024/11/12 07:33:54.700   34.744630147  137.764305590    41.0031   1  29   0.0025   0.0022   0.0050   0.0009  -0.0012  -0.0027  -0.32    4.5
2024/11/12 07:33:54.800   34.744630139  137.764305595    41.0041   1  29   0.0025   0.0022   0.0050   0.0009  -0.0012  -0.0027  -0.22    4.5
2024/11/12 07:33:54.900   34.744630135  137.764305592    41.0057   1  29   0.0024   0.0022   0.0050   0.0009  -0.0012  -0.0027  -0.12    4.5
2024/11/12 07:33:55.000   34.744630153  137.764305587    41.0028   1  29   0.0024   0.0022   0.0050   0.0009  -0.0012  -0.0027  -0.02    4.6
2024/11/12 07:33:55.100   34.744630149  137.764305596    41.0023   1  29   0.0024   0.0022   0.0050   0.0009  -0.0012  -0.0027   0.08    4.6
2024/11/12 07:33:55.200   34.744630149  137.764305600    41.0026   1  29   0.0024   0.0022   0.0050   0.0009  -0.0012  -0.0027   0.18    4.6
2024/11/12 07:33:55.300   34.744630144  137.764305597    41.0013   1  29   0.0025   0.0022   0.0050   0.0009  -0.0012  -0.0027   0.28    4.6
2024/11/12 07:33:55.400   34.744630138  137.764305605    41.0022   1  29   0.0025   0.0022   0.0050   0.0009  -0.0012  -0.0027   0.38    4.6
2024/11/12 07:33:55.500   34.744630146  137.764305588    41.0026   1  29   0.0025   0.0022   0.0050   0.0010  -0.0012  -0.0027   0.48    4.6
2024/11/12 07:33:55.600   34.744630148  137.764305589    41.0013   1  29   0.0025   0.0022   0.0050   0.0009  -0.0012  -0.0027  -0.42    4.6
2024/11/12 07:33:55.700   34.744630147  137.764305600    40.9978   1  29   0.0025   0.0022   0.0050   0.0009  -0.0012  -0.0027  -0.32    4.6
2024/11/12 07:33:55.800   34.744630158  137.764305606    40.9965   1  29   0.0025   0.0022   0.0050   0.0009  -0.0012  -0.0027  -0.22    4.6
2024/11/12 07:33:55.900   34.744630161  137.764305590    40.9968   1  29   0.0024   0.0022   0.0050   0.0009  -0.0012  -0.0027  -0.12    4.6
2024/11/12 07:33:56.000   34.744630162  137.764305594    40.9970   1  29   0.0024   0.0022   0.0050   0.0009  -0.0012  -0.0027  -0.02    4.6
2024/11/12 07:33:56.100   34.744630157  137.764305594    40.9984   1  29   0.0024   0.0022   0.0050   0.0009  -0.0012  -0.0027   0.08    4.7
2024/11/12 07:33:56.200   34.744630156  137.764305601    40.9997   1  29   0.0024   0.0022   0.0050   0.0009  -0.0012  -0.0027   0.18    4.7
2024/11/12 07:33:56.300   34.744630151  137.764305592    41.0009   1  29   0.0025   0.0022   0.0050   0.0009  -0.0012  -0.0027   0.28    4.7
2024/11/12 07:33:56.400   34.744630148  137.764305591    41.0003   1  29   0.0025   0.0022   0.0050   0.0009  -0.0012  -0.0027   0.38    4.7
2024/11/12 07:33:56.500   34.744630147  137.764305591    41.0009   1  29   0.0025   0.0022   0.0050   0.0010  -0.0012  -0.0027   0.48    4.7
2024/11/12 07:33:56.600   34.744630158  137.764305604    40.9974   1  29   0.0025   0.0022   0.0050   0.0009  -0.0012  -0.0027  -0.42    4.7
2024/11/12 07:33:56.700   34.744630159  137.764305601    40.9981   1  29   0.0025   0.0022   0.0050   0.0009  -0.0012  -0.0027  -0.32    4.7
2024/11/12 07:33:56.800   34.744630146  137.764305601    40.9999   1  29   0.0025   0.0022   0.0050   0.0009  -0.0012  -0.0027  -0.22    4.7
2024/11/12 07:33:56.900   34.744630150  137.764305603    40.9994   1  29   0.0024   0.0022   0.0050   0.0009  -0.0012  -0.0027  -0.12    4.7
2024/11/12 07:33:57.000   34.744630152  137.764305601    40.9991   1  29   0.0024   0.0022   0.0050   0.0009  -0.0012  -0.0027  -0.02    4.8
2024/11/12 07:33:57.100   34.744630138  137.764305602    41.0011   1  29   0.0024   0.0022   0.0050   0.0009  -0.0012  -0.0027   0.08    4.8
2024/11/12 07:33:57.200   34.744630145  137.764305604    41.0006   1  29   0.0024   0.0022   0.0050   0.0009  -0.0012  -0.0027   0.18    4.8
2024/11/12 07:33:57.300   34.744630156  137.764305596    40.9981   1  29   0.0025   0.0022   0.0050   0.0009  -0.0012  -0.0027   0.28    4.8
2024/11/12 07:33:57.400   34.744630149  137.764305591    40.9993   1  29   0.0025   0.0022   0.0050   0.0009  -0.0012  -0.0027   0.38    4.8
2024/11/12 07:33:57.500   34.744630140  137.764305600    41.0005   1  29   0.0025   0.0022   0.0050   0.0009  -0.0012  -0.0027   0.48    4.8
2024/11/12 07:33:57.600   34.744630154  137.764305607    41.0022   1  29   0.0025   0.0022   0.0050   0.0009  -0.0012  -0.0027  -0.42    4.8
2024/11/12 07:33:57.700   34.744630156  137.764305600    41.0021   1  29   0.0025   0.0022   0.0050   0.0009  -0.0012  -0.0027  -0.32    4.8
2024/11/12 07:33:57.800   34.744630152  137.764305619    41.0026   1  29   0.0025   0.0022   0.0050   0.0009  -0.0012  -0.0027  -0.22    4.8
2024/11/12 07:33:57.900   34.744630146  137.764305601    41.0026   1  29   0.0024   0.0022   0.0050   0.0009  -0.0012  -0.0027  -0.12    4.8
2024/11/12 07:33:58.000   34.744630148  137.764305600    41.0025   1  29   0.0024   0.0022   0.0050   0.0009  -0.0012  -0.0027  -0.02    4.9
2024/11/12 07:33:58.100   34.744630148  137.764305607    41.0035   1  29   0.0024   0.0022   0.0050   0.0009  -0.0012  -0.0027   0.08    4.9
2024/11/12 07:33:58.200   34.744630143  137.764305601    41.0030   1  29   0.0024   0.0022   0.0050   0.0009  -0.0012  -0.0027   0.18    4.9
2024/11/12 07:33:58.300   34.744630138  137.764305605    41.0054   1  29   0.0025   0.0022   0.0050   0.0009  -0.0012  -0.0027   0.28    4.9
2024/11/12 07:33:58.400   34.744630143  137.764305607    41.0064   1  29   0.0025   0.0022   0.0050   0.0009  -0.0012  -0.0027   0.38    4.9
2024/11/12 07:33:58.500   34.744630145  137.764305609    41.0057   1  29   0.0025   0.0022   0.0050   0.0009  -0.0012  -0.0027   0.48    4.9
2024/11/12 07:33:58.600   34.744630139  137.764305586    41.0016   1  29   0.0025   0.0022   0.0050   0.0009  -0.0012  -0.0027  -0.42    4.9
2024/11/12 07:33:58.700   34.744630148  137.764305586    40.9994   1  29   0.0025   0.0022   0.0050   0.0009  -0.0012  -0.0027  -0.32    4.9
2024/11/12 07:33:58.800   34.744630150  137.764305597    40.9995   1  29   0.0025   0.0022   0.0050   0.0009  -0.0012  -0.0027  -0.22    4.9
2024/11/12 07:33:58.900   34.744630141  137.764305588    41.0021   1  29   0.0024   0.0022   0.0050   0.0009  -0.0012  -0.0027  -0.12    4.9
2024/11/12 07:33:59.000   34.744630139  137.764305594    41.0035   1  29   0.0024   0.0022   0.0050   0.0009  -0.0012  -0.0027  -0.02    5.0
2024/11/12 07:33:59.100   34.744630144  137.764305596    41.0025   1  29   0.0024   0.0022   0.0050   0.0009  -0.0012  -0.0027   0.08    5.0
2024/11/12 07:33:59.200   34.744630132  137.764305586    41.0037   1  29   0.0024   0.0022   0.0050   0.0009  -0.0012  -0.0027   0.18    5.0
