% program   : RTKPOST demo5 b34j
% inp file  : C:\Users\cs21014\Documents\Kitani\241112hyod\src\10\GNSS_MT\gnss0\ubx\241112_16.obs
% inp file  : C:\Users\cs21014\Documents\Kitani\241112hyod\src\rtk_base\COM4___9600_241112_050705.obs
% inp file  : C:\Users\cs21014\Documents\Kitani\241112hyod\src\rtk_base\COM4___9600_241112_050705.nav
% obs start : 2024/11/12 07:12:18.0 GPST (week2340 198738.0s)
% obs end   : 2024/11/12 07:15:41.7 GPST (week2340 198941.7s)
% pos mode  : Kinematic
% freqs     : L1+L2/E5b+L5
% solution  : Combined-Phase Reset
% elev mask : 15.0 deg
% dynamics  : on
% tidecorr  : on
% ionos opt : Broadcast
% tropo opt : Saastamoinen
% ephemeris : Broadcast
% navi sys  : GPS GLONASS Galileo QZSS BDS NavIC
% amb res   : Fix and Hold
% amb glo   : Fix and Hold
% val thres : 3.0
% antenna1  :                       ( 0.0000  0.0000  0.0000)
% antenna2  :                       ( 0.0000  0.0000  0.0000)
% ref pos   : 34.744454383  137.764618776    40.7897
%
% (lat/lon/height=WGS84/ellipsoidal,Q=1:fix,2:float,3:sbas,4:dgps,5:single,6:ppp,ns=# of satellites)
%  GPST                  latitude(deg) longitude(deg)  height(m)   Q  ns   sdn(m)   sde(m)   sdu(m)  sdne(m)  sdeu(m)  sdun(m) age(s)  ratio
2024/11/12 07:12:18.000   34.744630587  137.764300498    40.9879   1  27   0.0030   0.0028   0.0069  -0.0008   0.0011  -0.0031  -0.02    4.9
2024/11/12 07:12:18.100   34.744630569  137.764300504    40.9881   1  27   0.0030   0.0028   0.0069  -0.0008   0.0011  -0.0031   0.08    4.9
2024/11/12 07:12:18.200   34.744630580  137.764300501    40.9863   1  27   0.0030   0.0028   0.0069  -0.0008   0.0011  -0.0031   0.18    4.9
2024/11/12 07:12:18.300   34.744630575  137.764300494    40.9885   1  27   0.0030   0.0028   0.0069  -0.0008   0.0011  -0.0031   0.28    4.9
2024/11/12 07:12:18.400   34.744630605  137.764300515    40.9877   1  27   0.0030   0.0028   0.0069  -0.0008   0.0011  -0.0031   0.38    4.9
2024/11/12 07:12:18.500   34.744630604  137.764300488    40.9859   1  27   0.0030   0.0028   0.0069  -0.0008   0.0011  -0.0031   0.48    4.9
2024/11/12 07:12:18.600   34.744630591  137.764300518    40.9867   1  27   0.0030   0.0028   0.0069  -0.0008   0.0011  -0.0031  -0.42    4.9
2024/11/12 07:12:18.700   34.744630574  137.764300491    40.9878   1  27   0.0030   0.0028   0.0069  -0.0008   0.0011  -0.0031  -0.32    4.9
2024/11/12 07:12:18.800   34.744630558  137.764300496    40.9878   1  27   0.0030   0.0028   0.0069  -0.0008   0.0011  -0.0031  -0.22    4.9
2024/11/12 07:12:18.900   34.744630545  137.764300508    40.9866   1  27   0.0030   0.0028   0.0069  -0.0008   0.0011  -0.0031  -0.12    4.9
2024/11/12 07:12:19.000   34.744630533  137.764300497    40.9886   1  27   0.0030   0.0028   0.0069  -0.0008   0.0011  -0.0031  -0.02    4.8
2024/11/12 07:12:19.100   34.744630542  137.764300498    40.9878   1  27   0.0030   0.0028   0.0069  -0.0008   0.0011  -0.0031   0.08    4.8
2024/11/12 07:12:19.200   34.744630540  137.764300514    40.9870   1  27   0.0030   0.0028   0.0069  -0.0008   0.0011  -0.0031   0.18    4.8
2024/11/12 07:12:19.300   34.744630531  137.764300514    40.9872   1  27   0.0030   0.0028   0.0069  -0.0008   0.0011  -0.0031   0.28    4.8
2024/11/12 07:12:19.400   34.744630532  137.764300524    40.9895   1  27   0.0030   0.0028   0.0069  -0.0008   0.0011  -0.0031   0.38    4.8
2024/11/12 07:12:19.500   34.744630532  137.764300511    40.9892   1  27   0.0030   0.0028   0.0069  -0.0008   0.0011  -0.0031   0.48    4.8
2024/11/12 07:12:19.600   34.744630553  137.764300499    40.9836   1  27   0.0030   0.0028   0.0069  -0.0008   0.0011  -0.0031  -0.42    4.8
2024/11/12 07:12:19.700   34.744630579  137.764300508    40.9821   1  27   0.0030   0.0028   0.0069  -0.0008   0.0011  -0.0031  -0.32    4.8
2024/11/12 07:12:19.800   34.744630571  137.764300514    40.9845   1  27   0.0030   0.0028   0.0069  -0.0008   0.0011  -0.0031  -0.22    4.8
2024/11/12 07:12:19.900   34.744630594  137.764300513    40.9845   1  27   0.0030   0.0028   0.0069  -0.0008   0.0011  -0.0031  -0.12    4.8
2024/11/12 07:12:20.000   34.744630594  137.764300494    40.9841   1  27   0.0030   0.0028   0.0069  -0.0008   0.0011  -0.0031  -0.02    4.8
2024/11/12 07:12:20.100   34.744630605  137.764300498    40.9845   1  27   0.0030   0.0028   0.0069  -0.0008   0.0011  -0.0031   0.08    4.8
2024/11/12 07:12:20.200   34.744630638  137.764300514    40.9823   1  27   0.0030   0.0028   0.0069  -0.0008   0.0011  -0.0031   0.18    4.8
2024/11/12 07:12:20.300   34.744630645  137.764300505    40.9811   1  27   0.0021   0.0020   0.0049  -0.0006   0.0008  -0.0022   0.28    4.4
2024/11/12 07:12:20.400   34.744630669  137.764300520    40.9815   1  27   0.0021   0.0020   0.0049  -0.0006   0.0008  -0.0022   0.38    4.4
2024/11/12 07:12:20.500   34.744630682  137.764300504    40.9811   1  27   0.0021   0.0020   0.0049  -0.0006   0.0008  -0.0022   0.48    4.4
2024/11/12 07:12:20.600   34.744630687  137.764300500    40.9819   1  27   0.0021   0.0020   0.0049  -0.0006   0.0008  -0.0022  -0.42    4.4
2024/11/12 07:12:20.700   34.744630727  137.764300506    40.9781   1  27   0.0021   0.0020   0.0049  -0.0006   0.0008  -0.0022  -0.32    4.4
2024/11/12 07:12:20.800   34.744630720  137.764300494    40.9804   1  27   0.0021   0.0020   0.0049  -0.0006   0.0008  -0.0022  -0.22    4.4
2024/11/12 07:12:20.900   34.744630722  137.764300504    40.9801   1  27   0.0021   0.0020   0.0049  -0.0006   0.0008  -0.0022  -0.12    4.5
2024/11/12 07:12:21.000   34.744630724  137.764300488    40.9799   1  27   0.0021   0.0020   0.0049  -0.0006   0.0008  -0.0022  -0.02    4.5
2024/11/12 07:12:21.100   34.744630711  137.764300497    40.9814   1  27   0.0021   0.0020   0.0049  -0.0006   0.0008  -0.0022   0.08    4.5
2024/11/12 07:12:21.200   34.744630706  137.764300522    40.9812   1  27   0.0021   0.0020   0.0049  -0.0006   0.0008  -0.0022   0.18    4.5
2024/11/12 07:12:21.300   34.744630715  137.764300508    40.9811   1  27   0.0021   0.0020   0.0049  -0.0006   0.0008  -0.0022   0.28    4.5
2024/11/12 07:12:21.400   34.744630697  137.764300512    40.9833   1  27   0.0021   0.0020   0.0049  -0.0006   0.0008  -0.0022   0.38    4.5
2024/11/12 07:12:21.500   34.744630695  137.764300503    40.9840   1  27   0.0021   0.0020   0.0049  -0.0006   0.0008  -0.0022   0.48    4.5
2024/11/12 07:12:21.600   34.744630698  137.764300502    40.9814   1  27   0.0021   0.0020   0.0049  -0.0006   0.0008  -0.0022  -0.42    4.5
2024/11/12 07:12:21.700   34.744630704  137.764300507    40.9838   1  27   0.0021   0.0020   0.0049  -0.0006   0.0008  -0.0022  -0.32    4.5
2024/11/12 07:12:21.800   34.744630708  137.764300497    40.9830   1  27   0.0021   0.0020   0.0049  -0.0006   0.0008  -0.0022  -0.22    4.5
2024/11/12 07:12:21.900   34.744630721  137.764300500    40.9806   1  27   0.0021   0.0020   0.0049  -0.0006   0.0008  -0.0022  -0.12    4.5
2024/11/12 07:12:22.000   34.744630725  137.764300491    40.9827   1  27   0.0021   0.0020   0.0049  -0.0006   0.0008  -0.0022  -0.02    4.5
2024/11/12 07:12:22.100   34.744630726  137.764300512    40.9785   1  27   0.0021   0.0020   0.0049  -0.0006   0.0008  -0.0022   0.08    4.5
2024/11/12 07:12:22.200   34.744630722  137.764300492    40.9825   1  27   0.0021   0.0020   0.0049  -0.0006   0.0008  -0.0022   0.18    4.6
2024/11/12 07:12:22.300   34.744630729  137.764300509    40.9819   1  27   0.0021   0.0020   0.0049  -0.0006   0.0008  -0.0022   0.28    4.6
2024/11/12 07:12:22.400   34.744630733  137.764300494    40.9813   1  27   0.0021   0.0020   0.0049  -0.0006   0.0008  -0.0022   0.38    4.6
2024/11/12 07:12:22.500   34.744630724  137.764300493    40.9824   1  27   0.0021   0.0020   0.0049  -0.0006   0.0008  -0.0022   0.48    4.6
2024/11/12 07:12:22.600   34.744630727  137.764300497    40.9804   1  27   0.0021   0.0020   0.0049  -0.0006   0.0008  -0.0022  -0.42    4.6
2024/11/12 07:12:22.700   34.744630723  137.764300503    40.9799   1  27   0.0021   0.0020   0.0049  -0.0006   0.0008  -0.0022  -0.32    4.6
2024/11/12 07:12:22.800   34.744630713  137.764300499    40.9827   1  27   0.0021   0.0020   0.0049  -0.0006   0.0007  -0.0022  -0.22    4.6
2024/11/12 07:12:22.900   34.744630708  137.764300493    40.9799   1  27   0.0021   0.0020   0.0049  -0.0006   0.0007  -0.0022  -0.12    4.6
2024/11/12 07:12:23.000   34.744630708  137.764300507    40.9824   1  27   0.0021   0.0020   0.0049  -0.0006   0.0007  -0.0022  -0.02    4.6
2024/11/12 07:12:23.100   34.744630703  137.764300503    40.9815   1  27   0.0021   0.0020   0.0049  -0.0006   0.0007  -0.0022   0.08    4.6
2024/11/12 07:12:23.200   34.744630699  137.764300499    40.9800   1  27   0.0021   0.0020   0.0049  -0.0006   0.0007  -0.0022   0.18    4.6
2024/11/12 07:12:23.300   34.744630697  137.764300498    40.9802   1  27   0.0021   0.0020   0.0049  -0.0006   0.0007  -0.0022   0.28    4.7
2024/11/12 07:12:23.400   34.744630698  137.764300505    40.9821   1  27   0.0021   0.0020   0.0049  -0.0006   0.0007  -0.0022   0.38    4.7
2024/11/12 07:12:23.500   34.744630704  137.764300500    40.9823   1  27   0.0021   0.0020   0.0049  -0.0006   0.0008  -0.0022   0.48    4.7
2024/11/12 07:12:23.600   34.744630699  137.764300498    40.9824   1  27   0.0021   0.0020   0.0049  -0.0006   0.0007  -0.0022  -0.42    4.7
2024/11/12 07:12:23.700   34.744630707  137.764300501    40.9845   1  27   0.0021   0.0020   0.0049  -0.0006   0.0008  -0.0022  -0.32    4.7
2024/11/12 07:12:23.800   34.744630700  137.764300504    40.9841   1  27   0.0021   0.0020   0.0049  -0.0006   0.0008  -0.0022  -0.22    4.7
2024/11/12 07:12:23.900   34.744630694  137.764300502    40.9837   1  27   0.0021   0.0020   0.0050  -0.0006   0.0008  -0.0022  -0.12    4.7
2024/11/12 07:12:24.000   34.744630697  137.764300496    40.9818   1  27   0.0021   0.0020   0.0050  -0.0006   0.0008  -0.0022  -0.02    4.7
2024/11/12 07:12:24.200   34.744630689  137.764300505    40.9846   1  27   0.0022   0.0020   0.0051  -0.0006   0.0008  -0.0023   0.18    4.7
2024/11/12 07:12:24.300   34.744630690  137.764300484    40.9878   1  27   0.0021   0.0020   0.0049  -0.0006   0.0007  -0.0022   0.28    4.7
2024/11/12 07:12:24.400   34.744630700  137.764300503    40.9862   1  27   0.0021   0.0020   0.0049  -0.0006   0.0007  -0.0022   0.38    4.7
2024/11/12 07:12:24.500   34.744630697  137.764300507    40.9851   1  27   0.0021   0.0020   0.0049  -0.0006   0.0007  -0.0022   0.48    4.7
2024/11/12 07:12:24.600   34.744630708  137.764300498    40.9817   1  27   0.0021   0.0020   0.0049  -0.0006   0.0007  -0.0022  -0.42    4.7
2024/11/12 07:12:24.700   34.744630699  137.764300496    40.9813   1  27   0.0021   0.0020   0.0049  -0.0006   0.0007  -0.0022  -0.32    4.7
2024/11/12 07:12:24.800   34.744630698  137.764300500    40.9806   1  27   0.0021   0.0020   0.0049  -0.0006   0.0007  -0.0022  -0.22    4.7
2024/11/12 07:12:24.900   34.744630704  137.764300504    40.9809   1  27   0.0021   0.0020   0.0049  -0.0006   0.0007  -0.0022  -0.12    4.7
2024/11/12 07:12:25.000   34.744630703  137.764300502    40.9828   1  27   0.0021   0.0020   0.0049  -0.0006   0.0007  -0.0022  -0.02    4.7
2024/11/12 07:12:25.100   34.744630686  137.764300500    40.9836   1  27   0.0021   0.0020   0.0049  -0.0006   0.0007  -0.0022   0.08    4.7
2024/11/12 07:12:25.200   34.744630704  137.764300501    40.9833   1  27   0.0021   0.0020   0.0049  -0.0006   0.0007  -0.0022   0.18    4.7
2024/11/12 07:12:25.300   34.744630721  137.764300502    40.9822   1  27   0.0021   0.0020   0.0049  -0.0006   0.0007  -0.0022   0.28    4.7
2024/11/12 07:12:25.400   34.744630719  137.764300495    40.9837   1  27   0.0021   0.0020   0.0049  -0.0006   0.0007  -0.0022   0.38    4.7
2024/11/12 07:12:25.500   34.744630725  137.764300496    40.9822   1  27   0.0021   0.0020   0.0049  -0.0006   0.0007  -0.0022   0.48    4.7
2024/11/12 07:12:25.600   34.744630732  137.764300478    40.9833   1  27   0.0021   0.0020   0.0049  -0.0006   0.0007  -0.0022  -0.42    4.7
2024/11/12 07:12:25.700   34.744630726  137.764300486    40.9825   1  27   0.0021   0.0020   0.0049  -0.0005   0.0007  -0.0022  -0.32    4.7
2024/11/12 07:12:25.800   34.744630707  137.764300482    40.9846   1  27   0.0021   0.0020   0.0049  -0.0005   0.0007  -0.0022  -0.22    4.7
2024/11/12 07:12:25.900   34.744630716  137.764300483    40.9861   1  27   0.0021   0.0020   0.0049  -0.0005   0.0007  -0.0022  -0.12    4.7
2024/11/12 07:12:26.000   34.744630714  137.764300485    40.9831   1  27   0.0021   0.0020   0.0049  -0.0005   0.0007  -0.0022  -0.02    4.7
2024/11/12 07:12:26.100   34.744630693  137.764300492    40.9850   1  27   0.0021   0.0020   0.0049  -0.0005   0.0007  -0.0022   0.08    4.7
2024/11/12 07:12:26.200   34.744630691  137.764300483    40.9877   1  27   0.0021   0.0020   0.0049  -0.0005   0.0007  -0.0022   0.18    4.7
2024/11/12 07:12:26.300   34.744630733  137.764300489    40.9855   1  27   0.0021   0.0020   0.0049  -0.0005   0.0006  -0.0022   0.28    4.7
2024/11/12 07:12:26.400   34.744630776  137.764300468    40.9859   1  27   0.0022   0.0020   0.0050  -0.0005   0.0006  -0.0023   0.38    4.7
2024/11/12 07:12:26.500   34.744630844  137.764300453    40.9865   1  27   0.0022   0.0020   0.0050  -0.0004   0.0005  -0.0023   0.48    4.7
2024/11/12 07:12:26.600   34.744630929  137.764300452    40.9825   1  27   0.0022   0.0020   0.0050  -0.0004   0.0003  -0.0023  -0.42    4.7
2024/11/12 07:12:26.700   34.744631016  137.764300417    40.9827   1  27   0.0022   0.0020   0.0050  -0.0005   0.0006  -0.0022  -0.32    4.7
2024/11/12 07:12:26.800   34.744631089  137.764300363    40.9851   1  27   0.0022   0.0020   0.0050  -0.0004   0.0003  -0.0023  -0.22    4.7
2024/11/12 07:12:26.900   34.744631126  137.764300331    40.9885   1  27   0.0022   0.0020   0.0051  -0.0004   0.0003  -0.0023  -0.12    4.7
2024/11/12 07:12:27.000   34.744631141  137.764300326    40.9850   1  27   0.0022   0.0020   0.0051  -0.0004   0.0003  -0.0023  -0.02    4.7
2024/11/12 07:12:27.100   34.744631132  137.764300313    40.9815   1  27   0.0022   0.0020   0.0051  -0.0004   0.0003  -0.0023   0.08    4.8
2024/11/12 07:12:27.200   34.744631030  137.764300343    40.9793   1  27   0.0022   0.0020   0.0051  -0.0004   0.0003  -0.0023   0.18    4.8
2024/11/12 07:12:27.300   34.744630887  137.764300421    40.9811   1  27   0.0022   0.0020   0.0051  -0.0004   0.0003  -0.0023   0.28    4.8
2024/11/12 07:12:27.400   34.744630728  137.764300502    40.9839   1  27   0.0022   0.0020   0.0051  -0.0004   0.0003  -0.0023   0.38    4.8
2024/11/12 07:12:27.500   34.744630598  137.764300571    40.9843   1  27   0.0022   0.0020   0.0050  -0.0005   0.0006  -0.0022   0.48    4.8
2024/11/12 07:12:27.600   34.744630450  137.764300573    40.9905   1  27   0.0022   0.0020   0.0051  -0.0004   0.0003  -0.0023  -0.42    4.9
2024/11/12 07:12:27.700   34.744630378  137.764300549    40.9896   1  27   0.0022   0.0020   0.0051  -0.0004   0.0004  -0.0023  -0.32    4.9
2024/11/12 07:12:27.800   34.744630328  137.764300511    40.9900   1  27   0.0022   0.0020   0.0051  -0.0005   0.0006  -0.0023  -0.22    4.9
2024/11/12 07:12:27.900   34.744630309  137.764300509    40.9880   1  27   0.0022   0.0020   0.0051  -0.0005   0.0006  -0.0023  -0.12    4.9
2024/11/12 07:12:28.000   34.744630301  137.764300494    40.9882   1  27   0.0022   0.0020   0.0051  -0.0005   0.0007  -0.0023  -0.02    4.9
2024/11/12 07:12:28.200   34.744630335  137.764300525    40.9928   1  27   0.0022   0.0020   0.0051  -0.0005   0.0007  -0.0023   0.18    4.9
2024/11/12 07:12:28.300   34.744630394  137.764300506    40.9988   1  27   0.0021   0.0020   0.0049  -0.0005   0.0007  -0.0022   0.28    4.9
2024/11/12 07:12:28.400   34.744630448  137.764300475    40.9993   1  27   0.0021   0.0020   0.0049  -0.0005   0.0007  -0.0022   0.38    4.9
2024/11/12 07:12:28.500   34.744630492  137.764300456    40.9974   1  27   0.0021   0.0020   0.0049  -0.0005   0.0007  -0.0022   0.48    4.9
2024/11/12 07:12:28.600   34.744630515  137.764300448    40.9962   1  27   0.0021   0.0020   0.0049  -0.0005   0.0007  -0.0022  -0.42    4.9
2024/11/12 07:12:28.700   34.744630501  137.764300477    40.9958   1  27   0.0021   0.0020   0.0049  -0.0005   0.0007  -0.0022  -0.32    4.9
2024/11/12 07:12:28.800   34.744630490  137.764300531    40.9966   1  27   0.0021   0.0020   0.0049  -0.0005   0.0007  -0.0022  -0.22    4.9
2024/11/12 07:12:28.900   34.744630466  137.764300557    40.9995   1  27   0.0021   0.0020   0.0049  -0.0006   0.0007  -0.0022  -0.12    4.9
2024/11/12 07:12:29.000   34.744630437  137.764300630    40.9999   1  27   0.0021   0.0020   0.0049  -0.0006   0.0007  -0.0022  -0.02    4.9
2024/11/12 07:12:29.100   34.744630419  137.764300692    41.0012   1  27   0.0021   0.0020   0.0049  -0.0006   0.0007  -0.0022   0.08    4.9
2024/11/12 07:12:29.200   34.744630398  137.764300712    41.0036   1  27   0.0021   0.0020   0.0049  -0.0006   0.0007  -0.0022   0.18    4.8
2024/11/12 07:12:29.300   34.744630399  137.764300736    41.0044   1  27   0.0021   0.0020   0.0049  -0.0006   0.0007  -0.0022   0.28    4.8
2024/11/12 07:12:29.400   34.744630416  137.764300736    41.0023   1  27   0.0021   0.0020   0.0049  -0.0006   0.0007  -0.0022   0.38    4.8
2024/11/12 07:12:29.500   34.744630433  137.764300723    41.0023   1  27   0.0021   0.0020   0.0049  -0.0006   0.0007  -0.0022   0.48    4.8
2024/11/12 07:12:29.600   34.744630456  137.764300707    40.9974   1  27   0.0021   0.0020   0.0049  -0.0006   0.0007  -0.0022  -0.42    4.8
2024/11/12 07:12:29.700   34.744630479  137.764300695    40.9965   1  27   0.0021   0.0020   0.0049  -0.0006   0.0007  -0.0022  -0.32    4.8
2024/11/12 07:12:29.800   34.744630500  137.764300679    40.9975   1  27   0.0021   0.0020   0.0049  -0.0006   0.0007  -0.0022  -0.22    4.8
2024/11/12 07:12:29.900   34.744630507  137.764300665    40.9995   1  27   0.0021   0.0020   0.0049  -0.0006   0.0007  -0.0022  -0.12    4.8
2024/11/12 07:12:30.000   34.744630535  137.764300665    40.9981   1  27   0.0021   0.0020   0.0049  -0.0006   0.0007  -0.0022  -0.02    4.8
2024/11/12 07:12:30.100   34.744630572  137.764300662    40.9943   1  27   0.0021   0.0020   0.0049  -0.0006   0.0008  -0.0022   0.08    3.1
2024/11/12 07:12:30.200   34.744630583  137.764300651    40.9949   1  27   0.0021   0.0020   0.0049  -0.0006   0.0008  -0.0022   0.18    3.2
2024/11/12 07:12:30.300   34.744630568  137.764300669    40.9965   1  27   0.0021   0.0020   0.0049  -0.0006   0.0008  -0.0022   0.28    3.3
2024/11/12 07:12:30.400   34.744630549  137.764300671    40.9981   1  27   0.0021   0.0020   0.0049  -0.0006   0.0008  -0.0022   0.38    3.3
2024/11/12 07:12:30.500   34.744630547  137.764300680    40.9985   1  27   0.0021   0.0020   0.0049  -0.0006   0.0008  -0.0022   0.48    3.4
2024/11/12 07:12:30.600   34.744630569  137.764300685    40.9963   1  27   0.0021   0.0020   0.0049  -0.0006   0.0008  -0.0022  -0.42    3.5
2024/11/12 07:12:30.700   34.744630569  137.764300689    40.9972   1  27   0.0021   0.0020   0.0049  -0.0006   0.0008  -0.0022  -0.32    3.5
2024/11/12 07:12:30.800   34.744630565  137.764300708    40.9977   1  27   0.0021   0.0020   0.0049  -0.0006   0.0008  -0.0022  -0.22    3.6
2024/11/12 07:12:30.900   34.744630570  137.764300716    40.9973   1  27   0.0021   0.0020   0.0049  -0.0006   0.0008  -0.0022  -0.12    3.7
2024/11/12 07:12:31.000   34.744630593  137.764300721    40.9938   1  27   0.0021   0.0020   0.0049  -0.0006   0.0008  -0.0022  -0.02    3.7
2024/11/12 07:12:31.100   34.744630600  137.764300699    40.9952   1  27   0.0021   0.0020   0.0049  -0.0006   0.0008  -0.0022   0.08    3.8
2024/11/12 07:12:31.200   34.744630600  137.764300729    40.9928   1  27   0.0021   0.0020   0.0049  -0.0006   0.0008  -0.0022   0.18    3.8
2024/11/12 07:12:31.300   34.744630616  137.764300745    40.9922   1  27   0.0021   0.0020   0.0049  -0.0006   0.0008  -0.0022   0.28    3.9
2024/11/12 07:12:31.400   34.744630623  137.764300729    40.9940   1  27   0.0021   0.0020   0.0049  -0.0006   0.0008  -0.0022   0.38    4.0
2024/11/12 07:12:31.500   34.744630634  137.764300713    40.9942   1  27   0.0021   0.0020   0.0049  -0.0006   0.0008  -0.0022   0.48    4.0
2024/11/12 07:12:31.600   34.744630624  137.764300707    40.9943   1  27   0.0021   0.0020   0.0049  -0.0006   0.0008  -0.0022  -0.42    4.1
2024/11/12 07:12:31.700   34.744630623  137.764300693    40.9934   1  27   0.0021   0.0020   0.0049  -0.0006   0.0008  -0.0022  -0.32    4.1
2024/11/12 07:12:31.800   34.744630622  137.764300667    40.9928   1  27   0.0021   0.0020   0.0049  -0.0006   0.0008  -0.0022  -0.22    4.2
2024/11/12 07:12:31.900   34.744630620  137.764300632    40.9921   1  27   0.0021   0.0020   0.0049  -0.0006   0.0008  -0.0022  -0.12    4.2
2024/11/12 07:12:32.000   34.744630631  137.764300616    40.9910   1  27   0.0021   0.0020   0.0049  -0.0006   0.0008  -0.0022  -0.02    4.3
2024/11/12 07:12:32.100   34.744630641  137.764300601    40.9895   1  27   0.0021   0.0020   0.0049  -0.0006   0.0008  -0.0022   0.08    4.3
2024/11/12 07:12:32.200   34.744630639  137.764300575    40.9935   1  27   0.0021   0.0020   0.0049  -0.0006   0.0008  -0.0022   0.18    4.4
2024/11/12 07:12:32.300   34.744630651  137.764300578    40.9914   1  27   0.0021   0.0020   0.0049  -0.0006   0.0008  -0.0022   0.28    4.4
2024/11/12 07:12:32.400   34.744630644  137.764300558    40.9901   1  27   0.0021   0.0020   0.0049  -0.0006   0.0008  -0.0022   0.38    4.5
2024/11/12 07:12:32.500   34.744630667  137.764300505    40.9928   1  27   0.0021   0.0020   0.0049  -0.0006   0.0008  -0.0022   0.48    4.5
2024/11/12 07:12:32.600   34.744630673  137.764300513    40.9930   1  27   0.0021   0.0020   0.0049  -0.0006   0.0008  -0.0022  -0.42    4.6
2024/11/12 07:12:32.700   34.744630729  137.764300476    40.9904   1  27   0.0021   0.0020   0.0049  -0.0006   0.0008  -0.0022  -0.32    4.6
2024/11/12 07:12:32.800   34.744630793  137.764300480    40.9862   1  27   0.0021   0.0020   0.0049  -0.0006   0.0008  -0.0022  -0.22    4.7
2024/11/12 07:12:32.900   34.744630830  137.764300524    40.9890   1  27   0.0021   0.0020   0.0049  -0.0006   0.0008  -0.0022  -0.12    4.7
2024/11/12 07:12:33.000   34.744630818  137.764300591    40.9881   1  27   0.0021   0.0020   0.0049  -0.0006   0.0008  -0.0022  -0.02    4.8
2024/11/12 07:12:33.100   34.744630772  137.764300657    40.9909   1  27   0.0021   0.0020   0.0049  -0.0006   0.0008  -0.0022   0.08    4.8
2024/11/12 07:12:33.200   34.744630711  137.764300672    40.9955   1  27   0.0021   0.0020   0.0049  -0.0006   0.0008  -0.0022   0.18    4.8
2024/11/12 07:12:33.300   34.744630773  137.764300705    40.9965   1  27   0.0021   0.0020   0.0049  -0.0006   0.0008  -0.0022   0.28    4.8
2024/11/12 07:12:33.400   34.744630873  137.764300773    40.9952   1  27   0.0021   0.0020   0.0049  -0.0006   0.0008  -0.0022   0.38    4.8
2024/11/12 07:12:33.500   34.744630876  137.764300804    40.9937   1  27   0.0021   0.0020   0.0049  -0.0006   0.0008  -0.0022   0.48    4.8
2024/11/12 07:12:33.600   34.744630890  137.764300833    40.9910   1  27   0.0021   0.0020   0.0049  -0.0006   0.0008  -0.0022  -0.42    4.8
2024/11/12 07:12:33.700   34.744630882  137.764300911    40.9925   1  27   0.0021   0.0020   0.0049  -0.0006   0.0008  -0.0022  -0.32    4.8
2024/11/12 07:12:33.800   34.744630901  137.764300983    40.9931   1  27   0.0021   0.0020   0.0049  -0.0006   0.0008  -0.0022  -0.22    4.8
2024/11/12 07:12:33.900   34.744630893  137.764301065    40.9949   1  27   0.0021   0.0020   0.0050  -0.0006   0.0008  -0.0022  -0.12    4.8
2024/11/12 07:12:34.000   34.744630867  137.764301163    40.9996   1  27   0.0021   0.0020   0.0050  -0.0006   0.0008  -0.0022  -0.02    4.8
2024/11/12 07:12:34.200   34.744630827  137.764301367    40.9987   1  27   0.0022   0.0020   0.0051  -0.0006   0.0008  -0.0023   0.18    4.8
2024/11/12 07:12:34.300   34.744630795  137.764301480    41.0018   1  27   0.0021   0.0020   0.0048  -0.0006   0.0008  -0.0022   0.28    4.8
2024/11/12 07:12:34.400   34.744630803  137.764301566    40.9972   1  27   0.0021   0.0020   0.0049  -0.0006   0.0008  -0.0022   0.38    4.8
2024/11/12 07:12:34.500   34.744630804  137.764301620    41.0002   1  27   0.0021   0.0020   0.0049  -0.0006   0.0008  -0.0022   0.48    4.8
2024/11/12 07:12:34.600   34.744630799  137.764301715    40.9978   1  27   0.0021   0.0020   0.0049  -0.0006   0.0008  -0.0022  -0.42    4.8
2024/11/12 07:12:34.700   34.744630830  137.764301780    40.9982   1  27   0.0021   0.0020   0.0049  -0.0006   0.0008  -0.0022  -0.32    4.9
2024/11/12 07:12:34.800   34.744630902  137.764301760    40.9977   1  27   0.0021   0.0020   0.0049  -0.0006   0.0008  -0.0022  -0.22    4.9
2024/11/12 07:12:34.900   34.744630936  137.764301778    40.9957   1  27   0.0021   0.0020   0.0049  -0.0006   0.0008  -0.0022  -0.12    4.9
2024/11/12 07:12:35.000   34.744630955  137.764301827    40.9964   1  27   0.0021   0.0020   0.0049  -0.0006   0.0008  -0.0022  -0.02    4.9
2024/11/12 07:12:35.100   34.744630969  137.764301865    40.9967   1  27   0.0021   0.0020   0.0049  -0.0006   0.0008  -0.0022   0.08    4.9
2024/11/12 07:12:35.200   34.744630945  137.764301901    40.9986   1  27   0.0021   0.0020   0.0049  -0.0006   0.0008  -0.0022   0.18    4.9
2024/11/12 07:12:35.300   34.744630925  137.764301919    40.9991   1  27   0.0021   0.0020   0.0049  -0.0006   0.0008  -0.0022   0.28    4.9
2024/11/12 07:12:35.400   34.744630906  137.764301946    41.0022   1  27   0.0021   0.0020   0.0049  -0.0006   0.0008  -0.0022   0.38    4.9
2024/11/12 07:12:35.500   34.744630898  137.764301979    40.9971   1  27   0.0021   0.0020   0.0049  -0.0006   0.0008  -0.0022   0.48    4.9
2024/11/12 07:12:35.600   34.744630886  137.764301984    40.9962   1  27   0.0021   0.0020   0.0049  -0.0006   0.0008  -0.0022  -0.42    5.0
2024/11/12 07:12:35.700   34.744630880  137.764301996    40.9949   1  27   0.0021   0.0020   0.0049  -0.0006   0.0008  -0.0022  -0.32    5.0
2024/11/12 07:12:35.800   34.744630871  137.764301990    40.9943   1  27   0.0021   0.0020   0.0049  -0.0006   0.0008  -0.0022  -0.22    5.0
2024/11/12 07:12:35.900   34.744630863  137.764301992    40.9962   1  27   0.0021   0.0020   0.0049  -0.0006   0.0008  -0.0022  -0.12    5.0
2024/11/12 07:12:36.000   34.744630864  137.764301999    40.9962   1  27   0.0021   0.0020   0.0049  -0.0006   0.0008  -0.0022  -0.02    5.0
2024/11/12 07:12:36.100   34.744630854  137.764301992    40.9979   1  27   0.0021   0.0020   0.0049  -0.0006   0.0008  -0.0022   0.08    5.0
2024/11/12 07:12:36.200   34.744630862  137.764301998    40.9977   1  27   0.0021   0.0020   0.0049  -0.0006   0.0008  -0.0022   0.18    5.0
2024/11/12 07:12:36.300   34.744630863  137.764302002    40.9977   1  27   0.0021   0.0020   0.0049  -0.0006   0.0008  -0.0022   0.28    5.0
2024/11/12 07:12:36.400   34.744630879  137.764302001    40.9947   1  27   0.0021   0.0020   0.0049  -0.0006   0.0008  -0.0022   0.38    5.0
2024/11/12 07:12:36.500   34.744630873  137.764302005    40.9966   1  27   0.0021   0.0020   0.0049  -0.0006   0.0008  -0.0022   0.48    5.0
2024/11/12 07:12:36.600   34.744630881  137.764302011    40.9979   1  27   0.0021   0.0020   0.0049  -0.0006   0.0008  -0.0022  -0.42    5.0
2024/11/12 07:12:36.700   34.744630897  137.764302008    40.9967   1  27   0.0021   0.0020   0.0049  -0.0006   0.0008  -0.0022  -0.32    5.0
2024/11/12 07:12:36.800   34.744630901  137.764302012    40.9954   1  27   0.0021   0.0020   0.0049  -0.0006   0.0008  -0.0022  -0.22    5.0
2024/11/12 07:12:36.900   34.744630905  137.764302038    40.9958   1  27   0.0021   0.0020   0.0049  -0.0006   0.0008  -0.0022  -0.12    5.0
2024/11/12 07:12:37.000   34.744630925  137.764302065    40.9942   1  27   0.0021   0.0020   0.0048  -0.0006   0.0008  -0.0022  -0.02    5.0
2024/11/12 07:12:37.100   34.744630947  137.764302089    40.9958   1  27   0.0021   0.0020   0.0049  -0.0006   0.0008  -0.0022   0.08    5.0
2024/11/12 07:12:37.200   34.744630981  137.764302126    40.9927   1  27   0.0021   0.0020   0.0049  -0.0006   0.0008  -0.0022   0.18    5.1
2024/11/12 07:12:37.300   34.744631044  137.764302148    40.9946   1  27   0.0021   0.0020   0.0049  -0.0006   0.0008  -0.0022   0.28    5.1
2024/11/12 07:12:37.400   34.744631098  137.764302141    40.9954   1  27   0.0021   0.0020   0.0049  -0.0006   0.0008  -0.0022   0.38    5.1
2024/11/12 07:12:37.500   34.744631159  137.764302079    40.9960   1  27   0.0021   0.0020   0.0049  -0.0006   0.0008  -0.0022   0.48    5.1
2024/11/12 07:12:37.600   34.744631207  137.764302018    40.9931   1  27   0.0021   0.0020   0.0049  -0.0006   0.0008  -0.0022  -0.42    5.1
2024/11/12 07:12:37.700   34.744631218  137.764301916    40.9919   1  27   0.0021   0.0020   0.0049  -0.0006   0.0008  -0.0022  -0.32    5.1
2024/11/12 07:12:37.800   34.744631258  137.764301791    40.9946   1  27   0.0021   0.0020   0.0049  -0.0006   0.0008  -0.0022  -0.22    5.1
2024/11/12 07:12:37.900   34.744631286  137.764301646    40.9935   1  27   0.0021   0.0020   0.0049  -0.0006   0.0008  -0.0022  -0.12    5.1
2024/11/12 07:12:38.000   34.744631276  137.764301477    40.9940   1  27   0.0021   0.0020   0.0048  -0.0006   0.0008  -0.0022  -0.02    5.1
2024/11/12 07:12:38.100   34.744631234  137.764301325    40.9995   1  27   0.0021   0.0020   0.0048  -0.0006   0.0008  -0.0022   0.08    5.1
2024/11/12 07:12:38.200   34.744631204  137.764301269    41.0008   1  27   0.0021   0.0020   0.0049  -0.0006   0.0008  -0.0022   0.18    5.1
2024/11/12 07:12:38.300   34.744631183  137.764301252    40.9993   1  27   0.0021   0.0020   0.0049  -0.0006   0.0008  -0.0022   0.28    5.1
2024/11/12 07:12:38.400   34.744631131  137.764301315    41.0011   1  27   0.0021   0.0020   0.0049  -0.0006   0.0008  -0.0022   0.38    5.1
2024/11/12 07:12:38.500   34.744631073  137.764301447    41.0042   1  27   0.0021   0.0020   0.0049  -0.0006   0.0008  -0.0022   0.48    5.1
2024/11/12 07:12:38.600   34.744631073  137.764301606    41.0032   1  27   0.0021   0.0020   0.0049  -0.0006   0.0008  -0.0022  -0.42    5.1
2024/11/12 07:12:38.700   34.744631064  137.764301772    41.0019   1  27   0.0021   0.0020   0.0049  -0.0006   0.0008  -0.0022  -0.32    5.1
2024/11/12 07:12:38.800   34.744631045  137.764301823    41.0037   1  27   0.0021   0.0020   0.0049  -0.0006   0.0008  -0.0022  -0.22    5.1
2024/11/12 07:12:38.900   34.744631035  137.764301713    41.0030   1  27   0.0021   0.0020   0.0049  -0.0006   0.0008  -0.0022  -0.12    5.2
2024/11/12 07:12:39.000   34.744631017  137.764301553    41.0010   1  27   0.0021   0.0020   0.0048  -0.0006   0.0008  -0.0022  -0.02    5.2
2024/11/12 07:12:39.100   34.744630955  137.764301427    40.9969   1  27   0.0021   0.0020   0.0048  -0.0006   0.0008  -0.0022   0.08    5.2
2024/11/12 07:12:39.200   34.744630894  137.764301279    40.9977   1  27   0.0021   0.0020   0.0049  -0.0006   0.0008  -0.0022   0.18    5.2
2024/11/12 07:12:39.300   34.744630855  137.764301124    40.9968   1  27   0.0021   0.0020   0.0049  -0.0006   0.0008  -0.0022   0.28    5.2
2024/11/12 07:12:39.400   34.744630819  137.764301029    40.9976   1  27   0.0021   0.0020   0.0049  -0.0006   0.0008  -0.0022   0.38    5.2
2024/11/12 07:12:39.500   34.744630810  137.764301054    40.9971   1  27   0.0021   0.0020   0.0049  -0.0006   0.0008  -0.0022   0.48    5.2
2024/11/12 07:12:39.600   34.744630772  137.764301154    40.9976   1  27   0.0021   0.0020   0.0049  -0.0006   0.0008  -0.0022  -0.42    5.2
2024/11/12 07:12:39.700   34.744630695  137.764301256    40.9979   1  27   0.0021   0.0020   0.0049  -0.0006   0.0008  -0.0022  -0.32    5.2
2024/11/12 07:12:39.800   34.744630591  137.764301350    41.0007   1  27   0.0021   0.0020   0.0049  -0.0006   0.0008  -0.0022  -0.22    5.2
2024/11/12 07:12:39.900   34.744630539  137.764301439    40.9987   1  27   0.0021   0.0020   0.0048  -0.0006   0.0008  -0.0022  -0.12    5.2
2024/11/12 07:12:40.000   34.744630475  137.764301474    40.9997   1  27   0.0021   0.0020   0.0048  -0.0006   0.0008  -0.0022  -0.02    5.2
2024/11/12 07:12:40.100   34.744630363  137.764301609    41.0009   1  27   0.0021   0.0020   0.0048  -0.0006   0.0008  -0.0022   0.08    5.2
2024/11/12 07:12:40.200   34.744630270  137.764301739    41.0018   1  27   0.0021   0.0020   0.0049  -0.0006   0.0008  -0.0022   0.18    5.2
2024/11/12 07:12:40.300   34.744630266  137.764301819    41.0018   1  27   0.0021   0.0020   0.0049  -0.0006   0.0008  -0.0022   0.28    5.2
2024/11/12 07:12:40.400   34.744630322  137.764301865    41.0042   1  27   0.0021   0.0020   0.0049  -0.0006   0.0008  -0.0022   0.38    5.2
2024/11/12 07:12:40.500   34.744630329  137.764301783    41.0028   1  27   0.0021   0.0020   0.0049  -0.0006   0.0008  -0.0022   0.48    5.2
2024/11/12 07:12:40.600   34.744630322  137.764301712    40.9973   1  27   0.0021   0.0020   0.0049  -0.0006   0.0008  -0.0022  -0.42    5.2
2024/11/12 07:12:40.700   34.744630328  137.764301618    40.9972   1  27   0.0021   0.0020   0.0049  -0.0006   0.0008  -0.0022  -0.32    5.2
2024/11/12 07:12:40.800   34.744630384  137.764301588    40.9961   1  27   0.0021   0.0020   0.0049  -0.0006   0.0008  -0.0022  -0.22    5.2
2024/11/12 07:12:40.900   34.744630426  137.764301551    40.9970   1  27   0.0021   0.0020   0.0048  -0.0006   0.0008  -0.0022  -0.12    5.3
2024/11/12 07:12:41.000   34.744630480  137.764301523    40.9973   1  27   0.0021   0.0020   0.0048  -0.0006   0.0008  -0.0022  -0.02    5.3
2024/11/12 07:12:41.100   34.744630515  137.764301478    40.9984   1  27   0.0021   0.0020   0.0048  -0.0006   0.0008  -0.0022   0.08    5.3
2024/11/12 07:12:41.200   34.744630531  137.764301501    40.9998   1  27   0.0021   0.0020   0.0049  -0.0006   0.0008  -0.0022   0.18    5.3
2024/11/12 07:12:41.300   34.744630535  137.764301545    40.9999   1  27   0.0021   0.0020   0.0049  -0.0006   0.0008  -0.0022   0.28    5.3
2024/11/12 07:12:41.400   34.744630517  137.764301572    40.9982   1  27   0.0021   0.0020   0.0049  -0.0006   0.0008  -0.0022   0.38    5.3
2024/11/12 07:12:41.500   34.744630492  137.764301633    40.9982   1  27   0.0021   0.0020   0.0049  -0.0006   0.0008  -0.0022   0.48    5.3
2024/11/12 07:12:41.600   34.744630449  137.764301668    40.9984   1  27   0.0021   0.0020   0.0049  -0.0006   0.0008  -0.0022  -0.42    5.3
2024/11/12 07:12:41.700   34.744630454  137.764301699    40.9994   1  27   0.0021   0.0020   0.0049  -0.0006   0.0008  -0.0022  -0.32    5.3
2024/11/12 07:12:41.800   34.744630436  137.764301717    41.0008   1  27   0.0021   0.0020   0.0049  -0.0006   0.0008  -0.0022  -0.22    5.3
2024/11/12 07:12:41.900   34.744630406  137.764301713    41.0007   1  27   0.0021   0.0020   0.0048  -0.0006   0.0008  -0.0022  -0.12    5.3
2024/11/12 07:12:42.000   34.744630400  137.764301724    40.9989   1  27   0.0021   0.0020   0.0048  -0.0006   0.0008  -0.0022  -0.02    5.4
2024/11/12 07:12:42.100   34.744630373  137.764301704    40.9995   1  27   0.0021   0.0020   0.0048  -0.0006   0.0008  -0.0022   0.08    5.4
2024/11/12 07:12:42.200   34.744630366  137.764301712    41.0009   1  27   0.0021   0.0020   0.0049  -0.0006   0.0008  -0.0022   0.18    5.4
2024/11/12 07:12:42.300   34.744630372  137.764301717    40.9973   1  27   0.0021   0.0020   0.0049  -0.0006   0.0008  -0.0022   0.28    5.4
2024/11/12 07:12:42.400   34.744630359  137.764301700    41.0021   1  27   0.0021   0.0020   0.0049  -0.0006   0.0008  -0.0022   0.38    5.4
2024/11/12 07:12:42.500   34.744630357  137.764301716    40.9991   1  27   0.0021   0.0020   0.0049  -0.0006   0.0008  -0.0022   0.48    5.4
2024/11/12 07:12:42.600   34.744630326  137.764301729    41.0011   1  27   0.0021   0.0020   0.0049  -0.0006   0.0008  -0.0022  -0.42    5.4
2024/11/12 07:12:42.700   34.744630310  137.764301734    41.0014   1  27   0.0021   0.0020   0.0049  -0.0006   0.0008  -0.0022  -0.32    5.4
2024/11/12 07:12:42.800   34.744630292  137.764301739    40.9978   1  27   0.0021   0.0020   0.0049  -0.0006   0.0008  -0.0022  -0.22    5.4
2024/11/12 07:12:42.900   34.744630276  137.764301757    40.9977   1  27   0.0021   0.0020   0.0048  -0.0006   0.0008  -0.0022  -0.12    5.4
2024/11/12 07:12:43.000   34.744630283  137.764301759    41.0002   1  27   0.0021   0.0020   0.0048  -0.0006   0.0008  -0.0022  -0.02    5.5
2024/11/12 07:12:43.100   34.744630286  137.764301766    41.0013   1  27   0.0021   0.0020   0.0048  -0.0006   0.0008  -0.0022   0.08    5.5
2024/11/12 07:12:43.200   34.744630282  137.764301784    40.9996   1  27   0.0021   0.0020   0.0049  -0.0006   0.0008  -0.0022   0.18    5.5
2024/11/12 07:12:43.300   34.744630300  137.764301791    40.9996   1  27   0.0021   0.0020   0.0049  -0.0006   0.0008  -0.0022   0.28    5.5
2024/11/12 07:12:43.400   34.744630336  137.764301781    40.9961   1  27   0.0021   0.0020   0.0049  -0.0006   0.0008  -0.0022   0.38    5.5
2024/11/12 07:12:43.500   34.744630373  137.764301763    40.9947   1  27   0.0021   0.0020   0.0049  -0.0006   0.0008  -0.0022   0.48    5.5
2024/11/12 07:12:43.600   34.744630393  137.764301720    40.9940   1  27   0.0021   0.0020   0.0049  -0.0006   0.0008  -0.0022  -0.42    5.5
2024/11/12 07:12:43.700   34.744630409  137.764301704    40.9927   1  27   0.0021   0.0020   0.0049  -0.0006   0.0008  -0.0022  -0.32    5.5
2024/11/12 07:12:43.800   34.744630400  137.764301669    40.9949   1  27   0.0021   0.0020   0.0049  -0.0006   0.0008  -0.0022  -0.22    5.5
2024/11/12 07:12:43.900   34.744630392  137.764301629    40.9951   1  27   0.0021   0.0020   0.0048  -0.0006   0.0008  -0.0022  -0.12    5.5
2024/11/12 07:12:44.000   34.744630401  137.764301585    40.9962   1  27   0.0021   0.0020   0.0048  -0.0006   0.0008  -0.0022  -0.02    5.5
2024/11/12 07:12:44.100   34.744630411  137.764301546    40.9945   1  27   0.0021   0.0020   0.0048  -0.0006   0.0008  -0.0022   0.08    5.5
2024/11/12 07:12:44.200   34.744630440  137.764301496    40.9902   1  27   0.0021   0.0020   0.0048  -0.0006   0.0008  -0.0022   0.18    5.5
2024/11/12 07:12:44.300   34.744630451  137.764301456    40.9906   1  27   0.0021   0.0020   0.0049  -0.0006   0.0008  -0.0022   0.28    5.6
2024/11/12 07:12:44.400   34.744630449  137.764301404    40.9927   1  27   0.0021   0.0020   0.0049  -0.0006   0.0008  -0.0022   0.38    5.6
2024/11/12 07:12:44.500   34.744630422  137.764301362    40.9943   1  27   0.0021   0.0020   0.0049  -0.0006   0.0008  -0.0022   0.48    5.6
2024/11/12 07:12:44.600   34.744630380  137.764301321    40.9948   1  27   0.0021   0.0020   0.0049  -0.0006   0.0008  -0.0022  -0.42    5.6
2024/11/12 07:12:44.700   34.744630375  137.764301331    40.9941   1  27   0.0021   0.0020   0.0049  -0.0006   0.0008  -0.0022  -0.32    5.6
2024/11/12 07:12:44.800   34.744630392  137.764301339    40.9925   1  27   0.0021   0.0020   0.0049  -0.0006   0.0008  -0.0022  -0.22    5.6
2024/11/12 07:12:44.900   34.744630414  137.764301325    40.9934   1  27   0.0021   0.0020   0.0048  -0.0006   0.0008  -0.0022  -0.12    5.6
2024/11/12 07:12:45.000   34.744630453  137.764301355    40.9901   1  27   0.0021   0.0020   0.0048  -0.0006   0.0008  -0.0022  -0.02    5.6
2024/11/12 07:12:45.100   34.744630485  137.764301380    40.9901   1  27   0.0021   0.0020   0.0048  -0.0006   0.0008  -0.0022   0.08    5.6
2024/11/12 07:12:45.200   34.744630484  137.764301358    40.9928   1  27   0.0021   0.0020   0.0048  -0.0006   0.0008  -0.0022   0.18    5.6
2024/11/12 07:12:45.300   34.744630509  137.764301360    40.9939   1  27   0.0021   0.0020   0.0049  -0.0006   0.0008  -0.0022   0.28    5.6
2024/11/12 07:12:45.400   34.744630544  137.764301374    40.9942   1  27   0.0021   0.0020   0.0049  -0.0006   0.0008  -0.0022   0.38    5.6
2024/11/12 07:12:45.500   34.744630570  137.764301382    40.9916   1  27   0.0021   0.0020   0.0049  -0.0006   0.0008  -0.0022   0.48    5.6
2024/11/12 07:12:45.600   34.744630588  137.764301389    40.9897   1  27   0.0021   0.0020   0.0049  -0.0006   0.0008  -0.0022  -0.42    5.6
2024/11/12 07:12:45.700   34.744630618  137.764301372    40.9871   1  27   0.0021   0.0020   0.0049  -0.0006   0.0008  -0.0022  -0.32    5.6
2024/11/12 07:12:45.800   34.744630611  137.764301381    40.9905   1  27   0.0021   0.0020   0.0049  -0.0006   0.0008  -0.0022  -0.22    5.6
2024/11/12 07:12:45.900   34.744630617  137.764301390    40.9894   1  27   0.0021   0.0020   0.0048  -0.0006   0.0008  -0.0022  -0.12    5.6
2024/11/12 07:12:46.000   34.744630606  137.764301374    40.9924   1  27   0.0021   0.0020   0.0048  -0.0006   0.0008  -0.0022  -0.02    5.6
2024/11/12 07:12:46.100   34.744630623  137.764301378    40.9898   1  27   0.0021   0.0020   0.0048  -0.0006   0.0008  -0.0022   0.08    5.7
2024/11/12 07:12:46.200   34.744630619  137.764301389    40.9903   1  27   0.0021   0.0020   0.0048  -0.0006   0.0008  -0.0022   0.18    5.7
2024/11/12 07:12:46.300   34.744630598  137.764301372    40.9918   1  27   0.0021   0.0020   0.0049  -0.0006   0.0008  -0.0022   0.28    5.7
2024/11/12 07:12:46.400   34.744630589  137.764301381    40.9919   1  27   0.0021   0.0020   0.0049  -0.0006   0.0008  -0.0022   0.38    5.7
2024/11/12 07:12:46.500   34.744630578  137.764301382    40.9931   1  27   0.0021   0.0020   0.0049  -0.0006   0.0008  -0.0022   0.48    5.7
2024/11/12 07:12:46.600   34.744630589  137.764301382    40.9905   1  27   0.0021   0.0020   0.0049  -0.0006   0.0008  -0.0022  -0.42    5.7
2024/11/12 07:12:46.700   34.744630576  137.764301392    40.9882   1  27   0.0021   0.0020   0.0049  -0.0006   0.0008  -0.0022  -0.32    5.7
2024/11/12 07:12:46.800   34.744630568  137.764301389    40.9857   1  27   0.0021   0.0020   0.0049  -0.0006   0.0008  -0.0022  -0.22    5.7
2024/11/12 07:12:46.900   34.744630550  137.764301397    40.9871   1  27   0.0021   0.0020   0.0048  -0.0006   0.0008  -0.0022  -0.12    5.7
2024/11/12 07:12:47.000   34.744630543  137.764301402    40.9884   1  27   0.0021   0.0020   0.0048  -0.0006   0.0008  -0.0022  -0.02    5.7
2024/11/12 07:12:47.100   34.744630538  137.764301412    40.9857   1  27   0.0021   0.0020   0.0048  -0.0006   0.0008  -0.0022   0.08    5.7
2024/11/12 07:12:47.200   34.744630536  137.764301393    40.9885   1  27   0.0021   0.0020   0.0048  -0.0006   0.0008  -0.0022   0.18    5.7
2024/11/12 07:12:47.300   34.744630531  137.764301415    40.9886   1  27   0.0021   0.0020   0.0049  -0.0006   0.0008  -0.0022   0.28    5.8
2024/11/12 07:12:47.400   34.744630517  137.764301413    40.9891   1  27   0.0021   0.0020   0.0049  -0.0006   0.0008  -0.0022   0.38    5.8
2024/11/12 07:12:47.500   34.744630520  137.764301404    40.9897   1  27   0.0021   0.0020   0.0049  -0.0006   0.0008  -0.0022   0.48    5.8
2024/11/12 07:12:47.600   34.744630515  137.764301402    40.9918   1  27   0.0021   0.0020   0.0049  -0.0006   0.0008  -0.0022  -0.42    5.8
2024/11/12 07:12:47.700   34.744630502  137.764301399    40.9894   1  27   0.0021   0.0020   0.0049  -0.0006   0.0008  -0.0022  -0.32    5.8
2024/11/12 07:12:47.800   34.744630504  137.764301409    40.9881   1  27   0.0021   0.0020   0.0049  -0.0006   0.0008  -0.0022  -0.22    5.8
2024/11/12 07:12:47.900   34.744630506  137.764301415    40.9874   1  27   0.0021   0.0020   0.0050  -0.0006   0.0008  -0.0022  -0.12    5.8
2024/11/12 07:12:48.000   34.744630493  137.764301415    40.9867   1  27   0.0021   0.0020   0.0050  -0.0006   0.0008  -0.0022  -0.02    5.8
2024/11/12 07:12:48.200   34.744630491  137.764301417    40.9900   1  27   0.0022   0.0020   0.0051  -0.0006   0.0008  -0.0023   0.18    5.8
2024/11/12 07:12:48.300   34.744630490  137.764301412    40.9913   1  27   0.0021   0.0020   0.0048  -0.0006   0.0008  -0.0022   0.28    5.8
2024/11/12 07:12:48.400   34.744630506  137.764301419    40.9876   1  27   0.0021   0.0020   0.0049  -0.0006   0.0008  -0.0022   0.38    5.8
2024/11/12 07:12:48.500   34.744630535  137.764301409    40.9872   1  27   0.0021   0.0020   0.0049  -0.0006   0.0008  -0.0022   0.48    5.8
2024/11/12 07:12:48.600   34.744630533  137.764301392    40.9879   1  27   0.0021   0.0020   0.0049  -0.0006   0.0008  -0.0022  -0.42    5.8
2024/11/12 07:12:48.700   34.744630579  137.764301392    40.9878   1  27   0.0021   0.0020   0.0049  -0.0006   0.0008  -0.0022  -0.32    5.8
2024/11/12 07:12:48.800   34.744630612  137.764301396    40.9889   1  27   0.0021   0.0020   0.0049  -0.0006   0.0008  -0.0022  -0.22    5.8
2024/11/12 07:12:48.900   34.744630659  137.764301372    40.9904   1  27   0.0021   0.0020   0.0048  -0.0006   0.0008  -0.0022  -0.12    5.8
2024/11/12 07:12:49.000   34.744630703  137.764301387    40.9881   1  27   0.0021   0.0020   0.0048  -0.0006   0.0008  -0.0022  -0.02    5.8
2024/11/12 07:12:49.100   34.744630733  137.764301392    40.9883   1  27   0.0021   0.0020   0.0048  -0.0006   0.0008  -0.0022   0.08    5.8
2024/11/12 07:12:49.200   34.744630716  137.764301383    40.9907   1  27   0.0021   0.0020   0.0048  -0.0006   0.0008  -0.0022   0.18    5.8
2024/11/12 07:12:49.300   34.744630680  137.764301380    40.9911   1  27   0.0021   0.0020   0.0049  -0.0006   0.0008  -0.0022   0.28    5.8
2024/11/12 07:12:49.400   34.744630655  137.764301330    40.9912   1  27   0.0021   0.0020   0.0049  -0.0006   0.0008  -0.0022   0.38    5.8
2024/11/12 07:12:49.500   34.744630698  137.764301353    40.9894   1  27   0.0021   0.0020   0.0049  -0.0006   0.0008  -0.0022   0.48    5.8
2024/11/12 07:12:49.600   34.744630727  137.764301348    40.9893   1  27   0.0021   0.0020   0.0049  -0.0006   0.0008  -0.0022  -0.42    5.8
2024/11/12 07:12:49.700   34.744630716  137.764301338    40.9917   1  27   0.0021   0.0020   0.0049  -0.0006   0.0008  -0.0022  -0.32    5.9
2024/11/12 07:12:49.800   34.744630750  137.764301334    40.9882   1  27   0.0021   0.0020   0.0048  -0.0006   0.0008  -0.0022  -0.22    5.9
2024/11/12 07:12:49.900   34.744630749  137.764301272    40.9935   1  27   0.0021   0.0020   0.0048  -0.0006   0.0008  -0.0022  -0.12    5.9
2024/11/12 07:12:50.000   34.744630782  137.764301253    40.9880   1  27   0.0021   0.0020   0.0048  -0.0006   0.0008  -0.0022  -0.02    5.9
2024/11/12 07:12:50.100   34.744630775  137.764301245    40.9903   1  27   0.0021   0.0020   0.0048  -0.0006   0.0008  -0.0022   0.08    5.9
2024/11/12 07:12:50.200   34.744630779  137.764301250    40.9928   1  27   0.0021   0.0020   0.0048  -0.0006   0.0008  -0.0022   0.18    5.9
2024/11/12 07:12:50.300   34.744630824  137.764301298    40.9887   1  27   0.0021   0.0020   0.0049  -0.0006   0.0008  -0.0022   0.28    5.9
2024/11/12 07:12:50.400   34.744630824  137.764301314    40.9958   1  27   0.0021   0.0020   0.0049  -0.0006   0.0008  -0.0022   0.38    5.9
2024/11/12 07:12:50.500   34.744630852  137.764301366    40.9975   1  27   0.0021   0.0020   0.0049  -0.0006   0.0008  -0.0022   0.48    5.9
2024/11/12 07:12:50.600   34.744630899  137.764301366    40.9935   1  27   0.0021   0.0020   0.0049  -0.0006   0.0008  -0.0022  -0.42    5.9
2024/11/12 07:12:50.700   34.744630912  137.764301311    40.9898   1  27   0.0021   0.0020   0.0049  -0.0006   0.0008  -0.0022  -0.32    5.9
2024/11/12 07:12:50.800   34.744630939  137.764301272    40.9892   1  27   0.0021   0.0020   0.0048  -0.0006   0.0008  -0.0022  -0.22    5.9
2024/11/12 07:12:50.900   34.744630930  137.764301211    40.9892   1  27   0.0021   0.0020   0.0048  -0.0006   0.0008  -0.0022  -0.12    5.9
2024/11/12 07:12:51.000   34.744630921  137.764301174    40.9865   1  27   0.0021   0.0020   0.0048  -0.0006   0.0008  -0.0022  -0.02    5.9
2024/11/12 07:12:51.100   34.744630921  137.764301145    40.9844   1  27   0.0021   0.0020   0.0048  -0.0006   0.0008  -0.0022   0.08    5.9
2024/11/12 07:12:51.200   34.744630895  137.764301099    40.9871   1  27   0.0021   0.0020   0.0048  -0.0006   0.0008  -0.0022   0.18    5.9
2024/11/12 07:12:51.300   34.744630875  137.764301090    40.9846   1  27   0.0021   0.0020   0.0049  -0.0006   0.0008  -0.0022   0.28    5.9
2024/11/12 07:12:51.400   34.744630860  137.764301088    40.9861   1  27   0.0021   0.0020   0.0049  -0.0006   0.0008  -0.0022   0.38    5.9
2024/11/12 07:12:51.500   34.744630861  137.764301092    40.9831   1  27   0.0021   0.0020   0.0049  -0.0006   0.0008  -0.0022   0.48    5.9
2024/11/12 07:12:51.600   34.744630866  137.764301120    40.9803   1  27   0.0021   0.0020   0.0049  -0.0006   0.0008  -0.0022  -0.42    5.9
2024/11/12 07:12:51.700   34.744630890  137.764301129    40.9809   1  27   0.0021   0.0020   0.0049  -0.0006   0.0008  -0.0022  -0.32    5.9
2024/11/12 07:12:51.800   34.744630901  137.764301140    40.9813   1  27   0.0021   0.0020   0.0048  -0.0006   0.0008  -0.0022  -0.22    5.9
2024/11/12 07:12:51.900   34.744630913  137.764301134    40.9866   1  27   0.0021   0.0020   0.0048  -0.0006   0.0008  -0.0022  -0.12    5.9
2024/11/12 07:12:52.000   34.744630993  137.764301120    40.9839   1  27   0.0021   0.0020   0.0048  -0.0006   0.0008  -0.0022  -0.02    5.9
2024/11/12 07:12:52.100   34.744631039  137.764301104    40.9811   1  27   0.0021   0.0020   0.0048  -0.0006   0.0008  -0.0022   0.08    5.9
2024/11/12 07:12:52.200   34.744630995  137.764301088    40.9844   1  27   0.0021   0.0020   0.0048  -0.0006   0.0008  -0.0022   0.18    5.9
2024/11/12 07:12:52.300   34.744630959  137.764301103    40.9845   1  27   0.0021   0.0020   0.0049  -0.0006   0.0008  -0.0022   0.28    5.9
2024/11/12 07:12:52.400   34.744630939  137.764301113    40.9885   1  27   0.0021   0.0020   0.0049  -0.0006   0.0008  -0.0022   0.38    5.9
2024/11/12 07:12:52.500   34.744630937  137.764301172    40.9868   1  27   0.0021   0.0020   0.0049  -0.0006   0.0008  -0.0022   0.48    5.9
2024/11/12 07:12:52.600   34.744630897  137.764301198    40.9895   1  27   0.0021   0.0020   0.0049  -0.0006   0.0008  -0.0022  -0.42    5.9
2024/11/12 07:12:52.700   34.744630902  137.764301226    40.9915   1  27   0.0021   0.0020   0.0049  -0.0006   0.0008  -0.0022  -0.32    5.9
2024/11/12 07:12:52.800   34.744630911  137.764301222    40.9924   1  27   0.0021   0.0020   0.0048  -0.0006   0.0008  -0.0022  -0.22    5.9
2024/11/12 07:12:52.900   34.744630911  137.764301242    40.9915   1  27   0.0021   0.0020   0.0048  -0.0006   0.0008  -0.0022  -0.12    5.9
2024/11/12 07:12:53.000   34.744630919  137.764301286    40.9902   1  27   0.0021   0.0020   0.0048  -0.0006   0.0008  -0.0022  -0.02    5.9
2024/11/12 07:12:53.100   34.744630894  137.764301297    40.9915   1  27   0.0021   0.0020   0.0048  -0.0006   0.0008  -0.0022   0.08    5.9
2024/11/12 07:12:53.200   34.744630888  137.764301324    40.9899   1  27   0.0021   0.0020   0.0048  -0.0006   0.0008  -0.0022   0.18    5.9
2024/11/12 07:12:53.300   34.744630878  137.764301339    40.9915   1  27   0.0021   0.0020   0.0049  -0.0006   0.0008  -0.0022   0.28    5.9
2024/11/12 07:12:53.400   34.744630845  137.764301362    40.9936   1  27   0.0021   0.0020   0.0049  -0.0006   0.0008  -0.0022   0.38    5.9
2024/11/12 07:12:53.500   34.744630832  137.764301382    40.9913   1  27   0.0021   0.0020   0.0049  -0.0006   0.0008  -0.0022   0.48    5.9
2024/11/12 07:12:53.600   34.744630819  137.764301405    40.9876   1  27   0.0021   0.0020   0.0049  -0.0006   0.0008  -0.0022  -0.42    5.9
2024/11/12 07:12:53.700   34.744630787  137.764301405    40.9880   1  27   0.0021   0.0020   0.0049  -0.0006   0.0008  -0.0022  -0.32    5.9
2024/11/12 07:12:53.800   34.744630788  137.764301419    40.9897   1  27   0.0021   0.0020   0.0048  -0.0006   0.0008  -0.0022  -0.22    5.9
2024/11/12 07:12:53.900   34.744630775  137.764301412    40.9904   1  27   0.0021   0.0020   0.0048  -0.0006   0.0008  -0.0022  -0.12    5.9
2024/11/12 07:12:54.000   34.744630784  137.764301399    40.9883   1  27   0.0021   0.0020   0.0048  -0.0006   0.0008  -0.0022  -0.02    5.9
2024/11/12 07:12:54.100   34.744630758  137.764301417    40.9873   1  27   0.0021   0.0020   0.0048  -0.0006   0.0008  -0.0022   0.08    6.0
2024/11/12 07:12:54.200   34.744630711  137.764301425    40.9899   1  27   0.0021   0.0020   0.0048  -0.0006   0.0008  -0.0022   0.18    6.0
2024/11/12 07:12:54.300   34.744630677  137.764301446    40.9877   1  27   0.0021   0.0020   0.0049  -0.0006   0.0008  -0.0022   0.28    6.0
2024/11/12 07:12:54.400   34.744630662  137.764301453    40.9898   1  27   0.0021   0.0020   0.0049  -0.0006   0.0008  -0.0022   0.38    6.0
2024/11/12 07:12:54.500   34.744630673  137.764301445    40.9904   1  27   0.0021   0.0020   0.0049  -0.0006   0.0008  -0.0022   0.48    6.0
2024/11/12 07:12:54.600   34.744630703  137.764301467    40.9874   1  27   0.0021   0.0020   0.0049  -0.0006   0.0008  -0.0022  -0.42    6.0
2024/11/12 07:12:54.700   34.744630699  137.764301458    40.9883   1  27   0.0021   0.0020   0.0049  -0.0006   0.0008  -0.0022  -0.32    6.0
2024/11/12 07:12:54.800   34.744630690  137.764301458    40.9885   1  27   0.0021   0.0020   0.0048  -0.0006   0.0008  -0.0022  -0.22    6.0
2024/11/12 07:12:54.900   34.744630690  137.764301443    40.9886   1  27   0.0021   0.0020   0.0048  -0.0006   0.0008  -0.0022  -0.12    6.0
2024/11/12 07:12:55.000   34.744630689  137.764301474    40.9874   1  27   0.0021   0.0020   0.0048  -0.0006   0.0008  -0.0022  -0.02    6.0
2024/11/12 07:12:55.100   34.744630691  137.764301485    40.9874   1  27   0.0021   0.0020   0.0048  -0.0006   0.0008  -0.0022   0.08    6.0
2024/11/12 07:12:55.200   34.744630721  137.764301471    40.9854   1  27   0.0021   0.0020   0.0048  -0.0006   0.0008  -0.0022   0.18    6.0
2024/11/12 07:12:55.300   34.744630727  137.764301473    40.9866   1  27   0.0021   0.0020   0.0049  -0.0006   0.0008  -0.0022   0.28    6.0
2024/11/12 07:12:55.400   34.744630720  137.764301461    40.9889   1  27   0.0021   0.0020   0.0049  -0.0006   0.0008  -0.0022   0.38    6.0
2024/11/12 07:12:55.500   34.744630723  137.764301474    40.9871   1  27   0.0021   0.0020   0.0049  -0.0006   0.0008  -0.0022   0.48    6.0
2024/11/12 07:12:55.600   34.744630713  137.764301479    40.9861   1  27   0.0021   0.0020   0.0049  -0.0006   0.0008  -0.0022  -0.42    6.0
2024/11/12 07:12:55.700   34.744630668  137.764301464    40.9885   1  27   0.0021   0.0020   0.0049  -0.0006   0.0008  -0.0022  -0.32    6.0
2024/11/12 07:12:55.800   34.744630653  137.764301450    40.9896   1  27   0.0021   0.0020   0.0048  -0.0006   0.0008  -0.0022  -0.22    6.0
2024/11/12 07:12:55.900   34.744630665  137.764301469    40.9898   1  27   0.0021   0.0020   0.0048  -0.0006   0.0008  -0.0022  -0.12    6.0
2024/11/12 07:12:56.000   34.744630686  137.764301471    40.9877   1  27   0.0021   0.0020   0.0048  -0.0006   0.0008  -0.0022  -0.02    6.0
2024/11/12 07:12:56.100   34.744630662  137.764301462    40.9918   1  27   0.0021   0.0020   0.0048  -0.0006   0.0008  -0.0022   0.08    6.0
2024/11/12 07:12:56.200   34.744630663  137.764301463    40.9902   1  27   0.0021   0.0020   0.0048  -0.0006   0.0008  -0.0022   0.18    6.0
2024/11/12 07:12:56.300   34.744630670  137.764301478    40.9883   1  27   0.0021   0.0020   0.0048  -0.0006   0.0008  -0.0022   0.28    6.1
2024/11/12 07:12:56.400   34.744630657  137.764301465    40.9894   1  27   0.0021   0.0020   0.0049  -0.0006   0.0008  -0.0022   0.38    6.1
2024/11/12 07:12:56.500   34.744630645  137.764301443    40.9903   1  27   0.0021   0.0020   0.0049  -0.0006   0.0008  -0.0022   0.48    6.1
2024/11/12 07:12:56.600   34.744630633  137.764301469    40.9919   1  27   0.0021   0.0020   0.0049  -0.0006   0.0008  -0.0022  -0.42    6.1
2024/11/12 07:12:56.700   34.744630645  137.764301474    40.9929   1  27   0.0021   0.0020   0.0049  -0.0006   0.0008  -0.0022  -0.32    6.1
2024/11/12 07:12:56.800   34.744630641  137.764301467    40.9914   1  27   0.0021   0.0020   0.0048  -0.0006   0.0008  -0.0022  -0.22    6.1
2024/11/12 07:12:56.900   34.744630647  137.764301468    40.9934   1  27   0.0021   0.0020   0.0049  -0.0006   0.0008  -0.0022  -0.12    6.1
2024/11/12 07:12:57.000   34.744630659  137.764301466    40.9882   1  27   0.0022   0.0020   0.0050  -0.0004   0.0004  -0.0023  -0.02    6.1
2024/11/12 07:12:57.100   34.744630669  137.764301482    40.9865   1  27   0.0022   0.0020   0.0051  -0.0004   0.0004  -0.0023   0.08    6.1
2024/11/12 07:12:57.200   34.744630663  137.764301475    40.9893   1  27   0.0022   0.0020   0.0051  -0.0004   0.0004  -0.0023   0.18    6.1
2024/11/12 07:12:57.300   34.744630664  137.764301460    40.9905   1  27   0.0022   0.0020   0.0051  -0.0004   0.0004  -0.0023   0.28    6.1
2024/11/12 07:12:57.400   34.744630657  137.764301469    40.9918   1  27   0.0022   0.0020   0.0051  -0.0004   0.0004  -0.0023   0.38    6.1
2024/11/12 07:12:57.500   34.744630649  137.764301475    40.9907   1  27   0.0022   0.0020   0.0051  -0.0004   0.0004  -0.0023   0.48    6.1
2024/11/12 07:12:57.600   34.744630663  137.764301469    40.9870   1  27   0.0022   0.0020   0.0051  -0.0004   0.0004  -0.0023  -0.42    6.1
2024/11/12 07:12:57.700   34.744630659  137.764301470    40.9873   1  27   0.0022   0.0020   0.0051  -0.0004   0.0004  -0.0023  -0.32    6.1
2024/11/12 07:12:57.800   34.744630658  137.764301466    40.9895   1  27   0.0031   0.0028   0.0071  -0.0006   0.0005  -0.0033  -0.22    6.1
2024/11/12 07:12:57.900   34.744630672  137.764301491    40.9871   1  27   0.0031   0.0028   0.0071  -0.0006   0.0005  -0.0033  -0.12    6.1
2024/11/12 07:12:58.000   34.744630660  137.764301488    40.9886   1  27   0.0031   0.0028   0.0071  -0.0006   0.0005  -0.0033  -0.02    6.1
2024/11/12 07:12:58.100   34.744630656  137.764301460    40.9889   1  27   0.0031   0.0028   0.0071  -0.0006   0.0005  -0.0033   0.08    6.1
2024/11/12 07:12:58.200   34.744630651  137.764301469    40.9890   1  27   0.0031   0.0028   0.0071  -0.0006   0.0005  -0.0033   0.18    6.1
2024/11/12 07:12:58.300   34.744630642  137.764301467    40.9902   1  27   0.0031   0.0028   0.0071  -0.0006   0.0005  -0.0033   0.28    6.1
2024/11/12 07:12:58.400   34.744630649  137.764301488    40.9898   1  27   0.0031   0.0028   0.0071  -0.0006   0.0005  -0.0033   0.38    6.1
2024/11/12 07:12:58.500   34.744630644  137.764301491    40.9901   1  27   0.0031   0.0029   0.0071  -0.0006   0.0005  -0.0033   0.48    6.1
2024/11/12 07:12:58.600   34.744630661  137.764301468    40.9895   1  27   0.0030   0.0028   0.0069  -0.0008   0.0011  -0.0031  -0.42    6.1
2024/11/12 07:12:58.700   34.744630668  137.764301451    40.9906   1  27   0.0030   0.0028   0.0068  -0.0008   0.0011  -0.0030  -0.32    6.1
2024/11/12 07:12:58.800   34.744630666  137.764301462    40.9886   1  27   0.0030   0.0028   0.0068  -0.0008   0.0011  -0.0030  -0.22    6.1
2024/11/12 07:12:58.900   34.744630685  137.764301476    40.9875   1  27   0.0030   0.0028   0.0068  -0.0008   0.0011  -0.0030  -0.12    6.1
2024/11/12 07:12:59.000   34.744630699  137.764301476    40.9894   1  27   0.0030   0.0028   0.0068  -0.0008   0.0011  -0.0030  -0.02    6.1
2024/11/12 07:12:59.100   34.744630693  137.764301449    40.9915   1  27   0.0030   0.0028   0.0068  -0.0008   0.0011  -0.0030   0.08    6.1
2024/11/12 07:12:59.200   34.744630699  137.764301454    40.9919   1  27   0.0030   0.0028   0.0068  -0.0008   0.0011  -0.0030   0.18    6.1
2024/11/12 07:12:59.300   34.744630707  137.764301464    40.9911   1  27   0.0030   0.0028   0.0068  -0.0008   0.0011  -0.0030   0.28    6.1
2024/11/12 07:12:59.400   34.744630703  137.764301463    40.9909   1  27   0.0030   0.0028   0.0068  -0.0008   0.0011  -0.0030   0.38    6.1
2024/11/12 07:12:59.500   34.744630691  137.764301472    40.9923   1  27   0.0030   0.0028   0.0068  -0.0008   0.0011  -0.0030   0.48    6.1
2024/11/12 07:12:59.600   34.744630677  137.764301470    40.9938   1  27   0.0030   0.0028   0.0068  -0.0008   0.0011  -0.0030  -0.42    6.1
