% program   : RTKPOST demo5 b34j
% inp file  : C:\Users\cs21014\Documents\Kitani\241112hyod\src\11\GNSS_MT\gnss0\ubx\241112_16.obs
% inp file  : C:\Users\cs21014\Documents\Kitani\241112hyod\src\rtk_base\COM4___9600_241112_050705.obs
% inp file  : C:\Users\cs21014\Documents\Kitani\241112hyod\src\rtk_base\COM4___9600_241112_050705.nav
% obs start : 2024/11/12 07:22:18.0 GPST (week2340 199338.0s)
% obs end   : 2024/11/12 07:27:50.9 GPST (week2340 199670.9s)
% pos mode  : Kinematic
% freqs     : L1+L2/E5b+L5
% solution  : Combined-Phase Reset
% elev mask : 15.0 deg
% dynamics  : on
% tidecorr  : on
% ionos opt : Broadcast
% tropo opt : Saastamoinen
% ephemeris : Broadcast
% navi sys  : GPS GLONASS Galileo QZSS BDS NavIC
% amb res   : Fix and Hold
% amb glo   : Fix and Hold
% val thres : 3.0
% antenna1  :                       ( 0.0000  0.0000  0.0000)
% antenna2  :                       ( 0.0000  0.0000  0.0000)
% ref pos   : 34.744454383  137.764618776    40.7897
%
% (lat/lon/height=WGS84/ellipsoidal,Q=1:fix,2:float,3:sbas,4:dgps,5:single,6:ppp,ns=# of satellites)
%  GPST                  latitude(deg) longitude(deg)  height(m)   Q  ns   sdn(m)   sde(m)   sdu(m)  sdne(m)  sdeu(m)  sdun(m) age(s)  ratio
2024/11/12 07:22:18.000   34.744630687  137.764306115    41.0043   1  28   0.0033   0.0030   0.0072   0.0006  -0.0013  -0.0035  -0.01    3.2
2024/11/12 07:22:18.200   34.744630676  137.764306102    41.0048   1  28   0.0032   0.0030   0.0068   0.0006  -0.0012  -0.0034   0.19    3.2
2024/11/12 07:22:18.300   34.744630682  137.764306116    41.0048   1  28   0.0032   0.0030   0.0068   0.0006  -0.0012  -0.0034   0.29    3.2
2024/11/12 07:22:18.400   34.744630670  137.764306120    41.0052   1  28   0.0032   0.0030   0.0068   0.0006  -0.0012  -0.0034   0.39    3.2
2024/11/12 07:22:18.500   34.744630666  137.764306123    41.0054   1  28   0.0032   0.0030   0.0068   0.0006  -0.0012  -0.0034   0.49    3.2
2024/11/12 07:22:18.600   34.744630682  137.764306100    41.0036   1  28   0.0032   0.0030   0.0068   0.0006  -0.0012  -0.0034  -0.41    3.2
2024/11/12 07:22:18.700   34.744630677  137.764306093    41.0050   1  28   0.0032   0.0030   0.0068   0.0006  -0.0013  -0.0034  -0.31    3.2
2024/11/12 07:22:18.800   34.744630685  137.764306092    41.0047   1  28   0.0032   0.0030   0.0068   0.0007  -0.0013  -0.0034  -0.21    3.2
2024/11/12 07:22:18.900   34.744630673  137.764306124    41.0059   1  28   0.0032   0.0030   0.0068   0.0007  -0.0013  -0.0034  -0.11    3.2
2024/11/12 07:22:19.000   34.744630682  137.764306107    41.0070   1  28   0.0032   0.0030   0.0069   0.0007  -0.0013  -0.0034  -0.01    3.2
2024/11/12 07:22:19.100   34.744630682  137.764306097    41.0066   1  28   0.0032   0.0030   0.0069   0.0007  -0.0014  -0.0034   0.09    3.2
2024/11/12 07:22:19.200   34.744630685  137.764306106    41.0079   1  28   0.0033   0.0031   0.0070   0.0008  -0.0015  -0.0035   0.19    3.1
2024/11/12 07:22:19.300   34.744630678  137.764306108    41.0086   1  28   0.0033   0.0031   0.0071   0.0009  -0.0016  -0.0036   0.29    3.1
2024/11/12 07:22:19.400   34.744630678  137.764306101    41.0096   1  28   0.0033   0.0031   0.0071   0.0010  -0.0018  -0.0036   0.39    3.8
2024/11/12 07:22:19.500   34.744630686  137.764306100    41.0086   1  28   0.0032   0.0030   0.0067   0.0005  -0.0011  -0.0033   0.49    3.8
2024/11/12 07:22:19.600   34.744630682  137.764306097    41.0085   1  28   0.0031   0.0030   0.0064  -0.0004  -0.0004  -0.0031  -0.41    3.8
2024/11/12 07:22:19.700   34.744630692  137.764306095    41.0075   1  28   0.0031   0.0030   0.0064  -0.0004  -0.0004  -0.0030  -0.31    3.8
2024/11/12 07:22:19.800   34.744630677  137.764306094    41.0098   1  28   0.0031   0.0030   0.0064  -0.0004  -0.0004  -0.0030  -0.21    3.8
2024/11/12 07:22:19.900   34.744630680  137.764306091    41.0089   1  28   0.0031   0.0030   0.0064  -0.0004  -0.0004  -0.0030  -0.11    3.7
2024/11/12 07:22:20.000   34.744630693  137.764306100    41.0061   1  28   0.0031   0.0030   0.0064  -0.0004  -0.0004  -0.0030  -0.01    3.7
2024/11/12 07:22:20.100   34.744630693  137.764306102    41.0081   1  28   0.0031   0.0030   0.0064  -0.0004  -0.0004  -0.0030   0.09    3.7
2024/11/12 07:22:20.200   34.744630671  137.764306100    41.0094   1  28   0.0031   0.0030   0.0064  -0.0004  -0.0004  -0.0030   0.19    3.7
2024/11/12 07:22:20.300   34.744630687  137.764306112    41.0095   1  28   0.0031   0.0030   0.0064  -0.0004  -0.0004  -0.0030   0.29    3.7
2024/11/12 07:22:20.400   34.744630667  137.764306095    41.0106   1  28   0.0031   0.0030   0.0064  -0.0004  -0.0004  -0.0031   0.39    3.7
2024/11/12 07:22:20.500   34.744630682  137.764306116    41.0076   1  28   0.0031   0.0030   0.0065  -0.0004  -0.0004  -0.0031   0.49    3.7
2024/11/12 07:22:20.600   34.744630699  137.764306112    41.0065   1  28   0.0031   0.0030   0.0064  -0.0004  -0.0004  -0.0031  -0.41    3.7
2024/11/12 07:22:20.700   34.744630689  137.764306109    41.0072   1  28   0.0022   0.0021   0.0046  -0.0002  -0.0004  -0.0022  -0.31    3.2
2024/11/12 07:22:20.800   34.744630690  137.764306115    41.0073   1  28   0.0022   0.0021   0.0046  -0.0002  -0.0004  -0.0022  -0.21    3.2
2024/11/12 07:22:20.900   34.744630682  137.764306103    41.0093   1  28   0.0022   0.0021   0.0045  -0.0002  -0.0004  -0.0022  -0.11    3.2
2024/11/12 07:22:21.000   34.744630688  137.764306122    41.0097   1  28   0.0022   0.0021   0.0045  -0.0002  -0.0004  -0.0022  -0.01    3.2
2024/11/12 07:22:21.100   34.744630685  137.764306119    41.0103   1  28   0.0022   0.0021   0.0045  -0.0002  -0.0004  -0.0022   0.09    3.2
2024/11/12 07:22:21.200   34.744630672  137.764306105    41.0129   1  28   0.0022   0.0021   0.0045  -0.0003  -0.0004  -0.0022   0.19    3.2
2024/11/12 07:22:21.300   34.744630675  137.764306109    41.0114   1  28   0.0022   0.0021   0.0045  -0.0003  -0.0004  -0.0022   0.29    3.2
2024/11/12 07:22:21.400   34.744630689  137.764306107    41.0118   1  28   0.0022   0.0021   0.0046  -0.0003  -0.0004  -0.0022   0.39    3.2
2024/11/12 07:22:21.500   34.744630674  137.764306109    41.0136   1  28   0.0022   0.0021   0.0046  -0.0003  -0.0004  -0.0022   0.49    3.2
2024/11/12 07:22:21.600   34.744630688  137.764306107    41.0075   1  28   0.0022   0.0021   0.0046  -0.0003  -0.0004  -0.0022  -0.41    3.2
2024/11/12 07:22:21.700   34.744630688  137.764306101    41.0064   1  28   0.0022   0.0021   0.0046  -0.0003  -0.0004  -0.0022  -0.31    3.2
2024/11/12 07:22:21.800   34.744630683  137.764306112    41.0051   1  28   0.0022   0.0021   0.0046  -0.0003  -0.0004  -0.0022  -0.21    3.2
2024/11/12 07:22:21.900   34.744630691  137.764306105    41.0047   1  28   0.0022   0.0021   0.0046  -0.0003  -0.0004  -0.0022  -0.11    3.2
2024/11/12 07:22:22.000   34.744630674  137.764306096    41.0093   1  28   0.0022   0.0021   0.0047  -0.0003  -0.0004  -0.0022  -0.01    3.2
2024/11/12 07:22:22.200   34.744630672  137.764306104    41.0090   1  28   0.0022   0.0021   0.0047  -0.0003  -0.0003  -0.0022   0.19    3.2
2024/11/12 07:22:22.300   34.744630681  137.764306113    41.0074   1  28   0.0022   0.0021   0.0045  -0.0003  -0.0003  -0.0021   0.29    3.2
2024/11/12 07:22:22.400   34.744630672  137.764306106    41.0103   1  28   0.0022   0.0021   0.0045  -0.0003  -0.0003  -0.0022   0.39    3.2
2024/11/12 07:22:22.500   34.744630680  137.764306103    41.0071   1  28   0.0022   0.0021   0.0046  -0.0003  -0.0003  -0.0022   0.49    3.2
2024/11/12 07:22:22.600   34.744630709  137.764306115    41.0031   1  28   0.0022   0.0021   0.0046  -0.0003  -0.0003  -0.0022  -0.41    3.2
2024/11/12 07:22:22.700   34.744630694  137.764306102    41.0050   1  28   0.0022   0.0021   0.0046  -0.0003  -0.0003  -0.0022  -0.31    3.2
2024/11/12 07:22:22.800   34.744630690  137.764306119    41.0033   1  28   0.0022   0.0021   0.0046  -0.0003  -0.0003  -0.0022  -0.21    3.8
2024/11/12 07:22:22.900   34.744630690  137.764306122    41.0051   1  28   0.0022   0.0021   0.0046  -0.0003  -0.0003  -0.0022  -0.11    3.8
2024/11/12 07:22:23.000   34.744630682  137.764306109    41.0054   1  28   0.0022   0.0021   0.0046  -0.0003  -0.0003  -0.0022  -0.01    3.8
2024/11/12 07:22:23.200   34.744630691  137.764306116    41.0050   1  28   0.0022   0.0021   0.0047  -0.0003  -0.0003  -0.0022   0.19    3.8
2024/11/12 07:22:23.300   34.744630689  137.764306121    41.0043   1  28   0.0022   0.0021   0.0045  -0.0003  -0.0003  -0.0021   0.29    3.8
2024/11/12 07:22:23.400   34.744630693  137.764306117    41.0040   1  28   0.0022   0.0021   0.0045  -0.0003  -0.0003  -0.0022   0.39    3.8
2024/11/12 07:22:23.500   34.744630677  137.764306117    41.0076   1  28   0.0022   0.0021   0.0046  -0.0003  -0.0003  -0.0022   0.49    3.8
2024/11/12 07:22:23.600   34.744630671  137.764306094    41.0107   1  28   0.0022   0.0021   0.0046  -0.0003  -0.0003  -0.0022  -0.41    3.8
2024/11/12 07:22:23.700   34.744630678  137.764306090    41.0094   1  28   0.0022   0.0021   0.0046  -0.0003  -0.0003  -0.0022  -0.31    3.9
2024/11/12 07:22:23.800   34.744630674  137.764306090    41.0101   1  28   0.0022   0.0021   0.0046  -0.0003  -0.0003  -0.0022  -0.21    3.9
2024/11/12 07:22:23.900   34.744630677  137.764306096    41.0097   1  28   0.0022   0.0021   0.0046  -0.0003  -0.0003  -0.0022  -0.11    3.9
2024/11/12 07:22:24.000   34.744630676  137.764306093    41.0095   1  28   0.0022   0.0021   0.0046  -0.0003  -0.0003  -0.0022  -0.01    3.9
2024/11/12 07:22:24.200   34.744630677  137.764306096    41.0112   1  28   0.0022   0.0021   0.0047  -0.0003  -0.0003  -0.0022   0.19    3.9
2024/11/12 07:22:24.300   34.744630668  137.764306096    41.0145   1  28   0.0022   0.0021   0.0045  -0.0003  -0.0003  -0.0021   0.29    3.9
2024/11/12 07:22:24.400   34.744630668  137.764306092    41.0128   1  28   0.0022   0.0021   0.0045  -0.0003  -0.0003  -0.0022   0.39    3.9
2024/11/12 07:22:24.500   34.744630679  137.764306095    41.0120   1  28   0.0022   0.0021   0.0046  -0.0003  -0.0003  -0.0022   0.49    3.9
2024/11/12 07:22:24.600   34.744630673  137.764306097    41.0104   1  28   0.0022   0.0021   0.0046  -0.0003  -0.0003  -0.0022  -0.41    3.9
2024/11/12 07:22:24.700   34.744630664  137.764306095    41.0101   1  28   0.0022   0.0021   0.0045  -0.0003  -0.0003  -0.0022  -0.31    3.9
2024/11/12 07:22:24.800   34.744630676  137.764306094    41.0094   1  28   0.0022   0.0021   0.0045  -0.0003  -0.0003  -0.0022  -0.21    3.9
2024/11/12 07:22:24.900   34.744630670  137.764306101    41.0101   1  28   0.0022   0.0021   0.0045  -0.0003  -0.0003  -0.0022  -0.11    3.9
2024/11/12 07:22:25.000   34.744630668  137.764306095    41.0091   1  28   0.0022   0.0021   0.0045  -0.0003  -0.0004  -0.0022  -0.01    4.0
2024/11/12 07:22:25.100   34.744630671  137.764306094    41.0110   1  28   0.0022   0.0021   0.0045  -0.0003  -0.0004  -0.0022   0.09    4.0
2024/11/12 07:22:25.200   34.744630670  137.764306099    41.0121   1  28   0.0022   0.0021   0.0045  -0.0003  -0.0004  -0.0022   0.19    4.0
2024/11/12 07:22:25.300   34.744630656  137.764306087    41.0152   1  28   0.0022   0.0021   0.0045  -0.0003  -0.0004  -0.0022   0.29    4.0
2024/11/12 07:22:25.400   34.744630659  137.764306093    41.0132   1  28   0.0022   0.0021   0.0046  -0.0003  -0.0004  -0.0022   0.39    4.0
2024/11/12 07:22:25.500   34.744630652  137.764306106    41.0153   1  28   0.0022   0.0021   0.0046  -0.0002  -0.0004  -0.0022   0.49    4.0
2024/11/12 07:22:25.600   34.744630675  137.764306099    41.0105   1  28   0.0022   0.0021   0.0046  -0.0002  -0.0004  -0.0022  -0.41    4.0
2024/11/12 07:22:25.700   34.744630674  137.764306097    41.0104   1  28   0.0022   0.0021   0.0046  -0.0002  -0.0005  -0.0022  -0.31    4.0
2024/11/12 07:22:25.800   34.744630678  137.764306113    41.0077   1  28   0.0022   0.0021   0.0047  -0.0001  -0.0005  -0.0022  -0.21    4.0
2024/11/12 07:22:25.900   34.744630682  137.764306108    41.0073   1  28   0.0022   0.0021   0.0047   0.0002  -0.0006  -0.0023  -0.11    4.0
2024/11/12 07:22:26.000   34.744630676  137.764306108    41.0076   1  28   0.0022   0.0021   0.0047   0.0002  -0.0006  -0.0023  -0.01    4.0
2024/11/12 07:22:26.200   34.744630681  137.764306099    41.0096   1  28   0.0023   0.0021   0.0050   0.0004  -0.0008  -0.0024   0.19    4.0
2024/11/12 07:22:26.300   34.744630663  137.764306101    41.0112   1  28   0.0022   0.0021   0.0047   0.0004  -0.0008  -0.0023   0.29    4.0
2024/11/12 07:22:26.400   34.744630660  137.764306103    41.0119   1  28   0.0022   0.0021   0.0047   0.0004  -0.0008  -0.0023   0.39    4.0
2024/11/12 07:22:26.500   34.744630668  137.764306099    41.0114   1  28   0.0022   0.0021   0.0048   0.0004  -0.0008  -0.0023   0.49    4.0
2024/11/12 07:22:26.600   34.744630677  137.764306092    41.0113   1  28   0.0022   0.0021   0.0048   0.0004  -0.0008  -0.0023  -0.41    4.0
2024/11/12 07:22:26.700   34.744630681  137.764306093    41.0085   1  28   0.0022   0.0021   0.0048   0.0004  -0.0008  -0.0023  -0.31    4.0
2024/11/12 07:22:26.800   34.744630673  137.764306090    41.0113   1  28   0.0022   0.0021   0.0046   0.0002  -0.0006  -0.0022  -0.21    4.0
2024/11/12 07:22:26.900   34.744630679  137.764306111    41.0076   1  28   0.0022   0.0021   0.0047   0.0004  -0.0008  -0.0023  -0.11    4.0
2024/11/12 07:22:27.000   34.744630675  137.764306102    41.0102   1  28   0.0022   0.0021   0.0046   0.0002  -0.0006  -0.0022  -0.01    4.0
2024/11/12 07:22:27.100   34.744630671  137.764306102    41.0112   1  28   0.0022   0.0021   0.0047   0.0004  -0.0008  -0.0023   0.09    4.0
2024/11/12 07:22:27.200   34.744630664  137.764306107    41.0127   1  28   0.0022   0.0021   0.0047   0.0004  -0.0008  -0.0023   0.19    4.0
2024/11/12 07:22:27.300   34.744630663  137.764306096    41.0134   1  28   0.0022   0.0021   0.0048   0.0004  -0.0008  -0.0023   0.29    4.0
2024/11/12 07:22:27.400   34.744630665  137.764306101    41.0129   1  28   0.0022   0.0021   0.0048   0.0004  -0.0008  -0.0023   0.39    4.0
2024/11/12 07:22:27.500   34.744630660  137.764306103    41.0116   1  28   0.0022   0.0021   0.0048   0.0004  -0.0008  -0.0023   0.49    4.0
2024/11/12 07:22:27.600   34.744630691  137.764306106    41.0056   1  28   0.0022   0.0021   0.0048   0.0004  -0.0008  -0.0023  -0.41    4.0
2024/11/12 07:22:27.700   34.744630681  137.764306095    41.0064   1  28   0.0022   0.0021   0.0048   0.0004  -0.0008  -0.0023  -0.31    4.0
2024/11/12 07:22:27.800   34.744630670  137.764306104    41.0072   1  28   0.0022   0.0021   0.0047   0.0004  -0.0008  -0.0023  -0.21    4.1
2024/11/12 07:22:27.900   34.744630675  137.764306093    41.0085   1  28   0.0022   0.0021   0.0047   0.0004  -0.0008  -0.0023  -0.11    4.1
2024/11/12 07:22:28.000   34.744630675  137.764306104    41.0081   1  28   0.0022   0.0021   0.0047   0.0004  -0.0008  -0.0023  -0.01    4.1
2024/11/12 07:22:28.100   34.744630667  137.764306106    41.0105   1  28   0.0022   0.0021   0.0047   0.0004  -0.0008  -0.0023   0.09    4.1
2024/11/12 07:22:28.200   34.744630668  137.764306095    41.0094   1  28   0.0022   0.0021   0.0047   0.0004  -0.0008  -0.0023   0.19    4.1
2024/11/12 07:22:28.300   34.744630669  137.764306100    41.0095   1  28   0.0022   0.0021   0.0048   0.0004  -0.0008  -0.0023   0.29    4.1
2024/11/12 07:22:28.400   34.744630665  137.764306112    41.0086   1  28   0.0022   0.0021   0.0048   0.0004  -0.0008  -0.0023   0.39    4.1
2024/11/12 07:22:28.500   34.744630680  137.764306127    41.0076   1  28   0.0022   0.0021   0.0048   0.0004  -0.0008  -0.0023   0.49    4.1
2024/11/12 07:22:28.600   34.744630672  137.764306111    41.0091   1  28   0.0022   0.0021   0.0048   0.0004  -0.0008  -0.0023  -0.41    4.1
2024/11/12 07:22:28.700   34.744630668  137.764306109    41.0091   1  28   0.0022   0.0021   0.0048   0.0004  -0.0008  -0.0023  -0.31    4.1
2024/11/12 07:22:28.800   34.744630668  137.764306112    41.0109   1  28   0.0022   0.0021   0.0048   0.0004  -0.0008  -0.0024  -0.21    4.1
2024/11/12 07:22:28.900   34.744630668  137.764306112    41.0115   1  28   0.0023   0.0021   0.0049   0.0004  -0.0008  -0.0024  -0.11    4.1
2024/11/12 07:22:29.000   34.744630667  137.764306107    41.0125   1  28   0.0023   0.0021   0.0049   0.0004  -0.0008  -0.0024  -0.01    4.1
2024/11/12 07:22:29.200   34.744630677  137.764306115    41.0112   1  28   0.0023   0.0021   0.0050   0.0004  -0.0008  -0.0024   0.19    4.1
2024/11/12 07:22:29.300   34.744630667  137.764306098    41.0135   1  28   0.0022   0.0021   0.0047   0.0004  -0.0008  -0.0023   0.29    4.1
2024/11/12 07:22:29.400   34.744630663  137.764306114    41.0131   1  28   0.0022   0.0021   0.0048   0.0004  -0.0008  -0.0023   0.39    4.1
2024/11/12 07:22:29.500   34.744630670  137.764306121    41.0116   1  28   0.0022   0.0021   0.0048   0.0004  -0.0008  -0.0023   0.49    4.1
2024/11/12 07:22:29.600   34.744630670  137.764306105    41.0106   1  28   0.0022   0.0021   0.0048   0.0004  -0.0008  -0.0023  -0.41    4.1
2024/11/12 07:22:29.700   34.744630672  137.764306095    41.0089   1  28   0.0022   0.0021   0.0048   0.0004  -0.0008  -0.0023  -0.31    4.1
2024/11/12 07:22:29.800   34.744630681  137.764306103    41.0091   1  28   0.0022   0.0021   0.0047   0.0004  -0.0008  -0.0023  -0.21    4.1
2024/11/12 07:22:29.900   34.744630668  137.764306093    41.0099   1  28   0.0022   0.0021   0.0047   0.0004  -0.0008  -0.0023  -0.11    4.1
2024/11/12 07:22:30.000   34.744630675  137.764306103    41.0094   1  28   0.0022   0.0021   0.0047   0.0004  -0.0008  -0.0023  -0.01    4.1
2024/11/12 07:22:30.100   34.744630669  137.764306099    41.0106   1  28   0.0022   0.0021   0.0047   0.0004  -0.0008  -0.0023   0.09    4.1
2024/11/12 07:22:30.200   34.744630663  137.764306107    41.0138   1  28   0.0022   0.0021   0.0047   0.0004  -0.0008  -0.0023   0.19    4.1
2024/11/12 07:22:30.300   34.744630673  137.764306106    41.0124   1  28   0.0022   0.0021   0.0048   0.0004  -0.0008  -0.0023   0.29    4.1
2024/11/12 07:22:30.400   34.744630661  137.764306097    41.0139   1  28   0.0022   0.0021   0.0048   0.0004  -0.0008  -0.0023   0.39    4.1
2024/11/12 07:22:30.500   34.744630672  137.764306113    41.0115   1  28   0.0022   0.0021   0.0048   0.0004  -0.0008  -0.0023   0.49    4.1
2024/11/12 07:22:30.600   34.744630672  137.764306108    41.0100   1  28   0.0022   0.0021   0.0048   0.0004  -0.0008  -0.0023  -0.41    4.1
2024/11/12 07:22:30.700   34.744630677  137.764306107    41.0090   1  28   0.0022   0.0021   0.0048   0.0004  -0.0008  -0.0023  -0.31    4.1
2024/11/12 07:22:30.800   34.744630672  137.764306097    41.0095   1  28   0.0022   0.0021   0.0047   0.0004  -0.0008  -0.0023  -0.21    4.1
2024/11/12 07:22:30.900   34.744630672  137.764306116    41.0089   1  28   0.0022   0.0021   0.0047   0.0004  -0.0008  -0.0023  -0.11    4.1
2024/11/12 07:22:31.000   34.744630681  137.764306110    41.0081   1  28   0.0022   0.0021   0.0047   0.0004  -0.0008  -0.0023  -0.01    4.1
2024/11/12 07:22:31.100   34.744630665  137.764306095    41.0109   1  28   0.0022   0.0021   0.0047   0.0004  -0.0008  -0.0023   0.09    4.1
2024/11/12 07:22:31.200   34.744630682  137.764306124    41.0102   1  28   0.0022   0.0021   0.0047   0.0004  -0.0008  -0.0023   0.19    4.1
2024/11/12 07:22:31.300   34.744630671  137.764306114    41.0116   1  28   0.0022   0.0021   0.0048   0.0004  -0.0008  -0.0023   0.29    4.1
2024/11/12 07:22:31.400   34.744630681  137.764306118    41.0100   1  28   0.0022   0.0021   0.0048   0.0004  -0.0008  -0.0023   0.39    4.1
2024/11/12 07:22:31.500   34.744630678  137.764306110    41.0108   1  28   0.0022   0.0021   0.0048   0.0004  -0.0008  -0.0023   0.49    4.1
2024/11/12 07:22:31.600   34.744630668  137.764306116    41.0084   1  28   0.0022   0.0021   0.0048   0.0004  -0.0008  -0.0023  -0.41    4.1
2024/11/12 07:22:31.700   34.744630667  137.764306101    41.0088   1  28   0.0022   0.0021   0.0048   0.0004  -0.0008  -0.0023  -0.31    4.1
2024/11/12 07:22:31.800   34.744630677  137.764306099    41.0074   1  28   0.0022   0.0021   0.0047   0.0004  -0.0008  -0.0023  -0.21    4.1
2024/11/12 07:22:31.900   34.744630660  137.764306098    41.0104   1  28   0.0022   0.0021   0.0047   0.0004  -0.0008  -0.0023  -0.11    4.1
2024/11/12 07:22:32.000   34.744630658  137.764306107    41.0119   1  28   0.0022   0.0021   0.0047   0.0004  -0.0008  -0.0023  -0.01    4.1
2024/11/12 07:22:32.100   34.744630663  137.764306107    41.0104   1  28   0.0022   0.0021   0.0047   0.0004  -0.0008  -0.0023   0.09    4.1
2024/11/12 07:22:32.200   34.744630657  137.764306108    41.0125   1  28   0.0022   0.0021   0.0047   0.0004  -0.0008  -0.0023   0.19    4.1
2024/11/12 07:22:32.300   34.744630657  137.764306109    41.0121   1  28   0.0022   0.0021   0.0048   0.0004  -0.0008  -0.0023   0.29    4.1
2024/11/12 07:22:32.400   34.744630662  137.764306119    41.0111   1  28   0.0022   0.0021   0.0048   0.0004  -0.0008  -0.0023   0.39    4.1
2024/11/12 07:22:32.500   34.744630660  137.764306111    41.0123   1  28   0.0022   0.0021   0.0048   0.0004  -0.0008  -0.0023   0.49    4.1
2024/11/12 07:22:32.600   34.744630668  137.764306109    41.0083   1  28   0.0022   0.0021   0.0048   0.0004  -0.0008  -0.0023  -0.41    4.1
2024/11/12 07:22:32.700   34.744630670  137.764306103    41.0089   1  28   0.0022   0.0021   0.0048   0.0004  -0.0008  -0.0023  -0.31    4.1
2024/11/12 07:22:32.800   34.744630670  137.764306123    41.0084   1  28   0.0022   0.0021   0.0047   0.0004  -0.0008  -0.0023  -0.21    4.1
2024/11/12 07:22:32.900   34.744630661  137.764306104    41.0094   1  28   0.0022   0.0021   0.0047   0.0004  -0.0008  -0.0023  -0.11    4.1
2024/11/12 07:22:33.000   34.744630662  137.764306104    41.0096   1  28   0.0022   0.0021   0.0047   0.0004  -0.0008  -0.0023  -0.01    4.1
2024/11/12 07:22:33.100   34.744630671  137.764306112    41.0109   1  28   0.0022   0.0021   0.0047   0.0004  -0.0008  -0.0023   0.09    4.1
2024/11/12 07:22:33.200   34.744630663  137.764306110    41.0098   1  28   0.0022   0.0021   0.0047   0.0004  -0.0008  -0.0023   0.19    4.1
2024/11/12 07:22:33.300   34.744630669  137.764306105    41.0110   1  28   0.0022   0.0021   0.0048   0.0004  -0.0008  -0.0023   0.29    4.1
2024/11/12 07:22:33.400   34.744630656  137.764306114    41.0114   1  28   0.0022   0.0021   0.0048   0.0004  -0.0008  -0.0023   0.39    4.1
2024/11/12 07:22:33.500   34.744630673  137.764306119    41.0106   1  28   0.0022   0.0021   0.0048   0.0004  -0.0008  -0.0023   0.49    4.1
2024/11/12 07:22:33.600   34.744630672  137.764306103    41.0108   1  28   0.0022   0.0021   0.0048   0.0004  -0.0008  -0.0023  -0.41    4.1
2024/11/12 07:22:33.700   34.744630667  137.764306113    41.0123   1  28   0.0022   0.0021   0.0048   0.0004  -0.0008  -0.0023  -0.31    4.1
2024/11/12 07:22:33.800   34.744630671  137.764306120    41.0108   1  28   0.0022   0.0021   0.0047   0.0004  -0.0008  -0.0023  -0.21    4.1
2024/11/12 07:22:33.900   34.744630664  137.764306103    41.0132   1  28   0.0022   0.0021   0.0047   0.0004  -0.0008  -0.0023  -0.11    4.1
2024/11/12 07:22:34.000   34.744630663  137.764306104    41.0146   1  28   0.0022   0.0021   0.0047   0.0004  -0.0008  -0.0023  -0.01    4.1
2024/11/12 07:22:34.100   34.744630664  137.764306117    41.0129   1  28   0.0022   0.0021   0.0047   0.0004  -0.0008  -0.0023   0.09    4.1
2024/11/12 07:22:34.200   34.744630668  137.764306129    41.0120   1  28   0.0022   0.0021   0.0047   0.0004  -0.0008  -0.0023   0.19    4.2
2024/11/12 07:22:34.300   34.744630659  137.764306112    41.0137   1  28   0.0022   0.0021   0.0048   0.0004  -0.0008  -0.0023   0.29    4.1
2024/11/12 07:22:34.400   34.744630658  137.764306115    41.0143   1  28   0.0022   0.0021   0.0048   0.0004  -0.0008  -0.0023   0.39    4.2
2024/11/12 07:22:34.500   34.744630657  137.764306115    41.0124   1  28   0.0022   0.0021   0.0048   0.0004  -0.0008  -0.0023   0.49    4.2
2024/11/12 07:22:34.600   34.744630675  137.764306106    41.0084   1  28   0.0022   0.0021   0.0048   0.0004  -0.0008  -0.0023  -0.41    4.2
2024/11/12 07:22:34.700   34.744630676  137.764306104    41.0092   1  28   0.0022   0.0021   0.0048   0.0004  -0.0008  -0.0023  -0.31    4.2
2024/11/12 07:22:34.800   34.744630672  137.764306110    41.0077   1  28   0.0022   0.0021   0.0047   0.0004  -0.0008  -0.0023  -0.21    4.2
2024/11/12 07:22:34.900   34.744630671  137.764306111    41.0096   1  28   0.0022   0.0021   0.0047   0.0004  -0.0008  -0.0023  -0.11    4.2
2024/11/12 07:22:35.000   34.744630666  137.764306097    41.0108   1  28   0.0022   0.0021   0.0047   0.0004  -0.0008  -0.0023  -0.01    4.2
2024/11/12 07:22:35.100   34.744630677  137.764306113    41.0081   1  28   0.0022   0.0021   0.0047   0.0004  -0.0008  -0.0023   0.09    4.2
2024/11/12 07:22:35.200   34.744630667  137.764306103    41.0098   1  28   0.0022   0.0021   0.0047   0.0004  -0.0008  -0.0023   0.19    4.2
2024/11/12 07:22:35.300   34.744630671  137.764306097    41.0116   1  28   0.0022   0.0021   0.0048   0.0004  -0.0008  -0.0023   0.29    4.2
2024/11/12 07:22:35.400   34.744630677  137.764306115    41.0101   1  28   0.0022   0.0021   0.0048   0.0004  -0.0008  -0.0023   0.39    4.2
2024/11/12 07:22:35.500   34.744630665  137.764306116    41.0109   1  28   0.0022   0.0021   0.0048   0.0004  -0.0008  -0.0023   0.49    4.2
2024/11/12 07:22:35.600   34.744630666  137.764306095    41.0093   1  28   0.0022   0.0021   0.0048   0.0004  -0.0008  -0.0023  -0.41    4.2
2024/11/12 07:22:35.700   34.744630670  137.764306096    41.0080   1  28   0.0022   0.0021   0.0048   0.0004  -0.0008  -0.0023  -0.31    4.2
2024/11/12 07:22:35.800   34.744630675  137.764306113    41.0074   1  28   0.0022   0.0021   0.0047   0.0004  -0.0008  -0.0023  -0.21    4.2
2024/11/12 07:22:35.900   34.744630671  137.764306103    41.0096   1  28   0.0022   0.0021   0.0047   0.0004  -0.0008  -0.0023  -0.11    4.2
2024/11/12 07:22:36.000   34.744630668  137.764306097    41.0096   1  28   0.0022   0.0021   0.0047   0.0004  -0.0008  -0.0023  -0.01    4.2
2024/11/12 07:22:36.100   34.744630671  137.764306115    41.0094   1  28   0.0022   0.0021   0.0047   0.0004  -0.0008  -0.0023   0.09    4.2
2024/11/12 07:22:36.200   34.744630655  137.764306104    41.0124   1  28   0.0022   0.0021   0.0047   0.0004  -0.0008  -0.0023   0.19    4.2
2024/11/12 07:22:36.300   34.744630657  137.764306104    41.0124   1  28   0.0022   0.0021   0.0048   0.0004  -0.0008  -0.0023   0.29    4.2
2024/11/12 07:22:36.400   34.744630660  137.764306117    41.0129   1  28   0.0022   0.0021   0.0048   0.0004  -0.0008  -0.0023   0.39    4.2
2024/11/12 07:22:36.500   34.744630654  137.764306112    41.0129   1  28   0.0022   0.0021   0.0048   0.0004  -0.0008  -0.0023   0.49    4.2
2024/11/12 07:22:36.600   34.744630661  137.764306110    41.0094   1  28   0.0022   0.0021   0.0048   0.0004  -0.0008  -0.0023  -0.41    4.2
2024/11/12 07:22:36.700   34.744630661  137.764306111    41.0089   1  28   0.0022   0.0021   0.0048   0.0004  -0.0008  -0.0023  -0.31    4.2
2024/11/12 07:22:36.800   34.744630669  137.764306105    41.0093   1  28   0.0022   0.0021   0.0047   0.0004  -0.0008  -0.0023  -0.21    4.2
2024/11/12 07:22:36.900   34.744630668  137.764306111    41.0094   1  28   0.0022   0.0021   0.0047   0.0004  -0.0008  -0.0023  -0.11    4.2
2024/11/12 07:22:37.000   34.744630669  137.764306113    41.0098   1  28   0.0022   0.0021   0.0047   0.0004  -0.0008  -0.0023  -0.01    4.2
2024/11/12 07:22:37.100   34.744630662  137.764306107    41.0102   1  28   0.0022   0.0021   0.0047   0.0004  -0.0008  -0.0023   0.09    4.2
2024/11/12 07:22:37.200   34.744630663  137.764306111    41.0103   1  28   0.0022   0.0021   0.0047   0.0004  -0.0008  -0.0023   0.19    4.2
2024/11/12 07:22:37.300   34.744630675  137.764306112    41.0092   1  28   0.0022   0.0021   0.0048   0.0004  -0.0008  -0.0023   0.29    4.2
2024/11/12 07:22:37.400   34.744630674  137.764306116    41.0096   1  28   0.0022   0.0021   0.0048   0.0004  -0.0008  -0.0023   0.39    4.2
2024/11/12 07:22:37.500   34.744630665  137.764306109    41.0124   1  28   0.0022   0.0021   0.0048   0.0004  -0.0008  -0.0023   0.49    4.2
2024/11/12 07:22:37.600   34.744630670  137.764306117    41.0099   1  28   0.0022   0.0021   0.0048   0.0004  -0.0008  -0.0023  -0.41    4.2
2024/11/12 07:22:37.700   34.744630676  137.764306106    41.0104   1  28   0.0022   0.0021   0.0048   0.0004  -0.0008  -0.0023  -0.31    4.2
2024/11/12 07:22:37.800   34.744630665  137.764306101    41.0118   1  28   0.0022   0.0021   0.0047   0.0004  -0.0008  -0.0023  -0.21    4.2
2024/11/12 07:22:37.900   34.744630666  137.764306100    41.0102   1  28   0.0022   0.0021   0.0047   0.0004  -0.0008  -0.0023  -0.11    4.2
2024/11/12 07:22:38.000   34.744630667  137.764306105    41.0127   1  28   0.0022   0.0021   0.0047   0.0004  -0.0008  -0.0023  -0.01    4.2
2024/11/12 07:22:38.100   34.744630668  137.764306104    41.0134   1  28   0.0022   0.0021   0.0047   0.0004  -0.0008  -0.0023   0.09    4.2
2024/11/12 07:22:38.200   34.744630664  137.764306105    41.0130   1  28   0.0022   0.0021   0.0047   0.0004  -0.0008  -0.0023   0.19    4.2
2024/11/12 07:22:38.300   34.744630651  137.764306095    41.0147   1  28   0.0022   0.0021   0.0048   0.0004  -0.0008  -0.0023   0.29    4.2
2024/11/12 07:22:38.400   34.744630661  137.764306114    41.0149   1  28   0.0022   0.0021   0.0048   0.0004  -0.0008  -0.0023   0.39    4.2
2024/11/12 07:22:38.500   34.744630670  137.764306120    41.0131   1  28   0.0022   0.0021   0.0048   0.0004  -0.0008  -0.0023   0.49    4.2
2024/11/12 07:22:38.600   34.744630676  137.764306115    41.0084   1  28   0.0022   0.0021   0.0048   0.0004  -0.0008  -0.0023  -0.41    4.2
2024/11/12 07:22:38.700   34.744630677  137.764306113    41.0077   1  28   0.0022   0.0021   0.0048   0.0004  -0.0008  -0.0023  -0.31    4.2
2024/11/12 07:22:38.800   34.744630679  137.764306103    41.0078   1  28   0.0022   0.0021   0.0047   0.0004  -0.0008  -0.0023  -0.21    4.2
2024/11/12 07:22:38.900   34.744630669  137.764306115    41.0093   1  28   0.0022   0.0021   0.0047   0.0004  -0.0008  -0.0023  -0.11    4.2
2024/11/12 07:22:39.000   34.744630664  137.764306105    41.0076   1  28   0.0022   0.0021   0.0047   0.0004  -0.0008  -0.0023  -0.01    4.2
2024/11/12 07:22:39.100   34.744630666  137.764306105    41.0098   1  28   0.0022   0.0021   0.0047   0.0004  -0.0008  -0.0023   0.09    4.2
2024/11/12 07:22:39.200   34.744630665  137.764306105    41.0083   1  28   0.0022   0.0021   0.0047   0.0004  -0.0008  -0.0023   0.19    4.2
2024/11/12 07:22:39.300   34.744630679  137.764306124    41.0061   1  28   0.0022   0.0021   0.0048   0.0004  -0.0008  -0.0023   0.29    4.2
2024/11/12 07:22:39.400   34.744630666  137.764306104    41.0103   1  28   0.0022   0.0021   0.0048   0.0004  -0.0008  -0.0023   0.39    4.2
2024/11/12 07:22:39.500   34.744630665  137.764306101    41.0096   1  28   0.0022   0.0021   0.0048   0.0004  -0.0008  -0.0023   0.49    4.2
2024/11/12 07:22:39.600   34.744630672  137.764306120    41.0080   1  28   0.0022   0.0021   0.0048   0.0004  -0.0008  -0.0023  -0.41    4.2
2024/11/12 07:22:39.700   34.744630663  137.764306113    41.0101   1  28   0.0022   0.0021   0.0048   0.0004  -0.0008  -0.0023  -0.31    4.2
2024/11/12 07:22:39.800   34.744630672  137.764306125    41.0090   1  28   0.0022   0.0021   0.0047   0.0004  -0.0008  -0.0023  -0.21    4.2
2024/11/12 07:22:39.900   34.744630674  137.764306119    41.0084   1  28   0.0022   0.0021   0.0047   0.0004  -0.0008  -0.0023  -0.11    4.2
2024/11/12 07:22:40.000   34.744630660  137.764306118    41.0107   1  28   0.0022   0.0021   0.0047   0.0004  -0.0008  -0.0023  -0.01    4.2
2024/11/12 07:22:40.100   34.744630666  137.764306109    41.0111   1  28   0.0022   0.0021   0.0047   0.0004  -0.0008  -0.0023   0.09    4.2
2024/11/12 07:22:40.200   34.744630677  137.764306128    41.0096   1  28   0.0022   0.0021   0.0047   0.0004  -0.0008  -0.0023   0.19    4.2
2024/11/12 07:22:40.300   34.744630668  137.764306117    41.0093   1  28   0.0022   0.0021   0.0048   0.0004  -0.0008  -0.0023   0.29    4.2
2024/11/12 07:22:40.400   34.744630671  137.764306122    41.0071   1  28   0.0022   0.0021   0.0048   0.0004  -0.0008  -0.0023   0.39    4.2
2024/11/12 07:22:40.500   34.744630674  137.764306125    41.0091   1  28   0.0022   0.0021   0.0048   0.0004  -0.0008  -0.0023   0.49    4.2
2024/11/12 07:22:40.600   34.744630661  137.764306106    41.0102   1  28   0.0022   0.0021   0.0048   0.0004  -0.0008  -0.0023  -0.41    4.2
2024/11/12 07:22:40.700   34.744630664  137.764306100    41.0100   1  28   0.0022   0.0021   0.0048   0.0004  -0.0008  -0.0023  -0.31    4.2
2024/11/12 07:22:40.800   34.744630665  137.764306109    41.0112   1  28   0.0022   0.0021   0.0048   0.0004  -0.0008  -0.0023  -0.21    4.2
2024/11/12 07:22:40.900   34.744630665  137.764306106    41.0127   1  28   0.0022   0.0021   0.0047   0.0004  -0.0008  -0.0023  -0.11    4.2
2024/11/12 07:22:41.000   34.744630661  137.764306108    41.0102   1  28   0.0022   0.0021   0.0047   0.0004  -0.0008  -0.0023  -0.01    4.2
2024/11/12 07:22:41.100   34.744630670  137.764306106    41.0098   1  28   0.0022   0.0021   0.0047   0.0004  -0.0008  -0.0023   0.09    4.2
2024/11/12 07:22:41.200   34.744630664  137.764306120    41.0106   1  28   0.0022   0.0021   0.0048   0.0004  -0.0008  -0.0023   0.19    4.2
2024/11/12 07:22:41.300   34.744630665  137.764306112    41.0118   1  28   0.0022   0.0021   0.0048   0.0004  -0.0008  -0.0023   0.29    4.2
2024/11/12 07:22:41.400   34.744630665  137.764306115    41.0130   1  28   0.0022   0.0021   0.0048   0.0004  -0.0008  -0.0023   0.39    4.2
2024/11/12 07:22:41.500   34.744630675  137.764306109    41.0111   1  28   0.0022   0.0021   0.0048   0.0004  -0.0008  -0.0023   0.49    4.2
2024/11/12 07:22:41.600   34.744630649  137.764306105    41.0100   1  28   0.0022   0.0021   0.0048   0.0004  -0.0008  -0.0024  -0.41    4.2
2024/11/12 07:22:41.700   34.744630671  137.764306113    41.0085   1  28   0.0022   0.0021   0.0048   0.0004  -0.0008  -0.0024  -0.31    4.2
2024/11/12 07:22:41.800   34.744630672  137.764306119    41.0075   1  28   0.0022   0.0021   0.0048   0.0004  -0.0008  -0.0024  -0.21    4.2
2024/11/12 07:22:41.900   34.744630657  137.764306105    41.0112   1  28   0.0022   0.0021   0.0048   0.0004  -0.0008  -0.0024  -0.11    4.2
2024/11/12 07:22:42.000   34.744630666  137.764306121    41.0098   1  28   0.0023   0.0021   0.0049   0.0004  -0.0008  -0.0024  -0.01    4.2
2024/11/12 07:22:42.100   34.744630664  137.764306126    41.0101   1  28   0.0023   0.0021   0.0049   0.0004  -0.0008  -0.0024   0.09    4.2
2024/11/12 07:22:42.400   34.744630666  137.764306129    41.0103   1  28   0.0023   0.0022   0.0050   0.0004  -0.0009  -0.0025   0.39    4.2
2024/11/12 07:22:42.500   34.744630668  137.764306124    41.0105   1  28   0.0022   0.0021   0.0047   0.0004  -0.0008  -0.0023   0.49    4.2
2024/11/12 07:22:42.600   34.744630665  137.764306111    41.0110   1  28   0.0022   0.0021   0.0048   0.0004  -0.0008  -0.0024  -0.41    4.2
2024/11/12 07:22:42.700   34.744630672  137.764306116    41.0092   1  28   0.0022   0.0021   0.0048   0.0004  -0.0008  -0.0024  -0.31    4.2
2024/11/12 07:22:42.800   34.744630673  137.764306120    41.0086   1  28   0.0023   0.0021   0.0049   0.0004  -0.0008  -0.0024  -0.21    4.2
2024/11/12 07:22:42.900   34.744630676  137.764306115    41.0091   1  28   0.0023   0.0021   0.0049   0.0004  -0.0008  -0.0024  -0.11    4.2
2024/11/12 07:22:43.000   34.744630662  137.764306115    41.0112   1  28   0.0023   0.0021   0.0049   0.0004  -0.0008  -0.0024  -0.01    4.2
2024/11/12 07:22:43.200   34.744630665  137.764306099    41.0129   1  28   0.0023   0.0021   0.0050   0.0004  -0.0009  -0.0025   0.19    4.2
2024/11/12 07:22:43.300   34.744630659  137.764306111    41.0108   1  28   0.0022   0.0021   0.0048   0.0004  -0.0008  -0.0023   0.29    4.2
2024/11/12 07:22:43.400   34.744630666  137.764306110    41.0111   1  28   0.0022   0.0021   0.0048   0.0004  -0.0008  -0.0024   0.39    4.2
2024/11/12 07:22:43.500   34.744630671  137.764306090    41.0116   1  28   0.0023   0.0021   0.0048   0.0004  -0.0008  -0.0024   0.49    4.2
2024/11/12 07:22:43.600   34.744630674  137.764306128    41.0053   1  29   0.0022   0.0021   0.0048   0.0004  -0.0008  -0.0024  -0.41    4.3
2024/11/12 07:22:43.700   34.744630674  137.764306111    41.0055   1  29   0.0022   0.0021   0.0048   0.0004  -0.0009  -0.0024  -0.31    4.3
2024/11/12 07:22:43.800   34.744630663  137.764306106    41.0085   1  29   0.0022   0.0021   0.0048   0.0005  -0.0009  -0.0024  -0.21    4.2
2024/11/12 07:22:43.900   34.744630664  137.764306127    41.0070   1  29   0.0022   0.0021   0.0048   0.0005  -0.0009  -0.0024  -0.11    4.3
2024/11/12 07:22:44.000   34.744630662  137.764306106    41.0084   1  29   0.0023   0.0021   0.0048   0.0005  -0.0010  -0.0024  -0.01    4.3
2024/11/12 07:22:44.100   34.744630672  137.764306121    41.0082   1  29   0.0023   0.0021   0.0048   0.0006  -0.0010  -0.0024   0.09    4.3
2024/11/12 07:22:44.200   34.744630668  137.764306119    41.0087   1  29   0.0022   0.0021   0.0047   0.0004  -0.0008  -0.0023   0.19    4.3
2024/11/12 07:22:44.300   34.744630661  137.764306115    41.0094   1  29   0.0022   0.0021   0.0047   0.0004  -0.0008  -0.0023   0.29    4.3
2024/11/12 07:22:44.400   34.744630677  137.764306118    41.0086   1  29   0.0022   0.0021   0.0047   0.0004  -0.0008  -0.0024   0.39    4.2
2024/11/12 07:22:44.500   34.744630659  137.764306108    41.0093   1  29   0.0022   0.0021   0.0047   0.0004  -0.0008  -0.0024   0.49    4.3
2024/11/12 07:22:44.600   34.744630657  137.764306112    41.0096   1  29   0.0022   0.0021   0.0047   0.0004  -0.0008  -0.0024  -0.41    4.3
2024/11/12 07:22:44.700   34.744630652  137.764306095    41.0116   1  29   0.0022   0.0021   0.0047   0.0004  -0.0008  -0.0023  -0.31    4.3
2024/11/12 07:22:44.800   34.744630656  137.764306088    41.0111   1  29   0.0022   0.0021   0.0047   0.0004  -0.0008  -0.0023  -0.21    4.3
2024/11/12 07:22:44.900   34.744630664  137.764306108    41.0112   1  29   0.0022   0.0021   0.0047   0.0004  -0.0008  -0.0023  -0.11    4.3
2024/11/12 07:22:45.000   34.744630656  137.764306111    41.0101   1  29   0.0022   0.0021   0.0047   0.0004  -0.0008  -0.0023  -0.01    4.3
2024/11/12 07:22:45.100   34.744630657  137.764306092    41.0113   1  29   0.0022   0.0021   0.0047   0.0004  -0.0008  -0.0023   0.09    4.3
2024/11/12 07:22:45.200   34.744630654  137.764306086    41.0125   1  29   0.0022   0.0021   0.0047   0.0004  -0.0008  -0.0023   0.19    4.3
2024/11/12 07:22:45.300   34.744630656  137.764306112    41.0117   1  29   0.0022   0.0021   0.0047   0.0004  -0.0008  -0.0023   0.29    4.3
2024/11/12 07:22:45.400   34.744630659  137.764306101    41.0119   1  29   0.0022   0.0021   0.0047   0.0004  -0.0008  -0.0024   0.39    4.3
2024/11/12 07:22:45.500   34.744630659  137.764306105    41.0119   1  29   0.0022   0.0021   0.0047   0.0004  -0.0008  -0.0024   0.49    4.3
2024/11/12 07:22:45.600   34.744630662  137.764306112    41.0083   1  29   0.0022   0.0021   0.0047   0.0004  -0.0008  -0.0024  -0.41    4.3
2024/11/12 07:22:45.700   34.744630664  137.764306134    41.0087   1  29   0.0022   0.0021   0.0048   0.0004  -0.0008  -0.0024  -0.31    4.3
2024/11/12 07:22:45.800   34.744630654  137.764306106    41.0095   1  29   0.0022   0.0021   0.0048   0.0004  -0.0008  -0.0024  -0.21    4.3
2024/11/12 07:22:45.900   34.744630661  137.764306117    41.0101   1  29   0.0022   0.0021   0.0048   0.0004  -0.0008  -0.0024  -0.11    4.3
2024/11/12 07:22:46.000   34.744630663  137.764306127    41.0087   1  29   0.0022   0.0021   0.0048   0.0004  -0.0008  -0.0024  -0.01    4.3
2024/11/12 07:22:46.200   34.744630664  137.764306117    41.0101   1  29   0.0023   0.0021   0.0049   0.0004  -0.0008  -0.0025   0.19    4.3
2024/11/12 07:22:46.300   34.744630652  137.764306120    41.0119   1  29   0.0022   0.0021   0.0047   0.0004  -0.0008  -0.0023   0.29    4.3
2024/11/12 07:22:46.400   34.744630657  137.764306105    41.0120   1  29   0.0022   0.0021   0.0047   0.0004  -0.0008  -0.0023   0.39    4.3
2024/11/12 07:22:46.500   34.744630654  137.764306118    41.0121   1  29   0.0022   0.0021   0.0048   0.0004  -0.0008  -0.0024   0.49    4.3
2024/11/12 07:22:46.600   34.744630673  137.764306106    41.0068   1  29   0.0022   0.0021   0.0047   0.0004  -0.0008  -0.0024  -0.41    4.3
2024/11/12 07:22:46.700   34.744630660  137.764306105    41.0087   1  29   0.0022   0.0021   0.0047   0.0004  -0.0008  -0.0024  -0.31    4.3
2024/11/12 07:22:46.800   34.744630651  137.764306089    41.0120   1  29   0.0022   0.0021   0.0047   0.0004  -0.0008  -0.0023  -0.21    4.3
2024/11/12 07:22:46.900   34.744630673  137.764306105    41.0090   1  29   0.0022   0.0021   0.0047   0.0004  -0.0008  -0.0023  -0.11    4.3
2024/11/12 07:22:47.000   34.744630662  137.764306116    41.0102   1  29   0.0022   0.0021   0.0047   0.0004  -0.0008  -0.0023  -0.01    4.3
2024/11/12 07:22:47.100   34.744630663  137.764306101    41.0095   1  29   0.0022   0.0021   0.0047   0.0004  -0.0008  -0.0023   0.09    4.3
2024/11/12 07:22:47.200   34.744630663  137.764306104    41.0107   1  29   0.0022   0.0021   0.0047   0.0004  -0.0008  -0.0023   0.19    4.3
2024/11/12 07:22:47.300   34.744630658  137.764306108    41.0114   1  29   0.0022   0.0021   0.0047   0.0004  -0.0008  -0.0023   0.29    4.3
2024/11/12 07:22:47.400   34.744630649  137.764306100    41.0139   1  29   0.0022   0.0021   0.0047   0.0004  -0.0008  -0.0024   0.39    4.3
2024/11/12 07:22:47.500   34.744630664  137.764306112    41.0106   1  29   0.0022   0.0021   0.0047   0.0004  -0.0008  -0.0024   0.49    4.3
2024/11/12 07:22:47.600   34.744630665  137.764306124    41.0073   1  29   0.0022   0.0021   0.0047   0.0004  -0.0008  -0.0024  -0.41    4.3
2024/11/12 07:22:47.700   34.744630659  137.764306115    41.0086   1  29   0.0022   0.0021   0.0047   0.0004  -0.0008  -0.0024  -0.31    4.3
2024/11/12 07:22:47.800   34.744630660  137.764306119    41.0082   1  29   0.0022   0.0021   0.0047   0.0004  -0.0008  -0.0024  -0.21    4.3
2024/11/12 07:22:47.900   34.744630667  137.764306124    41.0085   1  29   0.0022   0.0021   0.0048   0.0004  -0.0008  -0.0024  -0.11    4.3
2024/11/12 07:22:48.000   34.744630658  137.764306109    41.0104   1  29   0.0022   0.0021   0.0048   0.0004  -0.0008  -0.0024  -0.01    4.3
2024/11/12 07:22:48.100   34.744630654  137.764306119    41.0116   1  29   0.0022   0.0021   0.0048   0.0004  -0.0008  -0.0024   0.09    4.3
2024/11/12 07:22:48.300   34.744630662  137.764306133    41.0106   1  29   0.0023   0.0021   0.0049   0.0004  -0.0008  -0.0025   0.29    4.3
2024/11/12 07:22:48.400   34.744630647  137.764306115    41.0137   1  29   0.0022   0.0021   0.0047   0.0004  -0.0008  -0.0023   0.39    4.3
2024/11/12 07:22:48.500   34.744630652  137.764306125    41.0115   1  29   0.0022   0.0021   0.0047   0.0004  -0.0008  -0.0024   0.49    4.3
2024/11/12 07:22:48.600   34.744630667  137.764306114    41.0073   1  29   0.0022   0.0021   0.0047   0.0004  -0.0008  -0.0024  -0.41    4.3
2024/11/12 07:22:48.700   34.744630657  137.764306103    41.0097   1  29   0.0022   0.0021   0.0047   0.0004  -0.0008  -0.0024  -0.31    4.3
2024/11/12 07:22:48.800   34.744630665  137.764306120    41.0064   1  29   0.0022   0.0021   0.0047   0.0004  -0.0008  -0.0023  -0.21    4.3
2024/11/12 07:22:48.900   34.744630654  137.764306093    41.0094   1  29   0.0022   0.0021   0.0047   0.0004  -0.0008  -0.0023  -0.11    4.3
2024/11/12 07:22:49.000   34.744630667  137.764306108    41.0092   1  29   0.0022   0.0021   0.0047   0.0004  -0.0008  -0.0023  -0.01    4.3
2024/11/12 07:22:49.100   34.744630676  137.764306121    41.0056   1  29   0.0022   0.0021   0.0047   0.0004  -0.0008  -0.0023   0.09    4.3
2024/11/12 07:22:49.200   34.744630666  137.764306110    41.0095   1  29   0.0022   0.0021   0.0047   0.0004  -0.0008  -0.0023   0.19    4.3
2024/11/12 07:22:49.300   34.744630659  137.764306115    41.0104   1  29   0.0022   0.0021   0.0047   0.0004  -0.0008  -0.0023   0.29    4.3
2024/11/12 07:22:49.400   34.744630658  137.764306118    41.0097   1  29   0.0022   0.0021   0.0047   0.0004  -0.0008  -0.0024   0.39    4.3
2024/11/12 07:22:49.500   34.744630661  137.764306120    41.0086   1  29   0.0022   0.0021   0.0047   0.0004  -0.0008  -0.0024   0.49    4.3
2024/11/12 07:22:49.600   34.744630663  137.764306095    41.0075   1  29   0.0022   0.0021   0.0047   0.0004  -0.0008  -0.0024  -0.41    4.3
2024/11/12 07:22:49.700   34.744630669  137.764306117    41.0053   1  29   0.0022   0.0021   0.0047   0.0004  -0.0008  -0.0023  -0.31    4.3
2024/11/12 07:22:49.800   34.744630675  137.764306106    41.0050   1  29   0.0022   0.0021   0.0047   0.0004  -0.0008  -0.0023  -0.21    4.3
2024/11/12 07:22:49.900   34.744630679  137.764306114    41.0061   1  29   0.0022   0.0021   0.0047   0.0004  -0.0008  -0.0023  -0.11    4.4
2024/11/12 07:22:50.000   34.744630674  137.764306114    41.0082   1  29   0.0022   0.0021   0.0047   0.0004  -0.0008  -0.0023  -0.01    4.4
2024/11/12 07:22:50.100   34.744630657  137.764306101    41.0123   1  29   0.0022   0.0021   0.0047   0.0004  -0.0008  -0.0023   0.09    4.4
2024/11/12 07:22:50.200   34.744630665  137.764306116    41.0108   1  29   0.0022   0.0021   0.0047   0.0004  -0.0008  -0.0023   0.19    4.4
2024/11/12 07:22:50.300   34.744630674  137.764306111    41.0101   1  29   0.0022   0.0021   0.0047   0.0004  -0.0008  -0.0023   0.29    4.4
2024/11/12 07:22:50.400   34.744630666  137.764306111    41.0106   1  29   0.0022   0.0021   0.0047   0.0004  -0.0008  -0.0023   0.39    4.4
2024/11/12 07:22:50.500   34.744630663  137.764306114    41.0089   1  29   0.0022   0.0021   0.0047   0.0004  -0.0008  -0.0024   0.49    4.4
2024/11/12 07:22:50.600   34.744630677  137.764306095    41.0072   1  29   0.0022   0.0021   0.0047   0.0004  -0.0008  -0.0024  -0.41    4.4
2024/11/12 07:22:50.700   34.744630665  137.764306091    41.0087   1  29   0.0022   0.0021   0.0047   0.0004  -0.0008  -0.0023  -0.31    4.4
2024/11/12 07:22:50.800   34.744630677  137.764306114    41.0067   1  29   0.0022   0.0021   0.0047   0.0004  -0.0008  -0.0023  -0.21    4.4
2024/11/12 07:22:50.900   34.744630659  137.764306091    41.0105   1  29   0.0022   0.0021   0.0047   0.0004  -0.0008  -0.0023  -0.11    4.4
2024/11/12 07:22:51.000   34.744630664  137.764306096    41.0093   1  29   0.0022   0.0021   0.0047   0.0004  -0.0008  -0.0023  -0.01    4.4
2024/11/12 07:22:51.100   34.744630661  137.764306112    41.0088   1  29   0.0022   0.0021   0.0047   0.0004  -0.0008  -0.0023   0.09    4.4
2024/11/12 07:22:51.200   34.744630667  137.764306107    41.0096   1  29   0.0022   0.0021   0.0047   0.0004  -0.0008  -0.0023   0.19    4.4
2024/11/12 07:22:51.300   34.744630670  137.764306094    41.0094   1  29   0.0022   0.0021   0.0047   0.0004  -0.0008  -0.0023   0.29    4.4
2024/11/12 07:22:51.400   34.744630649  137.764306109    41.0116   1  29   0.0022   0.0021   0.0047   0.0004  -0.0008  -0.0023   0.39    4.4
2024/11/12 07:22:51.500   34.744630656  137.764306105    41.0120   1  29   0.0022   0.0021   0.0047   0.0004  -0.0008  -0.0024   0.49    4.4
2024/11/12 07:22:51.600   34.744630670  137.764306105    41.0105   1  29   0.0022   0.0021   0.0047   0.0004  -0.0008  -0.0024  -0.41    4.4
2024/11/12 07:22:51.700   34.744630664  137.764306100    41.0113   1  29   0.0022   0.0021   0.0047   0.0004  -0.0008  -0.0023  -0.31    4.4
2024/11/12 07:22:51.800   34.744630671  137.764306119    41.0107   1  29   0.0022   0.0021   0.0047   0.0004  -0.0008  -0.0023  -0.21    4.4
2024/11/12 07:22:51.900   34.744630666  137.764306115    41.0099   1  29   0.0022   0.0021   0.0047   0.0004  -0.0008  -0.0023  -0.11    4.4
2024/11/12 07:22:52.000   34.744630672  137.764306113    41.0113   1  29   0.0022   0.0021   0.0047   0.0004  -0.0008  -0.0023  -0.01    4.4
2024/11/12 07:22:52.100   34.744630661  137.764306113    41.0120   1  29   0.0022   0.0021   0.0047   0.0004  -0.0008  -0.0023   0.09    4.4
2024/11/12 07:22:52.200   34.744630670  137.764306113    41.0127   1  29   0.0022   0.0021   0.0047   0.0004  -0.0008  -0.0023   0.19    4.4
2024/11/12 07:22:52.300   34.744630670  137.764306118    41.0120   1  29   0.0022   0.0021   0.0047   0.0004  -0.0008  -0.0023   0.29    4.4
2024/11/12 07:22:52.400   34.744630666  137.764306114    41.0123   1  29   0.0022   0.0021   0.0047   0.0004  -0.0008  -0.0023   0.39    4.4
2024/11/12 07:22:52.500   34.744630667  137.764306123    41.0114   1  29   0.0022   0.0021   0.0047   0.0004  -0.0008  -0.0024   0.49    4.4
2024/11/12 07:22:52.600   34.744630674  137.764306112    41.0087   1  29   0.0022   0.0021   0.0047   0.0004  -0.0008  -0.0023  -0.41    4.4
2024/11/12 07:22:52.700   34.744630680  137.764306110    41.0076   1  29   0.0022   0.0021   0.0047   0.0004  -0.0008  -0.0023  -0.31    4.4
2024/11/12 07:22:52.800   34.744630672  137.764306106    41.0088   1  29   0.0022   0.0021   0.0047   0.0004  -0.0008  -0.0023  -0.21    4.4
2024/11/12 07:22:52.900   34.744630678  137.764306097    41.0081   1  29   0.0022   0.0021   0.0047   0.0004  -0.0008  -0.0023  -0.11    4.4
2024/11/12 07:22:53.000   34.744630677  137.764306118    41.0085   1  29   0.0022   0.0021   0.0047   0.0004  -0.0008  -0.0023  -0.01    4.4
2024/11/12 07:22:53.100   34.744630673  137.764306099    41.0096   1  29   0.0022   0.0021   0.0047   0.0004  -0.0008  -0.0023   0.09    4.4
2024/11/12 07:22:53.200   34.744630679  137.764306116    41.0088   1  29   0.0022   0.0021   0.0047   0.0004  -0.0008  -0.0023   0.19    4.4
2024/11/12 07:22:53.300   34.744630661  137.764306102    41.0119   1  29   0.0022   0.0021   0.0047   0.0004  -0.0008  -0.0023   0.29    4.4
2024/11/12 07:22:53.400   34.744630670  137.764306115    41.0095   1  29   0.0022   0.0021   0.0047   0.0004  -0.0008  -0.0023   0.39    4.4
2024/11/12 07:22:53.500   34.744630665  137.764306106    41.0096   1  29   0.0022   0.0021   0.0047   0.0004  -0.0008  -0.0024   0.49    4.4
2024/11/12 07:22:53.600   34.744630675  137.764306111    41.0069   1  29   0.0022   0.0021   0.0047   0.0004  -0.0008  -0.0023  -0.41    4.4
2024/11/12 07:22:53.700   34.744630672  137.764306121    41.0052   1  29   0.0022   0.0021   0.0047   0.0004  -0.0008  -0.0023  -0.31    4.4
2024/11/12 07:22:53.800   34.744630663  137.764306114    41.0075   1  29   0.0022   0.0021   0.0047   0.0004  -0.0008  -0.0023  -0.21    4.4
2024/11/12 07:22:53.900   34.744630681  137.764306124    41.0066   1  29   0.0022   0.0021   0.0047   0.0004  -0.0008  -0.0023  -0.11    4.4
2024/11/12 07:22:54.000   34.744630664  137.764306122    41.0077   1  29   0.0022   0.0021   0.0047   0.0004  -0.0008  -0.0023  -0.01    4.4
2024/11/12 07:22:54.100   34.744630665  137.764306121    41.0093   1  29   0.0022   0.0021   0.0047   0.0004  -0.0008  -0.0023   0.09    4.4
2024/11/12 07:22:54.200   34.744630667  137.764306111    41.0107   1  29   0.0022   0.0021   0.0047   0.0004  -0.0008  -0.0023   0.19    4.4
2024/11/12 07:22:54.300   34.744630656  137.764306126    41.0104   1  29   0.0022   0.0021   0.0047   0.0004  -0.0008  -0.0023   0.29    4.4
2024/11/12 07:22:54.400   34.744630670  137.764306130    41.0094   1  29   0.0022   0.0021   0.0047   0.0004  -0.0008  -0.0023   0.39    4.4
2024/11/12 07:22:54.500   34.744630668  137.764306122    41.0101   1  29   0.0022   0.0021   0.0047   0.0004  -0.0008  -0.0024   0.49    4.4
2024/11/12 07:22:54.600   34.744630688  137.764306118    41.0061   1  29   0.0022   0.0021   0.0047   0.0004  -0.0008  -0.0023  -0.41    4.4
2024/11/12 07:22:54.700   34.744630679  137.764306116    41.0077   1  29   0.0022   0.0021   0.0047   0.0004  -0.0008  -0.0023  -0.31    4.4
2024/11/12 07:22:54.800   34.744630686  137.764306104    41.0064   1  29   0.0022   0.0021   0.0047   0.0004  -0.0008  -0.0023  -0.21    4.4
2024/11/12 07:22:54.900   34.744630673  137.764306114    41.0079   1  29   0.0022   0.0021   0.0047   0.0004  -0.0008  -0.0023  -0.11    4.4
2024/11/12 07:22:55.000   34.744630682  137.764306114    41.0083   1  29   0.0022   0.0021   0.0047   0.0004  -0.0008  -0.0023  -0.01    4.4
2024/11/12 07:22:55.100   34.744630687  137.764306112    41.0075   1  29   0.0022   0.0021   0.0047   0.0004  -0.0008  -0.0023   0.09    4.4
2024/11/12 07:22:55.200   34.744630676  137.764306106    41.0106   1  29   0.0022   0.0021   0.0047   0.0004  -0.0008  -0.0023   0.19    4.4
2024/11/12 07:22:55.300   34.744630675  137.764306122    41.0106   1  29   0.0022   0.0021   0.0047   0.0004  -0.0008  -0.0023   0.29    4.4
2024/11/12 07:22:55.400   34.744630679  137.764306110    41.0102   1  29   0.0022   0.0021   0.0047   0.0004  -0.0008  -0.0023   0.39    4.4
2024/11/12 07:22:55.500   34.744630673  137.764306118    41.0103   1  29   0.0022   0.0021   0.0047   0.0004  -0.0008  -0.0024   0.49    4.4
2024/11/12 07:22:55.600   34.744630686  137.764306115    41.0072   1  29   0.0022   0.0021   0.0047   0.0004  -0.0008  -0.0023  -0.41    4.5
2024/11/12 07:22:55.700   34.744630677  137.764306104    41.0089   1  29   0.0022   0.0021   0.0047   0.0004  -0.0008  -0.0023  -0.31    4.5
2024/11/12 07:22:55.800   34.744630674  137.764306089    41.0109   1  29   0.0022   0.0021   0.0047   0.0004  -0.0008  -0.0023  -0.21    4.5
2024/11/12 07:22:55.900   34.744630668  137.764306100    41.0108   1  29   0.0022   0.0021   0.0047   0.0004  -0.0008  -0.0023  -0.11    4.5
2024/11/12 07:22:56.000   34.744630683  137.764306121    41.0060   1  29   0.0022   0.0021   0.0047   0.0004  -0.0008  -0.0023  -0.01    4.5
2024/11/12 07:22:56.100   34.744630671  137.764306100    41.0095   1  29   0.0022   0.0021   0.0047   0.0004  -0.0008  -0.0023   0.09    4.5
2024/11/12 07:22:56.200   34.744630668  137.764306108    41.0110   1  29   0.0022   0.0021   0.0047   0.0004  -0.0008  -0.0023   0.19    4.5
2024/11/12 07:22:56.300   34.744630661  137.764306116    41.0107   1  29   0.0022   0.0021   0.0047   0.0004  -0.0008  -0.0023   0.29    4.5
2024/11/12 07:22:56.400   34.744630673  137.764306106    41.0119   1  29   0.0022   0.0021   0.0047   0.0004  -0.0008  -0.0023   0.39    4.5
2024/11/12 07:22:56.500   34.744630673  137.764306119    41.0109   1  29   0.0022   0.0021   0.0047   0.0004  -0.0008  -0.0024   0.49    4.5
2024/11/12 07:22:56.600   34.744630677  137.764306122    41.0047   1  29   0.0022   0.0021   0.0047   0.0004  -0.0008  -0.0023  -0.41    4.5
2024/11/12 07:22:56.700   34.744630673  137.764306108    41.0059   1  29   0.0022   0.0021   0.0047   0.0004  -0.0008  -0.0023  -0.31    4.5
2024/11/12 07:22:56.800   34.744630678  137.764306119    41.0053   1  29   0.0022   0.0021   0.0047   0.0004  -0.0008  -0.0023  -0.21    4.5
2024/11/12 07:22:56.900   34.744630668  137.764306099    41.0086   1  29   0.0022   0.0021   0.0047   0.0004  -0.0008  -0.0023  -0.11    4.5
2024/11/12 07:22:57.000   34.744630665  137.764306110    41.0103   1  29   0.0022   0.0021   0.0047   0.0004  -0.0008  -0.0023  -0.01    4.5
2024/11/12 07:22:57.100   34.744630658  137.764306114    41.0105   1  29   0.0022   0.0021   0.0047   0.0004  -0.0008  -0.0023   0.09    4.5
2024/11/12 07:22:57.200   34.744630660  137.764306114    41.0101   1  29   0.0022   0.0021   0.0047   0.0004  -0.0008  -0.0023   0.19    4.5
2024/11/12 07:22:57.300   34.744630668  137.764306112    41.0092   1  29   0.0022   0.0021   0.0047   0.0004  -0.0008  -0.0023   0.29    4.5
2024/11/12 07:22:57.400   34.744630672  137.764306123    41.0094   1  29   0.0022   0.0021   0.0047   0.0004  -0.0008  -0.0024   0.39    4.5
2024/11/12 07:22:57.500   34.744630669  137.764306123    41.0092   1  29   0.0022   0.0021   0.0047   0.0004  -0.0008  -0.0024   0.49    4.5
2024/11/12 07:22:57.600   34.744630676  137.764306096    41.0069   1  29   0.0022   0.0021   0.0047   0.0004  -0.0008  -0.0024  -0.41    4.5
2024/11/12 07:22:57.700   34.744630673  137.764306106    41.0058   1  29   0.0022   0.0021   0.0048   0.0004  -0.0008  -0.0024  -0.31    4.5
2024/11/12 07:22:57.800   34.744630678  137.764306111    41.0072   1  29   0.0022   0.0021   0.0048   0.0004  -0.0008  -0.0024  -0.21    4.5
2024/11/12 07:22:57.900   34.744630675  137.764306102    41.0073   1  29   0.0022   0.0021   0.0048   0.0004  -0.0008  -0.0024  -0.11    4.5
2024/11/12 07:22:58.000   34.744630674  137.764306113    41.0079   1  29   0.0022   0.0021   0.0048   0.0004  -0.0008  -0.0024  -0.01    4.5
2024/11/12 07:22:58.200   34.744630666  137.764306102    41.0112   1  29   0.0023   0.0021   0.0049   0.0004  -0.0008  -0.0024   0.19    4.5
2024/11/12 07:22:58.300   34.744630661  137.764306106    41.0111   1  29   0.0022   0.0021   0.0047   0.0004  -0.0008  -0.0023   0.29    4.5
2024/11/12 07:22:58.400   34.744630669  137.764306108    41.0091   1  29   0.0022   0.0021   0.0047   0.0004  -0.0008  -0.0023   0.39    4.5
2024/11/12 07:22:58.500   34.744630675  137.764306102    41.0108   1  29   0.0022   0.0021   0.0048   0.0004  -0.0008  -0.0024   0.49    4.5
2024/11/12 07:22:58.600   34.744630665  137.764306121    41.0080   1  29   0.0022   0.0021   0.0047   0.0004  -0.0008  -0.0024  -0.41    4.5
2024/11/12 07:22:58.700   34.744630667  137.764306119    41.0082   1  29   0.0022   0.0021   0.0047   0.0004  -0.0008  -0.0023  -0.31    4.5
2024/11/12 07:22:58.800   34.744630672  137.764306133    41.0080   1  29   0.0022   0.0021   0.0047   0.0004  -0.0008  -0.0023  -0.21    4.5
2024/11/12 07:22:58.900   34.744630676  137.764306122    41.0085   1  29   0.0022   0.0021   0.0047   0.0004  -0.0008  -0.0023  -0.11    4.5
2024/11/12 07:22:59.000   34.744630668  137.764306120    41.0074   1  29   0.0022   0.0021   0.0047   0.0004  -0.0008  -0.0023  -0.01    4.5
2024/11/12 07:22:59.100   34.744630670  137.764306124    41.0093   1  29   0.0022   0.0021   0.0047   0.0004  -0.0008  -0.0023   0.09    4.5
2024/11/12 07:22:59.200   34.744630665  137.764306133    41.0101   1  29   0.0022   0.0021   0.0047   0.0004  -0.0008  -0.0023   0.19    4.5
2024/11/12 07:22:59.300   34.744630660  137.764306125    41.0108   1  29   0.0022   0.0021   0.0047   0.0004  -0.0008  -0.0023   0.29    4.5
2024/11/12 07:22:59.400   34.744630672  137.764306134    41.0095   1  29   0.0022   0.0021   0.0047   0.0004  -0.0008  -0.0024   0.39    4.5
2024/11/12 07:22:59.500   34.744630665  137.764306121    41.0096   1  29   0.0022   0.0021   0.0047   0.0004  -0.0008  -0.0024   0.49    4.5
2024/11/12 07:22:59.600   34.744630670  137.764306126    41.0068   1  29   0.0022   0.0021   0.0047   0.0004  -0.0008  -0.0024  -0.41    4.5
2024/11/12 07:22:59.700   34.744630673  137.764306118    41.0068   1  29   0.0022   0.0021   0.0048   0.0004  -0.0008  -0.0024  -0.31    4.5
2024/11/12 07:22:59.800   34.744630665  137.764306115    41.0071   1  29   0.0022   0.0021   0.0048   0.0004  -0.0008  -0.0024  -0.21    4.5
2024/11/12 07:22:59.900   34.744630666  137.764306119    41.0085   1  29   0.0022   0.0021   0.0048   0.0004  -0.0008  -0.0024  -0.11    4.5
2024/11/12 07:23:00.000   34.744630670  137.764306123    41.0074   1  29   0.0022   0.0021   0.0048   0.0004  -0.0008  -0.0024  -0.01    4.5
2024/11/12 07:23:00.200   34.744630667  137.764306119    41.0066   1  29   0.0023   0.0021   0.0049   0.0004  -0.0008  -0.0024   0.19    4.5
2024/11/12 07:23:00.300   34.744630667  137.764306114    41.0093   1  29   0.0022   0.0021   0.0047   0.0004  -0.0008  -0.0023   0.29    4.5
2024/11/12 07:23:00.400   34.744630665  137.764306111    41.0105   1  29   0.0022   0.0021   0.0047   0.0004  -0.0008  -0.0023   0.39    4.5
2024/11/12 07:23:00.500   34.744630657  137.764306114    41.0110   1  29   0.0022   0.0021   0.0048   0.0004  -0.0008  -0.0024   0.49    4.6
