% program   : RTKPOST demo5 b34j
% inp file  : C:\Users\cs21014\Documents\Kitani\241112hyod\src\05\GNSS_MT\gnss0\ubx\241112_15.obs
% inp file  : C:\Users\cs21014\Documents\Kitani\241112hyod\src\rtk_base\COM4___9600_241112_050705.obs
% inp file  : C:\Users\cs21014\Documents\Kitani\241112hyod\src\rtk_base\COM4___9600_241112_050705.nav
% obs start : 2024/11/12 06:04:18.0 GPST (week2340 194658.0s)
% obs end   : 2024/11/12 06:06:17.4 GPST (week2340 194777.4s)
% pos mode  : Kinematic
% freqs     : L1+L2/E5b+L5
% solution  : Combined-Phase Reset
% elev mask : 15.0 deg
% dynamics  : on
% tidecorr  : on
% ionos opt : Broadcast
% tropo opt : Saastamoinen
% ephemeris : Broadcast
% navi sys  : GPS GLONASS Galileo QZSS BDS NavIC
% amb res   : Fix and Hold
% amb glo   : Fix and Hold
% val thres : 3.0
% antenna1  :                       ( 0.0000  0.0000  0.0000)
% antenna2  :                       ( 0.0000  0.0000  0.0000)
% ref pos   : 34.744454383  137.764618776    40.7897
%
% (lat/lon/height=WGS84/ellipsoidal,Q=1:fix,2:float,3:sbas,4:dgps,5:single,6:ppp,ns=# of satellites)
%  GPST                  latitude(deg) longitude(deg)  height(m)   Q  ns   sdn(m)   sde(m)   sdu(m)  sdne(m)  sdeu(m)  sdun(m) age(s)  ratio
2024/11/12 06:04:18.000   34.744649403  137.764557594    40.9722   1  24   0.0040   0.0039   0.0121   0.0014  -0.0042  -0.0031  -0.01    8.7
2024/11/12 06:04:18.100   34.744647054  137.764549743    40.9931   1  23   0.0040   0.0039   0.0118   0.0014  -0.0043  -0.0032   0.09    8.6
2024/11/12 06:04:18.200   34.744644820  137.764541620    40.9995   1  23   0.0040   0.0039   0.0118   0.0014  -0.0043  -0.0031   0.19    8.6
2024/11/12 06:04:18.300   34.744642727  137.764533495    40.9687   1  23   0.0040   0.0039   0.0114   0.0014  -0.0043  -0.0032   0.29    8.6
2024/11/12 06:04:18.400   34.744640765  137.764525089    40.9402   1  24   0.0040   0.0039   0.0112   0.0014  -0.0044  -0.0029   0.39    8.6
2024/11/12 06:04:18.500   34.744639102  137.764516592    40.8769   1  25   0.0040   0.0039   0.0112   0.0013  -0.0044  -0.0030   0.49    6.7
2024/11/12 06:04:18.600   34.744637996  137.764508021    40.8389   1  24   0.0040   0.0040   0.0113   0.0012  -0.0045  -0.0028  -0.41    6.7
2024/11/12 06:04:18.700   34.744637499  137.764499411    40.8002   1  25   0.0041   0.0040   0.0113   0.0009  -0.0046  -0.0025  -0.31    6.6
2024/11/12 06:04:18.800   34.744637588  137.764490980    40.7990   1  25   0.0039   0.0038   0.0107   0.0015  -0.0041  -0.0033  -0.21    6.6
2024/11/12 06:04:18.900   34.744638171  137.764482473    40.8437   1  24   0.0039   0.0038   0.0107   0.0015  -0.0041  -0.0033  -0.11    6.6
2024/11/12 06:04:19.000   34.744638972  137.764474006    40.8910   1  23   0.0039   0.0038   0.0108   0.0015  -0.0041  -0.0032  -0.01    6.5
2024/11/12 06:04:19.100   34.744639921  137.764465755    40.9329   1  22   0.0039   0.0038   0.0107   0.0015  -0.0041  -0.0032   0.09    6.5
2024/11/12 06:04:19.200   34.744640823  137.764457306    40.9899   1  23   0.0039   0.0037   0.0101   0.0017  -0.0036  -0.0035   0.19    6.5
2024/11/12 06:04:19.300   34.744641654  137.764448859    41.0048   1  22   0.0039   0.0037   0.0099   0.0016  -0.0036  -0.0036   0.29    6.4
2024/11/12 06:04:19.400   34.744642301  137.764440291    40.9972   1  22   0.0039   0.0037   0.0099   0.0016  -0.0036  -0.0036   0.39    6.4
2024/11/12 06:04:19.500   34.744642816  137.764431636    40.9841   1  22   0.0039   0.0037   0.0098   0.0016  -0.0036  -0.0035   0.49    6.4
2024/11/12 06:04:19.600   34.744643138  137.764422898    40.9657   1  24   0.0037   0.0034   0.0092   0.0017  -0.0028  -0.0038  -0.41    6.3
2024/11/12 06:04:19.700   34.744643129  137.764414208    40.9379   1  25   0.0036   0.0034   0.0091   0.0017  -0.0028  -0.0039  -0.31    6.3
2024/11/12 06:04:19.800   34.744642714  137.764405607    40.9129   1  26   0.0036   0.0034   0.0091   0.0017  -0.0029  -0.0040  -0.21    6.3
2024/11/12 06:04:19.900   34.744641987  137.764397084    40.9010   1  26   0.0036   0.0034   0.0092   0.0017  -0.0028  -0.0040  -0.11    6.2
2024/11/12 06:04:20.000   34.744640859  137.764388844    40.9023   1  25   0.0036   0.0034   0.0093   0.0017  -0.0028  -0.0040  -0.01    6.2
2024/11/12 06:04:20.100   34.744639490  137.764380785    40.9019   1  24   0.0036   0.0034   0.0094   0.0017  -0.0028  -0.0039   0.09    6.2
2024/11/12 06:04:20.200   34.744637853  137.764372897    40.9033   1  25   0.0037   0.0034   0.0094   0.0017  -0.0027  -0.0040   0.19    6.2
2024/11/12 06:04:20.300   34.744636049  137.764365141    40.9025   1  25   0.0036   0.0034   0.0093   0.0017  -0.0026  -0.0041   0.29    6.1
2024/11/12 06:04:20.400   34.744633948  137.764357613    40.9023   1  25   0.0034   0.0034   0.0086   0.0017  -0.0029  -0.0039   0.39    4.1
2024/11/12 06:04:20.500   34.744631584  137.764350179    40.8960   1  25   0.0034   0.0034   0.0086   0.0018  -0.0029  -0.0039   0.49    4.1
2024/11/12 06:04:20.600   34.744628871  137.764343015    40.8918   1  25   0.0034   0.0034   0.0086   0.0017  -0.0029  -0.0039  -0.41    4.1
2024/11/12 06:04:20.700   34.744625852  137.764336179    40.8791   1  25   0.0034   0.0034   0.0086   0.0017  -0.0029  -0.0038  -0.31    4.0
2024/11/12 06:04:20.800   34.744622494  137.764329598    40.8598   1  25   0.0034   0.0034   0.0086   0.0017  -0.0029  -0.0038  -0.21    4.0
2024/11/12 06:04:20.900   34.744618814  137.764323293    40.8372   1  25   0.0034   0.0034   0.0086   0.0017  -0.0029  -0.0038  -0.11    4.0
2024/11/12 06:04:21.000   34.744614777  137.764317482    40.8080   1  25   0.0034   0.0033   0.0084   0.0017  -0.0029  -0.0038  -0.01    8.5
2024/11/12 06:04:21.100   34.744610428  137.764312041    40.7863   1  27   0.0032   0.0032   0.0077   0.0014  -0.0024  -0.0031   0.09    8.5
2024/11/12 06:04:21.200   34.744605795  137.764306871    40.7644   1  27   0.0032   0.0032   0.0077   0.0014  -0.0024  -0.0031   0.19    8.5
2024/11/12 06:04:21.300   34.744600804  137.764302276    40.7458   1  27   0.0032   0.0032   0.0077   0.0014  -0.0024  -0.0031   0.29    8.5
2024/11/12 06:04:21.400   34.744595500  137.764298266    40.7426   1  27   0.0032   0.0032   0.0078   0.0014  -0.0024  -0.0031   0.39    8.4
2024/11/12 06:04:21.500   34.744589963  137.764294979    40.7365   1  27   0.0032   0.0032   0.0078   0.0014  -0.0024  -0.0031   0.49    8.4
2024/11/12 06:04:21.600   34.744584208  137.764292219    40.7152   1  27   0.0032   0.0032   0.0078   0.0014  -0.0024  -0.0031  -0.41    8.4
2024/11/12 06:04:21.700   34.744578300  137.764289923    40.7105   1  27   0.0022   0.0022   0.0054   0.0010  -0.0017  -0.0022  -0.31    3.1
2024/11/12 06:04:21.800   34.744572269  137.764288385    40.6879   1  27   0.0022   0.0022   0.0054   0.0010  -0.0017  -0.0022  -0.21    3.4
2024/11/12 06:04:21.900   34.744566129  137.764287623    40.6621   1  27   0.0022   0.0022   0.0054   0.0010  -0.0016  -0.0022  -0.11    3.6
2024/11/12 06:04:22.000   34.744559991  137.764287644    40.6543   1  27   0.0022   0.0022   0.0054   0.0010  -0.0016  -0.0022  -0.01    3.8
2024/11/12 06:04:22.100   34.744554012  137.764288499    40.6498   1  27   0.0022   0.0022   0.0055   0.0010  -0.0016  -0.0022   0.09    4.0
2024/11/12 06:04:22.200   34.744548031  137.764289853    40.6444   1  27   0.0022   0.0022   0.0055   0.0010  -0.0016  -0.0023   0.19    4.2
2024/11/12 06:04:22.300   34.744542280  137.764291950    40.6340   1  27   0.0023   0.0022   0.0056   0.0009  -0.0016  -0.0023   0.29    4.2
2024/11/12 06:04:22.400   34.744536713  137.764294645    40.6258   1  27   0.0022   0.0022   0.0056   0.0010  -0.0016  -0.0022   0.39    4.4
2024/11/12 06:04:22.500   34.744531292  137.764297795    40.6147   1  26   0.0023   0.0022   0.0057   0.0009  -0.0015  -0.0023   0.49    4.5
2024/11/12 06:04:22.600   34.744526328  137.764301570    40.6170   1  26   0.0023   0.0022   0.0058   0.0009  -0.0015  -0.0024  -0.41    4.6
2024/11/12 06:04:22.700   34.744521829  137.764306034    40.6391   1  25   0.0023   0.0023   0.0058   0.0010  -0.0014  -0.0024  -0.31    4.7
2024/11/12 06:04:22.800   34.744517481  137.764310823    40.6525   1  24   0.0023   0.0023   0.0059   0.0010  -0.0014  -0.0024  -0.21    6.9
2024/11/12 06:04:22.900   34.744513473  137.764315957    40.6661   1  24   0.0023   0.0023   0.0060   0.0009  -0.0013  -0.0024  -0.11    6.9
2024/11/12 06:04:23.000   34.744509783  137.764321504    40.6812   1  25   0.0023   0.0023   0.0059   0.0009  -0.0014  -0.0024  -0.01    7.0
2024/11/12 06:04:23.100   34.744506274  137.764327387    40.7019   1  25   0.0023   0.0022   0.0058   0.0009  -0.0015  -0.0024   0.09    7.0
2024/11/12 06:04:23.200   34.744503089  137.764333589    40.7139   1  27   0.0023   0.0022   0.0057   0.0010  -0.0016  -0.0023   0.19    7.1
2024/11/12 06:04:23.300   34.744500226  137.764340032    40.7284   1  27   0.0023   0.0022   0.0056   0.0010  -0.0016  -0.0023   0.29    7.1
2024/11/12 06:04:23.400   34.744497625  137.764346744    40.7333   1  27   0.0022   0.0022   0.0056   0.0010  -0.0016  -0.0022   0.39    7.2
2024/11/12 06:04:23.500   34.744495389  137.764353690    40.7376   1  27   0.0022   0.0022   0.0056   0.0010  -0.0016  -0.0022   0.49    7.3
2024/11/12 06:04:23.600   34.744493479  137.764360872    40.7358   1  27   0.0022   0.0022   0.0055   0.0010  -0.0016  -0.0022  -0.41    7.3
2024/11/12 06:04:23.700   34.744491958  137.764368221    40.7330   1  27   0.0022   0.0022   0.0055   0.0010  -0.0016  -0.0022  -0.31    7.6
2024/11/12 06:04:23.800   34.744490812  137.764375761    40.7341   1  27   0.0022   0.0022   0.0055   0.0010  -0.0016  -0.0022  -0.21    7.7
2024/11/12 06:04:23.900   34.744490014  137.764383381    40.7450   1  27   0.0022   0.0022   0.0055   0.0010  -0.0016  -0.0022  -0.11    3.8
2024/11/12 06:04:24.000   34.744489674  137.764391032    40.7589   1  26   0.0023   0.0022   0.0055   0.0010  -0.0017  -0.0021  -0.01    4.2
2024/11/12 06:04:24.100   34.744489615  137.764398834    40.7646   1  27   0.0022   0.0022   0.0055   0.0010  -0.0017  -0.0022   0.09    4.4
2024/11/12 06:04:24.200   34.744489813  137.764406731    40.7624   1  27   0.0022   0.0022   0.0055   0.0010  -0.0017  -0.0022   0.19    4.8
2024/11/12 06:04:24.300   34.744490503  137.764414525    40.7632   1  27   0.0022   0.0022   0.0055   0.0010  -0.0017  -0.0022   0.29    5.1
2024/11/12 06:04:24.400   34.744491536  137.764422396    40.7655   1  27   0.0023   0.0023   0.0056   0.0010  -0.0017  -0.0022   0.39    5.3
2024/11/12 06:04:24.500   34.744492941  137.764430262    40.7713   1  27   0.0023   0.0023   0.0056   0.0011  -0.0018  -0.0023   0.49    3.1
2024/11/12 06:04:24.600   34.744494711  137.764437960    40.7808   1  27   0.0023   0.0023   0.0056   0.0011  -0.0018  -0.0023  -0.41    3.2
2024/11/12 06:04:24.700   34.744496848  137.764445521    40.7952   1  27   0.0023   0.0023   0.0056   0.0011  -0.0018  -0.0023  -0.31    3.4
2024/11/12 06:04:24.800   34.744499236  137.764453063    40.8121   1  27   0.0023   0.0023   0.0057   0.0011  -0.0018  -0.0023  -0.21    3.0
2024/11/12 06:04:24.900   34.744501648  137.764460548    40.8339   1  27   0.0023   0.0023   0.0056   0.0011  -0.0017  -0.0022  -0.11    3.2
2024/11/12 06:04:25.000   34.744504097  137.764468110    40.8495   1  25   0.0023   0.0023   0.0057   0.0011  -0.0016  -0.0022  -0.01    4.0
2024/11/12 06:04:25.100   34.744506512  137.764475694    40.8462   1  25   0.0023   0.0023   0.0057   0.0010  -0.0016  -0.0022   0.09    4.1
2024/11/12 06:04:25.200   34.744508836  137.764483405    40.8261   1  26   0.0023   0.0023   0.0057   0.0010  -0.0016  -0.0023   0.19    3.3
2024/11/12 06:04:25.300   34.744510931  137.764491305    40.7950   1  26   0.0023   0.0023   0.0057   0.0010  -0.0015  -0.0022   0.29    3.1
2024/11/12 06:04:25.400   34.744512628  137.764499325    40.7534   1  27   0.0023   0.0023   0.0057   0.0010  -0.0015  -0.0022   0.39    3.4
2024/11/12 06:04:25.500   34.744513913  137.764507594    40.6964   1  26   0.0023   0.0023   0.0059   0.0010  -0.0014  -0.0023   0.49    3.7
2024/11/12 06:04:25.600   34.744514634  137.764515909    40.6611   1  26   0.0023   0.0023   0.0060   0.0009  -0.0014  -0.0024  -0.41    4.0
2024/11/12 06:04:25.700   34.744514633  137.764524174    40.6552   1  25   0.0023   0.0023   0.0060   0.0009  -0.0014  -0.0024  -0.31    3.0
2024/11/12 06:04:25.800   34.744514018  137.764532411    40.6907   1  25   0.0023   0.0023   0.0060   0.0009  -0.0014  -0.0024  -0.21    3.2
2024/11/12 06:04:25.900   34.744513142  137.764540495    40.7528   1  25   0.0023   0.0023   0.0060   0.0009  -0.0014  -0.0024  -0.11    3.3
2024/11/12 06:04:26.000   34.744512173  137.764548597    40.8134   1  26   0.0023   0.0023   0.0060   0.0009  -0.0014  -0.0024  -0.01    3.5
2024/11/12 06:04:26.100   34.744511296  137.764556778    40.8602   1  26   0.0023   0.0023   0.0059   0.0009  -0.0014  -0.0024   0.09    3.7
2024/11/12 06:04:26.200   34.744510406  137.764565032    40.8898   1  27   0.0023   0.0023   0.0058   0.0010  -0.0015  -0.0023   0.19    3.8
2024/11/12 06:04:26.300   34.744509605  137.764573424    40.8995   1  27   0.0023   0.0023   0.0058   0.0010  -0.0015  -0.0023   0.29    4.0
2024/11/12 06:04:26.400   34.744509038  137.764581896    40.8866   1  27   0.0023   0.0023   0.0057   0.0010  -0.0016  -0.0022   0.39    4.1
2024/11/12 06:04:26.500   34.744508727  137.764590466    40.8528   1  27   0.0023   0.0023   0.0057   0.0010  -0.0016  -0.0022   0.49    4.3
2024/11/12 06:04:26.600   34.744508868  137.764599064    40.8047   1  27   0.0023   0.0023   0.0057   0.0010  -0.0016  -0.0022  -0.41    4.4
2024/11/12 06:04:26.700   34.744509576  137.764607606    40.7569   1  27   0.0023   0.0023   0.0057   0.0010  -0.0017  -0.0022  -0.31    4.5
2024/11/12 06:04:26.800   34.744510966  137.764615883    40.7288   1  27   0.0023   0.0023   0.0057   0.0011  -0.0017  -0.0023  -0.21    4.7
2024/11/12 06:04:26.900   34.744513045  137.764623821    40.7463   1  27   0.0023   0.0023   0.0057   0.0011  -0.0017  -0.0023  -0.11    4.8
2024/11/12 06:04:27.000   34.744515534  137.764631345    40.7983   1  27   0.0022   0.0022   0.0056   0.0010  -0.0015  -0.0021  -0.01    4.9
2024/11/12 06:04:27.100   34.744518161  137.764638660    40.8614   1  26   0.0022   0.0022   0.0055   0.0009  -0.0013  -0.0019   0.09    5.0
2024/11/12 06:04:27.200   34.744520632  137.764646092    40.9102   1  24   0.0023   0.0023   0.0057   0.0010  -0.0015  -0.0021   0.19    7.2
2024/11/12 06:04:27.300   34.744522916  137.764653800    40.9023   1  24   0.0023   0.0022   0.0057   0.0009  -0.0015  -0.0020   0.29    7.2
2024/11/12 06:04:27.400   34.744524998  137.764661653    40.8501   1  25   0.0022   0.0022   0.0057   0.0009  -0.0014  -0.0020   0.39    7.2
2024/11/12 06:04:27.500   34.744526668  137.764669498    40.7820   1  27   0.0022   0.0022   0.0057   0.0008  -0.0013  -0.0020   0.49    7.2
2024/11/12 06:04:27.600   34.744527860  137.764677508    40.7211   1  27   0.0022   0.0022   0.0057   0.0008  -0.0012  -0.0020  -0.41    7.3
2024/11/12 06:04:27.700   34.744528399  137.764685542    40.6859   1  25   0.0023   0.0022   0.0058   0.0007  -0.0010  -0.0021  -0.31    7.3
2024/11/12 06:04:27.800   34.744528378  137.764693510    40.6830   1  26   0.0023   0.0022   0.0058   0.0007  -0.0010  -0.0021  -0.21    7.3
2024/11/12 06:04:27.900   34.744527858  137.764701387    40.7113   1  26   0.0023   0.0022   0.0058   0.0007  -0.0010  -0.0021  -0.11    7.4
2024/11/12 06:04:28.000   34.744526937  137.764709174    40.7542   1  26   0.0023   0.0022   0.0058   0.0007  -0.0010  -0.0021  -0.01    7.4
2024/11/12 06:04:28.100   34.744525895  137.764716832    40.8000   1  26   0.0023   0.0022   0.0058   0.0007  -0.0010  -0.0021   0.09    7.4
2024/11/12 06:04:28.200   34.744524854  137.764724522    40.8500   1  27   0.0022   0.0022   0.0055   0.0008  -0.0012  -0.0019   0.19    7.4
2024/11/12 06:04:28.300   34.744523762  137.764732273    40.8899   1  27   0.0022   0.0022   0.0056   0.0007  -0.0011  -0.0019   0.29    7.4
2024/11/12 06:04:28.400   34.744522801  137.764740204    40.9027   1  27   0.0022   0.0022   0.0056   0.0008  -0.0012  -0.0019   0.39    7.5
2024/11/12 06:04:28.500   34.744522025  137.764748351    40.8832   1  27   0.0022   0.0022   0.0055   0.0008  -0.0012  -0.0018   0.49    7.5
2024/11/12 06:04:28.600   34.744521537  137.764756558    40.8454   1  27   0.0021   0.0022   0.0054   0.0008  -0.0012  -0.0016  -0.41    7.5
2024/11/12 06:04:28.700   34.744521465  137.764764830    40.7880   1  27   0.0021   0.0022   0.0053   0.0008  -0.0012  -0.0016  -0.31    7.5
2024/11/12 06:04:28.800   34.744521906  137.764773090    40.7319   2  27   0.0021   0.0022   0.0053   0.0007  -0.0012  -0.0015  -0.21    3.2
2024/11/12 06:04:28.900   34.744523061  137.764781174    40.6833   1  27   0.0021   0.0022   0.0052   0.0007  -0.0012  -0.0015  -0.11    3.3
2024/11/12 06:04:29.000   34.744524898  137.764788935    40.6674   1  27   0.0021   0.0022   0.0052   0.0007  -0.0012  -0.0014  -0.01    3.4
2024/11/12 06:04:29.100   34.744527404  137.764796299    40.6955   1  26   0.0021   0.0022   0.0052   0.0007  -0.0012  -0.0014   0.09    3.5
2024/11/12 06:04:29.200   34.744530166  137.764803678    40.7039   1  25   0.0021   0.0022   0.0052   0.0007  -0.0012  -0.0013   0.19    3.2
2024/11/12 06:04:29.300   34.744533265  137.764810817    40.7203   2  25   0.0021   0.0022   0.0052   0.0008  -0.0012  -0.0013   0.29    3.5
2024/11/12 06:04:29.400   34.744536841  137.764817706    40.7098   2  26   0.0021   0.0022   0.0052   0.0008  -0.0011  -0.0013   0.39    3.8
2024/11/12 06:04:29.500   34.744540878  137.764824212    40.6904   2  25   0.0021   0.0022   0.0053   0.0007  -0.0013  -0.0012   0.49    4.0
2024/11/12 06:04:29.600   34.744545449  137.764830069    40.6803   1  24   0.0022   0.0022   0.0054   0.0007  -0.0013  -0.0011  -0.41    4.2
2024/11/12 06:04:29.700   34.744550398  137.764835264    40.6759   1  24   0.0022   0.0022   0.0054   0.0007  -0.0013  -0.0010  -0.31    4.3
2024/11/12 06:04:29.800   34.744555629  137.764839790    40.6771   1  24   0.0022   0.0022   0.0053   0.0008  -0.0011  -0.0011  -0.21    4.4
2024/11/12 06:04:29.900   34.744561093  137.764843568    40.6875   1  25   0.0022   0.0022   0.0052   0.0008  -0.0012  -0.0012  -0.11    4.6
2024/11/12 06:04:30.000   34.744566835  137.764846343    40.6985   2  25   0.0022   0.0022   0.0052   0.0008  -0.0012  -0.0012  -0.01    4.7
2024/11/12 06:04:30.100   34.744572686  137.764848530    40.7069   2  25   0.0022   0.0022   0.0052   0.0008  -0.0012  -0.0012   0.09    4.8
2024/11/12 06:04:30.200   34.744578630  137.764850192    40.7047   2  25   0.0022   0.0022   0.0052   0.0008  -0.0012  -0.0012   0.19    4.9
2024/11/12 06:04:30.300   34.744584653  137.764850980    40.7140   2  26   0.0022   0.0022   0.0052   0.0007  -0.0012  -0.0012   0.29    5.0
2024/11/12 06:04:30.400   34.744590640  137.764850940    40.7177   2  25   0.0022   0.0022   0.0053   0.0007  -0.0012  -0.0010   0.39    5.3
2024/11/12 06:04:30.500   34.744596531  137.764850188    40.7300   2  25   0.0022   0.0022   0.0054   0.0007  -0.0012  -0.0011   0.49    5.4
2024/11/12 06:04:30.600   34.744602355  137.764848609    40.7537   2  24   0.0023   0.0022   0.0056   0.0006  -0.0013  -0.0008  -0.41    5.5
2024/11/12 06:04:30.700   34.744608044  137.764846503    40.7663   2  24   0.0023   0.0022   0.0056   0.0006  -0.0013  -0.0008  -0.31    5.5
2024/11/12 06:04:30.800   34.744613554  137.764843827    40.7679   2  25   0.0023   0.0022   0.0056   0.0005  -0.0014  -0.0010  -0.21    5.6
2024/11/12 06:04:30.900   34.744618879  137.764840391    40.7639   2  24   0.0023   0.0022   0.0057   0.0005  -0.0013  -0.0012  -0.11    5.7
2024/11/12 06:04:31.000   34.744623997  137.764836458    40.7422   1  25   0.0022   0.0022   0.0059   0.0004  -0.0013  -0.0013  -0.01    5.7
2024/11/12 06:04:31.100   34.744628764  137.764831885    40.7465   1  25   0.0022   0.0022   0.0059   0.0004  -0.0013  -0.0013   0.09    5.8
2024/11/12 06:04:31.200   34.744633310  137.764826926    40.7565   1  25   0.0022   0.0022   0.0059   0.0004  -0.0013  -0.0014   0.19    5.9
2024/11/12 06:04:31.300   34.744637560  137.764821598    40.7671   1  26   0.0022   0.0022   0.0057   0.0005  -0.0011  -0.0016   0.29    5.9
2024/11/12 06:04:31.400   34.744641385  137.764815845    40.7806   1  26   0.0022   0.0022   0.0056   0.0006  -0.0011  -0.0016   0.39    6.0
2024/11/12 06:04:31.500   34.744644862  137.764809746    40.7964   1  26   0.0022   0.0022   0.0056   0.0006  -0.0011  -0.0017   0.49    6.1
2024/11/12 06:04:31.600   34.744647975  137.764803450    40.7969   1  26   0.0022   0.0022   0.0056   0.0006  -0.0011  -0.0017  -0.41    6.2
2024/11/12 06:04:31.700   34.744650605  137.764796864    40.8124   1  26   0.0022   0.0022   0.0056   0.0006  -0.0011  -0.0017  -0.31    6.3
2024/11/12 06:04:31.800   34.744652824  137.764790079    40.8113   1  26   0.0022   0.0022   0.0056   0.0006  -0.0011  -0.0017  -0.21    6.3
2024/11/12 06:04:31.900   34.744654629  137.764783027    40.8110   1  26   0.0022   0.0022   0.0056   0.0006  -0.0010  -0.0017  -0.11    6.4
2024/11/12 06:04:32.000   34.744655890  137.764775852    40.8139   1  26   0.0022   0.0022   0.0056   0.0006  -0.0010  -0.0016  -0.01    6.5
2024/11/12 06:04:32.100   34.744656572  137.764768550    40.8155   1  26   0.0022   0.0022   0.0056   0.0006  -0.0010  -0.0017   0.09    6.6
2024/11/12 06:04:32.200   34.744656673  137.764761233    40.8258   1  26   0.0022   0.0022   0.0056   0.0006  -0.0010  -0.0016   0.19    6.7
2024/11/12 06:04:32.300   34.744656292  137.764753944    40.8427   1  26   0.0022   0.0022   0.0057   0.0006  -0.0010  -0.0015   0.29    6.7
2024/11/12 06:04:32.400   34.744655598  137.764746701    40.8700   1  26   0.0022   0.0022   0.0057   0.0006  -0.0010  -0.0015   0.39    6.8
2024/11/12 06:04:32.500   34.744654628  137.764739415    40.9018   1  26   0.0022   0.0022   0.0058   0.0006  -0.0011  -0.0015   0.49    6.8
2024/11/12 06:04:32.600   34.744653498  137.764732130    40.9339   1  26   0.0022   0.0022   0.0058   0.0006  -0.0011  -0.0015  -0.41    6.9
2024/11/12 06:04:32.700   34.744652334  137.764724743    40.9438   1  26   0.0022   0.0022   0.0058   0.0006  -0.0011  -0.0015  -0.31    7.0
2024/11/12 06:04:32.800   34.744651122  137.764717135    40.9533   1  26   0.0022   0.0022   0.0058   0.0006  -0.0012  -0.0015  -0.21    7.0
2024/11/12 06:04:32.900   34.744649986  137.764709407    40.9534   1  26   0.0022   0.0022   0.0058   0.0006  -0.0012  -0.0016  -0.11    7.1
2024/11/12 06:04:33.000   34.744648974  137.764701523    40.9408   1  25   0.0022   0.0022   0.0058   0.0006  -0.0012  -0.0015  -0.01    7.2
2024/11/12 06:04:33.100   34.744648187  137.764693448    40.9102   1  25   0.0022   0.0022   0.0058   0.0005  -0.0013  -0.0015   0.09    7.3
2024/11/12 06:04:33.200   34.744647762  137.764685283    40.8633   1  25   0.0022   0.0022   0.0059   0.0005  -0.0013  -0.0014   0.19    7.3
2024/11/12 06:04:33.300   34.744647817  137.764677100    40.8172   1  23   0.0023   0.0023   0.0061   0.0004  -0.0015  -0.0012   0.29    7.4
2024/11/12 06:04:33.400   34.744648477  137.764668911    40.8128   1  22   0.0024   0.0023   0.0065   0.0000  -0.0017  -0.0007   0.39    7.4
2024/11/12 06:04:33.500   34.744649527  137.764660969    40.8259   1  23   0.0024   0.0023   0.0066  -0.0002  -0.0018  -0.0003   0.49    7.5
2024/11/12 06:04:33.600   34.744650683  137.764653360    40.8372   2  25   0.0025   0.0024   0.0067  -0.0004  -0.0019   0.0008  -0.41    7.6
2024/11/12 06:04:33.700   34.744652096  137.764645143    40.9243   1  22   0.0025   0.0025   0.0070  -0.0005  -0.0022   0.0010  -0.31    7.5
2024/11/12 06:04:33.800   34.744653305  137.764637044    40.9744   1  22   0.0025   0.0025   0.0071  -0.0004  -0.0023   0.0008  -0.21    7.5
2024/11/12 06:04:33.900   34.744654435  137.764628748    41.0023   2  21   0.0025   0.0025   0.0071   0.0001  -0.0023   0.0003  -0.11    7.6
2024/11/12 06:04:34.000   34.744655420  137.764620474    41.0083   2  24   0.0025   0.0024   0.0067  -0.0001  -0.0019  -0.0005  -0.01    7.7
2024/11/12 06:04:34.100   34.744656162  137.764612069    40.9934   2  24   0.0025   0.0025   0.0069   0.0003  -0.0022  -0.0007   0.09    7.8
2024/11/12 06:04:34.200   34.744656572  137.764603479    40.9410   2  25   0.0025   0.0025   0.0071   0.0004  -0.0022  -0.0010   0.19    7.8
2024/11/12 06:04:34.300   34.744656497  137.764594901    40.8830   2  24   0.0025   0.0025   0.0071   0.0005  -0.0021  -0.0010   0.29    7.9
2024/11/12 06:04:34.400   34.744655755  137.764586369    40.8542   1  24   0.0025   0.0025   0.0071   0.0005  -0.0021  -0.0011   0.39    7.8
2024/11/12 06:04:34.500   34.744654467  137.764578100    40.8294   1  23   0.0026   0.0027   0.0076   0.0009  -0.0026  -0.0017   0.49   13.7
2024/11/12 06:04:34.600   34.744652572  137.764569865    40.8578   1  24   0.0026   0.0027   0.0076   0.0009  -0.0026  -0.0018  -0.41   13.9
2024/11/12 06:04:34.700   34.744650387  137.764561726    40.9016   1  23   0.0026   0.0027   0.0077   0.0009  -0.0026  -0.0017  -0.31   14.0
2024/11/12 06:04:34.800   34.744647935  137.764553568    40.9461   1  23   0.0026   0.0027   0.0077   0.0009  -0.0026  -0.0017  -0.21   14.2
2024/11/12 06:04:34.900   34.744645391  137.764545337    40.9885   1  23   0.0026   0.0027   0.0077   0.0009  -0.0027  -0.0017  -0.11   14.3
2024/11/12 06:04:35.000   34.744642939  137.764536895    41.0012   1  23   0.0026   0.0027   0.0076   0.0008  -0.0027  -0.0016  -0.01   14.4
2024/11/12 06:04:35.100   34.744640533  137.764528295    40.9734   1  24   0.0025   0.0025   0.0068   0.0005  -0.0021  -0.0011   0.09    7.6
2024/11/12 06:04:35.200   34.744638329  137.764519617    40.9179   1  24   0.0025   0.0026   0.0071   0.0006  -0.0025  -0.0012   0.19   14.6
2024/11/12 06:04:35.300   34.744636494  137.764510916    40.8392   1  24   0.0025   0.0025   0.0070   0.0002  -0.0024  -0.0008   0.29   14.7
2024/11/12 06:04:35.400   34.744635158  137.764502259    40.7794   1  23   0.0025   0.0025   0.0070  -0.0004  -0.0024  -0.0006   0.39   14.8
2024/11/12 06:04:35.500   34.744634579  137.764493659    40.7295   1  24   0.0025   0.0025   0.0069  -0.0005  -0.0023  -0.0004   0.49   14.9
2024/11/12 06:04:35.600   34.744634752  137.764485285    40.7277   1  24   0.0025   0.0025   0.0070  -0.0007  -0.0024   0.0008  -0.41   14.9
2024/11/12 06:04:35.700   34.744635385  137.764477149    40.7454   1  23   0.0025   0.0025   0.0070  -0.0007  -0.0024   0.0009  -0.31   15.0
2024/11/12 06:04:35.800   34.744636440  137.764469401    40.7883   1  22   0.0025   0.0025   0.0070  -0.0007  -0.0024   0.0009  -0.21   15.0
2024/11/12 06:04:35.900   34.744637731  137.764461760    40.8647   1  20   0.0025   0.0025   0.0069  -0.0007  -0.0024   0.0009  -0.11   15.0
2024/11/12 06:04:36.000   34.744638995  137.764454297    40.9251   1  22   0.0025   0.0025   0.0067  -0.0005  -0.0022  -0.0002  -0.01   15.0
2024/11/12 06:04:36.100   34.744640142  137.764446776    40.9623   1  22   0.0025   0.0025   0.0067  -0.0005  -0.0022  -0.0004   0.09   15.5
2024/11/12 06:04:36.200   34.744641199  137.764438928    40.9853   1  23   0.0024   0.0024   0.0065   0.0002  -0.0021  -0.0010   0.19   15.5
2024/11/12 06:04:36.300   34.744642113  137.764431014    40.9848   2  22   0.0025   0.0025   0.0065   0.0003  -0.0022  -0.0011   0.29   15.5
2024/11/12 06:04:36.400   34.744642797  137.764422925    40.9493   1  23   0.0024   0.0024   0.0064   0.0008  -0.0021  -0.0017   0.39   15.5
2024/11/12 06:04:36.500   34.744643200  137.764414706    40.9160   1  23   0.0024   0.0024   0.0064   0.0009  -0.0021  -0.0019   0.49   15.5
2024/11/12 06:04:36.600   34.744643112  137.764406440    40.8829   2  25   0.0023   0.0024   0.0062   0.0009  -0.0020  -0.0021  -0.41   15.5
2024/11/12 06:04:36.700   34.744642592  137.764398190    40.8410   1  25   0.0023   0.0024   0.0062   0.0011  -0.0021  -0.0022  -0.31   15.4
2024/11/12 06:04:36.800   34.744641540  137.764390064    40.8384   1  25   0.0023   0.0024   0.0062   0.0011  -0.0021  -0.0023  -0.21   15.4
2024/11/12 06:04:36.900   34.744640056  137.764381946    40.8422   1  25   0.0023   0.0024   0.0061   0.0011  -0.0020  -0.0023  -0.11   15.4
2024/11/12 06:04:37.000   34.744638299  137.764373847    40.8562   1  25   0.0023   0.0024   0.0061   0.0011  -0.0020  -0.0023  -0.01   15.4
2024/11/12 06:04:37.100   34.744636226  137.764365846    40.8543   1  25   0.0023   0.0024   0.0061   0.0011  -0.0020  -0.0023   0.09   15.4
2024/11/12 06:04:37.200   34.744633787  137.764358051    40.8519   1  25   0.0023   0.0024   0.0059   0.0011  -0.0020  -0.0022   0.19   15.4
2024/11/12 06:04:37.300   34.744630969  137.764350426    40.8470   1  25   0.0023   0.0024   0.0059   0.0011  -0.0020  -0.0022   0.29   15.4
2024/11/12 06:04:37.400   34.744627847  137.764343202    40.8357   1  25   0.0023   0.0024   0.0059   0.0011  -0.0020  -0.0022   0.39   15.4
2024/11/12 06:04:37.500   34.744624333  137.764336330    40.8328   1  25   0.0023   0.0024   0.0059   0.0011  -0.0020  -0.0022   0.49   15.4
2024/11/12 06:04:37.600   34.744620553  137.764329751    40.8215   1  25   0.0023   0.0024   0.0058   0.0011  -0.0020  -0.0022  -0.41   15.5
2024/11/12 06:04:37.700   34.744616473  137.764323520    40.8017   1  26   0.0022   0.0023   0.0056   0.0010  -0.0018  -0.0020  -0.31   15.5
2024/11/12 06:04:37.800   34.744612078  137.764317784    40.7882   1  27   0.0022   0.0023   0.0055   0.0009  -0.0018  -0.0019  -0.21   15.5
2024/11/12 06:04:37.900   34.744607358  137.764312406    40.7663   1  27   0.0022   0.0023   0.0056   0.0009  -0.0018  -0.0019  -0.11   15.5
2024/11/12 06:04:38.000   34.744602360  137.764307451    40.7480   1  27   0.0022   0.0023   0.0056   0.0009  -0.0018  -0.0019  -0.01   15.5
2024/11/12 06:04:38.100   34.744597076  137.764303126    40.7309   1  27   0.0022   0.0023   0.0055   0.0009  -0.0017  -0.0017   0.09   15.5
2024/11/12 06:04:38.200   34.744591499  137.764299483    40.7118   1  27   0.0022   0.0023   0.0055   0.0008  -0.0017  -0.0016   0.19   15.6
2024/11/12 06:04:38.300   34.744585706  137.764296470    40.6942   1  27   0.0021   0.0023   0.0054   0.0007  -0.0017  -0.0016   0.29   15.5
2024/11/12 06:04:38.400   34.744579783  137.764294114    40.6696   1  27   0.0021   0.0022   0.0053   0.0007  -0.0016  -0.0016   0.39   15.5
2024/11/12 06:04:38.500   34.744573721  137.764292506    40.6444   1  27   0.0021   0.0022   0.0053   0.0007  -0.0016  -0.0015   0.49   15.5
2024/11/12 06:04:38.600   34.744567583  137.764291690    40.6179   1  27   0.0021   0.0022   0.0053   0.0007  -0.0015  -0.0016  -0.41   15.5
2024/11/12 06:04:38.700   34.744561479  137.764291777    40.6074   1  27   0.0021   0.0022   0.0053   0.0007  -0.0015  -0.0016  -0.31   15.5
2024/11/12 06:04:38.800   34.744555534  137.764292864    40.6098   1  27   0.0021   0.0022   0.0053   0.0007  -0.0014  -0.0016  -0.21   15.5
2024/11/12 06:04:38.900   34.744549662  137.764294508    40.6109   1  27   0.0021   0.0022   0.0052   0.0007  -0.0014  -0.0017  -0.11   15.4
2024/11/12 06:04:39.000   34.744543905  137.764296793    40.6074   1  27   0.0021   0.0022   0.0053   0.0007  -0.0013  -0.0017  -0.01   15.4
2024/11/12 06:04:39.100   34.744538318  137.764299650    40.5980   1  27   0.0021   0.0022   0.0054   0.0006  -0.0012  -0.0018   0.09   15.4
2024/11/12 06:04:39.200   34.744532878  137.764303006    40.5820   1  26   0.0021   0.0022   0.0054   0.0006  -0.0012  -0.0018   0.19   15.4
2024/11/12 06:04:39.300   34.744527853  137.764307070    40.5827   1  26   0.0021   0.0022   0.0054   0.0006  -0.0012  -0.0018   0.29   15.4
2024/11/12 06:04:39.400   34.744523324  137.764311795    40.6048   1  24   0.0021   0.0022   0.0056   0.0007  -0.0010  -0.0018   0.39   15.4
2024/11/12 06:04:39.500   34.744519083  137.764316931    40.6352   1  25   0.0021   0.0022   0.0055   0.0007  -0.0010  -0.0017   0.49   15.4
2024/11/12 06:04:39.600   34.744514911  137.764322427    40.6719   1  25   0.0021   0.0022   0.0055   0.0006  -0.0011  -0.0018  -0.41   15.4
2024/11/12 06:04:39.700   34.744510914  137.764328215    40.6972   1  26   0.0021   0.0022   0.0054   0.0006  -0.0011  -0.0018  -0.31   15.4
2024/11/12 06:04:39.800   34.744507152  137.764334374    40.7152   1  27   0.0021   0.0022   0.0052   0.0007  -0.0013  -0.0016  -0.21   15.4
2024/11/12 06:04:39.900   34.744503655  137.764340843    40.7166   1  27   0.0021   0.0022   0.0052   0.0007  -0.0013  -0.0017  -0.11   15.4
2024/11/12 06:04:40.000   34.744500454  137.764347573    40.7206   1  27   0.0021   0.0022   0.0052   0.0007  -0.0013  -0.0017  -0.01   15.4
2024/11/12 06:04:40.100   34.744497611  137.764354497    40.7213   1  27   0.0021   0.0022   0.0052   0.0007  -0.0013  -0.0016   0.09   15.4
2024/11/12 06:04:40.200   34.744495139  137.764361682    40.7198   1  27   0.0021   0.0022   0.0051   0.0007  -0.0013  -0.0016   0.19   15.4
2024/11/12 06:04:40.300   34.744493027  137.764369027    40.7249   1  27   0.0021   0.0022   0.0051   0.0007  -0.0013  -0.0016   0.29   15.4
2024/11/12 06:04:40.400   34.744491293  137.764376561    40.7255   1  27   0.0021   0.0022   0.0051   0.0007  -0.0013  -0.0016   0.39   15.4
2024/11/12 06:04:40.500   34.744489926  137.764384186    40.7295   1  26   0.0021   0.0022   0.0052   0.0007  -0.0013  -0.0015   0.49   15.5
2024/11/12 06:04:40.600   34.744489023  137.764391915    40.7323   1  25   0.0021   0.0022   0.0052   0.0007  -0.0013  -0.0015  -0.41   15.5
2024/11/12 06:04:40.700   34.744488424  137.764399791    40.7208   1  25   0.0021   0.0022   0.0052   0.0007  -0.0013  -0.0015  -0.31   15.5
2024/11/12 06:04:40.800   34.744488283  137.764407694    40.7042   1  26   0.0021   0.0022   0.0052   0.0007  -0.0013  -0.0015  -0.21   15.5
2024/11/12 06:04:40.900   34.744488852  137.764415520    40.6905   1  26   0.0021   0.0022   0.0052   0.0007  -0.0013  -0.0015  -0.11   15.5
2024/11/12 06:04:41.000   34.744489883  137.764423269    40.6882   1  26   0.0020   0.0022   0.0052   0.0008  -0.0013  -0.0015  -0.01   15.5
2024/11/12 06:04:41.100   34.744491478  137.764430862    40.7014   1  26   0.0021   0.0022   0.0052   0.0008  -0.0013  -0.0015   0.09   15.5
2024/11/12 06:04:41.200   34.744493552  137.764438265    40.7273   1  25   0.0021   0.0022   0.0052   0.0008  -0.0012  -0.0015   0.19   15.5
2024/11/12 06:04:41.300   34.744495907  137.764445562    40.7613   1  25   0.0021   0.0022   0.0052   0.0008  -0.0012  -0.0015   0.29   15.5
2024/11/12 06:04:41.400   34.744498522  137.764452785    40.8001   1  25   0.0021   0.0022   0.0052   0.0008  -0.0012  -0.0016   0.39   15.5
2024/11/12 06:04:41.500   34.744501206  137.764459999    40.8289   1  25   0.0021   0.0022   0.0052   0.0008  -0.0012  -0.0016   0.49   15.5
2024/11/12 06:04:41.600   34.744503885  137.764467247    40.8470   1  25   0.0021   0.0022   0.0052   0.0008  -0.0012  -0.0016  -0.41   15.5
2024/11/12 06:04:41.700   34.744506554  137.764474598    40.8378   1  26   0.0021   0.0022   0.0052   0.0008  -0.0012  -0.0016  -0.31   15.5
2024/11/12 06:04:41.800   34.744509083  137.764482203    40.8168   1  26   0.0021   0.0022   0.0053   0.0007  -0.0012  -0.0017  -0.21   15.6
2024/11/12 06:04:41.900   34.744511362  137.764489953    40.7723   1  26   0.0021   0.0022   0.0053   0.0007  -0.0012  -0.0017  -0.11   15.5
2024/11/12 06:04:42.000   34.744513252  137.764497899    40.7172   1  26   0.0021   0.0022   0.0052   0.0008  -0.0013  -0.0016  -0.01   15.5
2024/11/12 06:04:42.100   34.744514649  137.764506141    40.6617   1  25   0.0021   0.0022   0.0053   0.0007  -0.0012  -0.0017   0.09   15.6
2024/11/12 06:04:42.200   34.744515321  137.764514397    40.6314   1  25   0.0021   0.0022   0.0056   0.0007  -0.0011  -0.0019   0.19   15.6
2024/11/12 06:04:42.300   34.744515356  137.764522641    40.6333   1  25   0.0022   0.0022   0.0056   0.0007  -0.0011  -0.0020   0.29   15.6
2024/11/12 06:04:42.400   34.744514806  137.764530786    40.6801   1  25   0.0022   0.0022   0.0057   0.0007  -0.0012  -0.0020   0.39   15.7
2024/11/12 06:04:42.500   34.744513929  137.764538913    40.7373   1  25   0.0022   0.0023   0.0057   0.0008  -0.0013  -0.0021   0.49   15.7
2024/11/12 06:04:42.600   34.744513102  137.764547067    40.7767   1  25   0.0022   0.0022   0.0056   0.0007  -0.0011  -0.0019  -0.41   15.7
2024/11/12 06:04:42.700   34.744512088  137.764555285    40.8316   1  25   0.0021   0.0022   0.0053   0.0008  -0.0012  -0.0017  -0.31   15.7
2024/11/12 06:04:42.800   34.744510979  137.764563526    40.8733   1  26   0.0021   0.0022   0.0054   0.0009  -0.0014  -0.0019  -0.21   15.8
2024/11/12 06:04:42.900   34.744509898  137.764571842    40.8926   1  26   0.0021   0.0022   0.0054   0.0009  -0.0014  -0.0018  -0.11   15.8
2024/11/12 06:04:43.000   34.744508993  137.764580305    40.8933   1  26   0.0021   0.0022   0.0053   0.0008  -0.0014  -0.0017  -0.01   15.8
2024/11/12 06:04:43.100   34.744508354  137.764588882    40.8631   1  26   0.0021   0.0022   0.0052   0.0008  -0.0013  -0.0017   0.09   15.8
2024/11/12 06:04:43.200   34.744508103  137.764597467    40.8128   1  26   0.0021   0.0022   0.0052   0.0008  -0.0013  -0.0016   0.19   15.8
2024/11/12 06:04:43.300   34.744508347  137.764606039    40.7495   1  26   0.0021   0.0022   0.0051   0.0008  -0.0013  -0.0016   0.29   15.8
2024/11/12 06:04:43.400   34.744509420  137.764614400    40.7027   1  26   0.0021   0.0022   0.0051   0.0008  -0.0013  -0.0016   0.39   15.8
2024/11/12 06:04:43.500   34.744511277  137.764622281    40.7034   1  26   0.0021   0.0022   0.0051   0.0008  -0.0013  -0.0016   0.49   15.8
2024/11/12 06:04:43.600   34.744513817  137.764629783    40.7593   1  26   0.0021   0.0022   0.0051   0.0008  -0.0013  -0.0016  -0.41   15.8
2024/11/12 06:04:43.700   34.744516453  137.764637118    40.8319   1  26   0.0021   0.0022   0.0051   0.0008  -0.0012  -0.0016  -0.31   15.8
2024/11/12 06:04:43.800   34.744518961  137.764644616    40.8903   1  25   0.0021   0.0022   0.0052   0.0008  -0.0012  -0.0015  -0.21   15.8
2024/11/12 06:04:43.900   34.744521402  137.764652315    40.9125   1  25   0.0021   0.0022   0.0052   0.0008  -0.0012  -0.0015  -0.11   15.8
2024/11/12 06:04:44.000   34.744523765  137.764660130    40.8916   1  25   0.0021   0.0022   0.0052   0.0008  -0.0012  -0.0015  -0.01   15.8
2024/11/12 06:04:44.100   34.744525966  137.764668169    40.8365   1  25   0.0021   0.0022   0.0052   0.0008  -0.0012  -0.0015   0.09   15.8
2024/11/12 06:04:44.200   34.744527794  137.764676275    40.7721   1  25   0.0021   0.0022   0.0052   0.0008  -0.0012  -0.0016   0.19   15.8
2024/11/12 06:04:44.300   34.744529142  137.764684547    40.6997   1  25   0.0021   0.0022   0.0052   0.0008  -0.0011  -0.0016   0.29   15.8
2024/11/12 06:04:44.400   34.744529878  137.764692868    40.6551   1  24   0.0021   0.0022   0.0055   0.0006  -0.0009  -0.0018   0.39   15.9
2024/11/12 06:04:44.500   34.744529803  137.764701176    40.6566   1  24   0.0021   0.0022   0.0055   0.0007  -0.0008  -0.0018   0.49    3.8
2024/11/12 06:04:44.600   34.744529094  137.764709143    40.6805   1  24   0.0021   0.0022   0.0055   0.0006  -0.0008  -0.0018  -0.41    3.8
2024/11/12 06:04:44.700   34.744527914  137.764716998    40.7405   1  24   0.0021   0.0022   0.0055   0.0006  -0.0008  -0.0018  -0.31    3.8
2024/11/12 06:04:44.800   34.744526735  137.764724713    40.7951   1  24   0.0021   0.0022   0.0055   0.0006  -0.0008  -0.0018  -0.21    3.8
2024/11/12 06:04:44.900   34.744525446  137.764732346    40.8572   1  25   0.0021   0.0022   0.0053   0.0007  -0.0010  -0.0016  -0.11    3.9
2024/11/12 06:04:45.000   34.744524194  137.764740151    40.8970   1  26   0.0021   0.0022   0.0052   0.0007  -0.0011  -0.0015  -0.01    3.9
2024/11/12 06:04:45.100   34.744523103  137.764747913    40.9049   1  26   0.0021   0.0022   0.0052   0.0008  -0.0011  -0.0015   0.09    3.0
2024/11/12 06:04:45.200   34.744522294  137.764755687    40.8840   1  26   0.0021   0.0022   0.0052   0.0008  -0.0012  -0.0015   0.19    3.1
2024/11/12 06:04:45.300   34.744521853  137.764763507    40.8341   1  26   0.0021   0.0022   0.0052   0.0008  -0.0012  -0.0015   0.29    3.2
2024/11/12 06:04:45.400   34.744521938  137.764771245    40.7745   1  26   0.0021   0.0022   0.0052   0.0008  -0.0012  -0.0015   0.39    3.3
2024/11/12 06:04:45.500   34.744522641  137.764778959    40.7244   1  26   0.0021   0.0022   0.0052   0.0008  -0.0012  -0.0014   0.49    3.3
2024/11/12 06:04:45.600   34.744524073  137.764786361    40.6861   1  25   0.0021   0.0022   0.0052   0.0007  -0.0013  -0.0013  -0.41    3.4
2024/11/12 06:04:45.700   34.744526144  137.764793382    40.7012   1  25   0.0021   0.0022   0.0053   0.0007  -0.0013  -0.0013  -0.31    3.5
2024/11/12 06:04:45.800   34.744528572  137.764800298    40.7117   1  24   0.0021   0.0022   0.0053   0.0007  -0.0013  -0.0012  -0.21    3.6
2024/11/12 06:04:45.900   34.744531294  137.764806957    40.7218   1  24   0.0021   0.0022   0.0052   0.0007  -0.0012  -0.0013  -0.11    3.6
2024/11/12 06:04:46.000   34.744534492  137.764813315    40.7298   1  24   0.0021   0.0022   0.0053   0.0007  -0.0013  -0.0012  -0.01    3.7
2024/11/12 06:04:46.100   34.744538135  137.764819396    40.7174   1  24   0.0021   0.0022   0.0054   0.0007  -0.0013  -0.0012   0.09    3.8
2024/11/12 06:04:46.200   34.744542204  137.764824949    40.7148   1  24   0.0021   0.0022   0.0054   0.0007  -0.0013  -0.0011   0.19    3.9
2024/11/12 06:04:46.300   34.744546652  137.764829919    40.7264   1  23   0.0022   0.0022   0.0054   0.0007  -0.0013  -0.0010   0.29    3.9
2024/11/12 06:04:46.400   34.744551373  137.764834497    40.7369   1  24   0.0022   0.0022   0.0054   0.0007  -0.0014  -0.0010   0.39    4.0
2024/11/12 06:04:46.500   34.744556386  137.764838594    40.7335   1  24   0.0022   0.0022   0.0054   0.0007  -0.0014  -0.0010   0.49    4.1
2024/11/12 06:04:46.600   34.744561628  137.764842153    40.7311   1  25   0.0022   0.0022   0.0054   0.0007  -0.0014  -0.0011  -0.41    4.1
2024/11/12 06:04:46.700   34.744567034  137.764844988    40.7342   1  25   0.0023   0.0022   0.0055   0.0006  -0.0015  -0.0006  -0.31    4.2
2024/11/12 06:04:46.800   34.744572626  137.764847335    40.7310   1  24   0.0022   0.0022   0.0055   0.0006  -0.0015  -0.0007  -0.21    4.3
2024/11/12 06:04:46.900   34.744578343  137.764849067    40.7272   1  24   0.0022   0.0022   0.0055   0.0007  -0.0014  -0.0008  -0.11    4.4
2024/11/12 06:04:47.000   34.744584138  137.764849880    40.7347   1  24   0.0022   0.0022   0.0055   0.0007  -0.0014  -0.0008  -0.01    4.4
2024/11/12 06:04:47.100   34.744589929  137.764850002    40.7512   1  24   0.0023   0.0022   0.0056   0.0007  -0.0014  -0.0007   0.09    4.5
2024/11/12 06:04:47.200   34.744595661  137.764849624    40.7646   1  23   0.0023   0.0022   0.0057   0.0006  -0.0014  -0.0003   0.19    4.6
2024/11/12 06:04:47.300   34.744601339  137.764848518    40.7743   1  23   0.0024   0.0022   0.0058   0.0006  -0.0014   0.0002   0.29    4.6
2024/11/12 06:04:47.400   34.744606868  137.764846692    40.7754   1  22   0.0024   0.0022   0.0059   0.0005  -0.0014  -0.0003   0.39    4.7
2024/11/12 06:04:47.500   34.744612228  137.764844354    40.7668   1  23   0.0025   0.0022   0.0062   0.0002  -0.0015   0.0008   0.49    4.8
2024/11/12 06:04:47.600   34.744617398  137.764841323    40.7719   2  22   0.0025   0.0022   0.0062   0.0002  -0.0016   0.0009  -0.41    4.8
2024/11/12 06:04:47.700   34.744622381  137.764837784    40.7524   1  22   0.0024   0.0022   0.0062   0.0003  -0.0014  -0.0002  -0.31    4.9
2024/11/12 06:04:47.800   34.744626977  137.764833579    40.7626   1  22   0.0025   0.0022   0.0064  -0.0002  -0.0015   0.0008  -0.21    5.0
2024/11/12 06:04:47.900   34.744631359  137.764829006    40.7746   1  22   0.0025   0.0022   0.0064  -0.0002  -0.0015   0.0008  -0.11    5.0
2024/11/12 06:04:48.000   34.744635624  137.764824079    40.7876   1  23   0.0024   0.0022   0.0061   0.0004  -0.0014  -0.0006  -0.01    5.1
2024/11/12 06:04:48.100   34.744639551  137.764818769    40.8002   1  24   0.0024   0.0022   0.0060   0.0005  -0.0013  -0.0009   0.09    5.2
2024/11/12 06:04:48.200   34.744643201  137.764813036    40.8087   1  25   0.0024   0.0022   0.0060   0.0005  -0.0012  -0.0010   0.19    5.2
2024/11/12 06:04:48.300   34.744646532  137.764806982    40.8047   1  25   0.0024   0.0022   0.0059   0.0005  -0.0012  -0.0011   0.29    5.3
2024/11/12 06:04:48.400   34.744649481  137.764800627    40.8031   1  25   0.0024   0.0022   0.0059   0.0005  -0.0012  -0.0011   0.39    5.4
2024/11/12 06:04:48.500   34.744651890  137.764793980    40.7950   1  25   0.0024   0.0022   0.0059   0.0005  -0.0012  -0.0011   0.49    5.4
2024/11/12 06:04:48.600   34.744653863  137.764787010    40.7811   1  25   0.0024   0.0022   0.0059   0.0005  -0.0012  -0.0011  -0.41    5.5
2024/11/12 06:04:48.700   34.744655233  137.764779839    40.7833   1  25   0.0024   0.0022   0.0059   0.0005  -0.0012  -0.0011  -0.31    5.5
2024/11/12 06:04:48.800   34.744655987  137.764772578    40.7923   1  25   0.0024   0.0022   0.0059   0.0005  -0.0012  -0.0011  -0.21    5.6
2024/11/12 06:04:48.900   34.744656120  137.764765232    40.8192   1  25   0.0024   0.0022   0.0059   0.0005  -0.0012  -0.0011  -0.11    5.7
2024/11/12 06:04:49.000   34.744655859  137.764757833    40.8557   1  25   0.0024   0.0022   0.0059   0.0005  -0.0012  -0.0011  -0.01    5.7
2024/11/12 06:04:49.100   34.744655250  137.764750448    40.8838   1  25   0.0024   0.0022   0.0059   0.0005  -0.0012  -0.0011   0.09    5.8
2024/11/12 06:04:49.200   34.744654343  137.764743036    40.9119   1  25   0.0024   0.0022   0.0059   0.0005  -0.0012  -0.0011   0.19    5.8
2024/11/12 06:04:49.300   34.744653274  137.764735589    40.9390   1  25   0.0024   0.0022   0.0059   0.0005  -0.0012  -0.0011   0.29    5.9
2024/11/12 06:04:49.400   34.744652279  137.764728021    40.9586   1  25   0.0024   0.0022   0.0059   0.0005  -0.0012  -0.0011   0.39    5.9
2024/11/12 06:04:49.500   34.744651337  137.764720235    40.9678   1  25   0.0024   0.0022   0.0060   0.0005  -0.0013  -0.0011   0.49    6.0
2024/11/12 06:04:49.600   34.744650441  137.764712357    40.9564   1  25   0.0024   0.0022   0.0060   0.0005  -0.0013  -0.0010  -0.41    6.1
2024/11/12 06:04:49.700   34.744649647  137.764704340    40.9451   1  25   0.0024   0.0022   0.0061   0.0005  -0.0014  -0.0009  -0.31    6.1
2024/11/12 06:04:49.800   34.744649098  137.764696188    40.9184   1  25   0.0024   0.0022   0.0061   0.0004  -0.0014  -0.0008  -0.21    6.2
2024/11/12 06:04:49.900   34.744648841  137.764687919    40.8859   1  23   0.0025   0.0023   0.0064  -0.0002  -0.0017   0.0008  -0.11    6.2
2024/11/12 06:04:50.000   34.744649084  137.764679663    40.8572   1  23   0.0025   0.0023   0.0065   0.0002  -0.0017   0.0005  -0.01    6.3
2024/11/12 06:04:50.100   34.744649755  137.764671467    40.8442   1  22   0.0025   0.0023   0.0065  -0.0001  -0.0017   0.0006   0.09    6.3
2024/11/12 06:04:50.200   34.744650833  137.764663422    40.8515   1  22   0.0025   0.0023   0.0067  -0.0004  -0.0019   0.0010   0.19    6.4
2024/11/12 06:04:50.300   34.744652064  137.764655445    40.8748   2  21   0.0025   0.0023   0.0067  -0.0005  -0.0020   0.0010   0.29    6.4
2024/11/12 06:04:50.400   34.744653511  137.764647222    40.9559   1  20   0.0025   0.0025   0.0069  -0.0006  -0.0022   0.0010   0.39    6.5
2024/11/12 06:04:50.500   34.744654848  137.764638974    41.0014   1  20   0.0025   0.0025   0.0070  -0.0005  -0.0023   0.0008   0.49    6.5
2024/11/12 06:04:50.600   34.744656049  137.764630569    40.9987   1  20   0.0026   0.0026   0.0074   0.0001  -0.0024  -0.0007  -0.41    6.7
2024/11/12 06:04:50.700   34.744657057  137.764622121    40.9854   1  19   0.0025   0.0026   0.0074   0.0003  -0.0025  -0.0009  -0.31    6.7
2024/11/12 06:04:50.800   34.744657745  137.764613630    40.9598   1  20   0.0026   0.0026   0.0074   0.0004  -0.0025  -0.0010  -0.21    6.8
2024/11/12 06:04:50.900   34.744658083  137.764605018    40.9034   1  22   0.0025   0.0026   0.0072   0.0006  -0.0024  -0.0014  -0.11    6.8
2024/11/12 06:04:51.000   34.744657883  137.764596438    40.8583   1  22   0.0026   0.0027   0.0077   0.0008  -0.0028  -0.0015  -0.01    6.9
2024/11/12 06:04:51.100   34.744657013  137.764587945    40.8342   1  23   0.0026   0.0027   0.0078   0.0008  -0.0028  -0.0016   0.09    7.0
2024/11/12 06:04:51.200   34.744655552  137.764579582    40.8480   1  23   0.0026   0.0027   0.0077   0.0009  -0.0027  -0.0017   0.19    7.0
2024/11/12 06:04:51.300   34.744653752  137.764571288    40.8851   1  22   0.0026   0.0027   0.0077   0.0009  -0.0027  -0.0017   0.29    7.1
2024/11/12 06:04:51.400   34.744651687  137.764563074    40.9260   1  22   0.0026   0.0027   0.0077   0.0009  -0.0027  -0.0017   0.39    7.1
2024/11/12 06:04:51.500   34.744649445  137.764554839    40.9645   1  22   0.0026   0.0027   0.0078   0.0009  -0.0027  -0.0017   0.49    7.2
2024/11/12 06:04:51.600   34.744647148  137.764546450    41.0084   1  22   0.0026   0.0027   0.0079   0.0009  -0.0028  -0.0016  -0.41    7.2
2024/11/12 06:04:51.700   34.744644826  137.764537920    41.0193   1  23   0.0026   0.0027   0.0078   0.0008  -0.0028  -0.0015  -0.31    7.3
2024/11/12 06:04:51.800   34.744642569  137.764529256    41.0185   1  23   0.0026   0.0027   0.0075   0.0009  -0.0027  -0.0014  -0.21    7.3
2024/11/12 06:04:51.900   34.744640453  137.764520470    40.9877   1  21   0.0026   0.0027   0.0077   0.0008  -0.0028  -0.0011  -0.11    7.3
2024/11/12 06:04:52.000   34.744638529  137.764511427    40.9231   1  23   0.0026   0.0026   0.0076   0.0006  -0.0026  -0.0004  -0.01    7.3
2024/11/12 06:04:52.100   34.744637086  137.764502356    40.8567   1  24   0.0026   0.0026   0.0076   0.0004  -0.0027  -0.0003   0.09    7.4
2024/11/12 06:04:52.200   34.744636250  137.764493172    40.7877   1  24   0.0026   0.0026   0.0076   0.0002  -0.0027   0.0005   0.19    7.4
2024/11/12 06:04:52.300   34.744636156  137.764483990    40.7636   1  23   0.0026   0.0026   0.0078  -0.0005  -0.0029   0.0012   0.29    7.4
2024/11/12 06:04:52.400   34.744636687  137.764474970    40.7832   1  21   0.0026   0.0027   0.0079  -0.0005  -0.0029   0.0013   0.39    6.7
2024/11/12 06:04:52.500   34.744637551  137.764465968    40.8384   1  21   0.0026   0.0026   0.0078  -0.0006  -0.0028   0.0013   0.49    6.7
2024/11/12 06:04:52.600   34.744638590  137.764457122    40.9083   1  20   0.0026   0.0026   0.0074  -0.0002  -0.0026   0.0003  -0.41    6.8
2024/11/12 06:04:52.700   34.744639593  137.764448142    40.9612   1  20   0.0026   0.0026   0.0073   0.0003  -0.0026  -0.0005  -0.31    6.8
2024/11/12 06:04:52.800   34.744640504  137.764439227    40.9873   1  21   0.0025   0.0025   0.0071  -0.0000  -0.0024  -0.0004  -0.21    6.8
2024/11/12 06:04:52.900   34.744641331  137.764430373    40.9986   1  22   0.0025   0.0026   0.0072   0.0005  -0.0026  -0.0010  -0.11    6.9
2024/11/12 06:04:53.000   34.744641916  137.764421498    40.9733   1  22   0.0026   0.0026   0.0071   0.0006  -0.0026  -0.0011  -0.01    6.9
2024/11/12 06:04:53.100   34.744642186  137.764412601    40.9401   1  22   0.0026   0.0026   0.0069   0.0009  -0.0025  -0.0016   0.09    6.9
2024/11/12 06:04:53.200   34.744642123  137.764403802    40.8991   1  24   0.0024   0.0025   0.0065   0.0010  -0.0022  -0.0021   0.19    6.9
2024/11/12 06:04:53.300   34.744641515  137.764395008    40.8688   1  24   0.0024   0.0025   0.0065   0.0011  -0.0022  -0.0022   0.29    7.0
2024/11/12 06:04:53.400   34.744640517  137.764386440    40.8579   1  24   0.0023   0.0024   0.0065   0.0011  -0.0021  -0.0022   0.39    7.0
2024/11/12 06:04:53.500   34.744639168  137.764378008    40.8539   1  24   0.0023   0.0024   0.0064   0.0011  -0.0021  -0.0023   0.49    7.0
2024/11/12 06:04:53.600   34.744637432  137.764369682    40.8499   1  24   0.0023   0.0024   0.0063   0.0011  -0.0020  -0.0023  -0.41    7.1
2024/11/12 06:04:53.700   34.744635313  137.764361620    40.8453   1  24   0.0023   0.0024   0.0062   0.0011  -0.0020  -0.0023  -0.31    7.1
2024/11/12 06:04:53.800   34.744632694  137.764353789    40.8495   1  24   0.0023   0.0024   0.0061   0.0011  -0.0019  -0.0023  -0.21    7.1
2024/11/12 06:04:53.900   34.744629806  137.764346123    40.8382   1  24   0.0023   0.0024   0.0060   0.0011  -0.0020  -0.0022  -0.11    7.1
2024/11/12 06:04:54.000   34.744626472  137.764338825    40.8253   1  24   0.0023   0.0024   0.0060   0.0011  -0.0020  -0.0022  -0.01    7.2
2024/11/12 06:04:54.100   34.744622737  137.764331809    40.8076   1  24   0.0023   0.0024   0.0059   0.0011  -0.0020  -0.0022   0.09    7.2
2024/11/12 06:04:54.200   34.744618640  137.764325152    40.7827   1  24   0.0023   0.0024   0.0059   0.0011  -0.0019  -0.0022   0.19    7.3
2024/11/12 06:04:54.300   34.744614116  137.764319037    40.7653   1  25   0.0022   0.0024   0.0058   0.0011  -0.0020  -0.0021   0.29    7.3
2024/11/12 06:04:54.400   34.744609229  137.764313429    40.7389   1  25   0.0023   0.0024   0.0058   0.0011  -0.0019  -0.0021   0.39    7.3
2024/11/12 06:04:54.500   34.744604018  137.764308303    40.7165   1  26   0.0022   0.0023   0.0057   0.0010  -0.0017  -0.0020   0.49    7.3
2024/11/12 06:04:54.600   34.744598424  137.764303848    40.6983   1  26   0.0021   0.0022   0.0055   0.0009  -0.0015  -0.0018  -0.41    7.4
2024/11/12 06:04:54.700   34.744592551  137.764300261    40.6870   1  26   0.0021   0.0023   0.0054   0.0009  -0.0015  -0.0018  -0.31    7.4
2024/11/12 06:04:54.800   34.744586450  137.764297398    40.6804   1  26   0.0021   0.0022   0.0054   0.0009  -0.0015  -0.0017  -0.21    7.4
2024/11/12 06:04:54.900   34.744580249  137.764295262    40.6733   1  26   0.0021   0.0022   0.0053   0.0008  -0.0014  -0.0017  -0.11    7.4
2024/11/12 06:04:55.000   34.744573972  137.764293851    40.6559   1  26   0.0021   0.0022   0.0053   0.0008  -0.0014  -0.0016  -0.01    7.4
2024/11/12 06:04:55.100   34.744567640  137.764293230    40.6472   1  26   0.0021   0.0022   0.0052   0.0008  -0.0014  -0.0016   0.09    7.5
2024/11/12 06:04:55.200   34.744561407  137.764293425    40.6409   1  26   0.0021   0.0022   0.0052   0.0008  -0.0013  -0.0016   0.19    7.5
2024/11/12 06:04:55.300   34.744555332  137.764294445    40.6476   1  26   0.0021   0.0022   0.0052   0.0008  -0.0013  -0.0016   0.29    7.5
2024/11/12 06:04:55.400   34.744549336  137.764295955    40.6487   1  26   0.0021   0.0022   0.0053   0.0008  -0.0013  -0.0016   0.39    7.5
2024/11/12 06:04:55.500   34.744543489  137.764298082    40.6374   1  26   0.0021   0.0022   0.0053   0.0007  -0.0013  -0.0016   0.49    7.5
2024/11/12 06:04:55.600   34.744537812  137.764300802    40.6315   1  26   0.0021   0.0022   0.0053   0.0007  -0.0012  -0.0016  -0.41    7.6
2024/11/12 06:04:55.700   34.744532325  137.764304045    40.6205   1  25   0.0021   0.0022   0.0054   0.0007  -0.0011  -0.0017  -0.31    7.6
2024/11/12 06:04:55.800   34.744527299  137.764307935    40.6200   1  24   0.0021   0.0022   0.0055   0.0007  -0.0010  -0.0017  -0.21    7.6
2024/11/12 06:04:55.900   34.744522640  137.764312441    40.6434   1  24   0.0021   0.0022   0.0056   0.0007  -0.0009  -0.0018  -0.11    7.6
2024/11/12 06:04:56.000   34.744518193  137.764317313    40.6614   1  24   0.0021   0.0022   0.0056   0.0006  -0.0009  -0.0018  -0.01    7.7
2024/11/12 06:04:56.100   34.744513914  137.764322492    40.6748   1  24   0.0021   0.0022   0.0056   0.0007  -0.0009  -0.0017   0.09    7.7
2024/11/12 06:04:56.200   34.744509978  137.764328113    40.6891   1  25   0.0022   0.0022   0.0056   0.0007  -0.0009  -0.0017   0.19    7.7
2024/11/12 06:04:56.300   34.744506299  137.764334043    40.6991   1  25   0.0021   0.0022   0.0055   0.0007  -0.0010  -0.0016   0.29    7.7
2024/11/12 06:04:56.400   34.744502885  137.764340311    40.7032   1  26   0.0021   0.0022   0.0054   0.0007  -0.0011  -0.0015   0.39    7.8
2024/11/12 06:04:56.500   34.744499879  137.764346870    40.7100   1  26   0.0021   0.0022   0.0054   0.0008  -0.0011  -0.0015   0.49    7.8
2024/11/12 06:04:56.600   34.744497316  137.764353692    40.7150   1  26   0.0021   0.0022   0.0053   0.0008  -0.0012  -0.0015  -0.41    7.8
2024/11/12 06:04:56.700   34.744495149  137.764360741    40.7201   1  26   0.0021   0.0022   0.0053   0.0008  -0.0012  -0.0015  -0.31    7.8
2024/11/12 06:04:56.800   34.744493355  137.764367991    40.7348   1  26   0.0021   0.0022   0.0052   0.0008  -0.0012  -0.0015  -0.21    7.9
2024/11/12 06:04:56.900   34.744491879  137.764375380    40.7394   1  26   0.0021   0.0022   0.0052   0.0008  -0.0012  -0.0015  -0.11    7.9
2024/11/12 06:04:57.000   34.744490746  137.764382931    40.7481   1  25   0.0021   0.0022   0.0052   0.0007  -0.0012  -0.0014  -0.01    7.9
2024/11/12 06:04:57.100   34.744490030  137.764390544    40.7593   1  25   0.0021   0.0022   0.0052   0.0007  -0.0012  -0.0014   0.09    7.9
2024/11/12 06:04:57.200   34.744489597  137.764398301    40.7616   1  25   0.0021   0.0022   0.0052   0.0008  -0.0012  -0.0014   0.19    7.9
2024/11/12 06:04:57.300   34.744489448  137.764406152    40.7509   1  26   0.0021   0.0022   0.0052   0.0008  -0.0012  -0.0014   0.29    8.0
2024/11/12 06:04:57.400   34.744489877  137.764413952    40.7362   1  26   0.0021   0.0022   0.0052   0.0008  -0.0012  -0.0014   0.39    8.0
2024/11/12 06:04:57.500   34.744490800  137.764421641    40.7292   1  26   0.0021   0.0022   0.0052   0.0008  -0.0012  -0.0014   0.49    8.0
2024/11/12 06:04:57.600   34.744492261  137.764429157    40.7382   1  26   0.0021   0.0022   0.0052   0.0008  -0.0012  -0.0014  -0.41    8.0
2024/11/12 06:04:57.700   34.744494159  137.764436512    40.7544   1  25   0.0021   0.0022   0.0052   0.0008  -0.0012  -0.0014  -0.31    8.1
2024/11/12 06:04:57.800   34.744496294  137.764443749    40.7921   1  25   0.0021   0.0022   0.0052   0.0008  -0.0012  -0.0014  -0.21    8.1
2024/11/12 06:04:57.900   34.744498541  137.764450911    40.8202   1  25   0.0021   0.0022   0.0052   0.0007  -0.0012  -0.0014  -0.11    8.1
2024/11/12 06:04:58.000   34.744500904  137.764458104    40.8427   1  25   0.0021   0.0022   0.0052   0.0007  -0.0012  -0.0014  -0.01    8.1
2024/11/12 06:04:58.100   34.744503271  137.764465337    40.8535   1  25   0.0021   0.0022   0.0052   0.0007  -0.0012  -0.0014   0.09    8.1
2024/11/12 06:04:58.200   34.744505633  137.764472591    40.8460   1  25   0.0021   0.0022   0.0052   0.0007  -0.0012  -0.0014   0.19    8.2
2024/11/12 06:04:58.300   34.744507911  137.764479984    40.8345   1  25   0.0021   0.0022   0.0052   0.0007  -0.0012  -0.0015   0.29    8.2
2024/11/12 06:04:58.400   34.744510034  137.764487531    40.8062   1  26   0.0021   0.0022   0.0053   0.0007  -0.0012  -0.0015   0.39    8.2
2024/11/12 06:04:58.500   34.744511881  137.764495222    40.7630   1  26   0.0021   0.0022   0.0053   0.0007  -0.0012  -0.0015   0.49    8.2
2024/11/12 06:04:58.600   34.744513256  137.764503100    40.7161   1  26   0.0021   0.0022   0.0054   0.0007  -0.0011  -0.0015  -0.41    8.2
2024/11/12 06:04:58.700   34.744514092  137.764511144    40.6737   1  26   0.0021   0.0022   0.0054   0.0007  -0.0011  -0.0016  -0.31    8.3
2024/11/12 06:04:58.800   34.744514242  137.764519178    40.6627   1  25   0.0021   0.0022   0.0056   0.0006  -0.0009  -0.0018  -0.21    8.3
2024/11/12 06:04:58.900   34.744513764  137.764527132    40.6895   1  25   0.0021   0.0022   0.0056   0.0006  -0.0008  -0.0018  -0.11    8.3
2024/11/12 06:04:59.000   34.744512927  137.764534981    40.7415   1  25   0.0021   0.0022   0.0056   0.0006  -0.0008  -0.0018  -0.01    8.3
2024/11/12 06:04:59.100   34.744512015  137.764542841    40.7916   1  25   0.0021   0.0022   0.0056   0.0006  -0.0009  -0.0018   0.09    8.4
2024/11/12 06:04:59.200   34.744511025  137.764550707    40.8455   1  25   0.0021   0.0022   0.0055   0.0006  -0.0010  -0.0017   0.19    8.4
