% program   : RTKPOST demo5 b34j
% inp file  : C:\Users\cs21014\Documents\Kitani\241112hyod\src\02\GNSS_MT\gnss0\ubx\241112_14.obs
% inp file  : C:\Users\cs21014\Documents\Kitani\241112hyod\src\rtk_base\COM4___9600_241112_050705.obs
% inp file  : C:\Users\cs21014\Documents\Kitani\241112hyod\src\rtk_base\COM4___9600_241112_050705.nav
% obs start : 2024/11/12 05:24:18.0 GPST (week2340 192258.0s)
% obs end   : 2024/11/12 05:28:44.7 GPST (week2340 192524.7s)
% pos mode  : Kinematic
% freqs     : L1+L2/E5b+L5
% solution  : Combined-Phase Reset
% elev mask : 15.0 deg
% dynamics  : on
% tidecorr  : on
% ionos opt : Broadcast
% tropo opt : Saastamoinen
% ephemeris : Broadcast
% navi sys  : GPS GLONASS Galileo QZSS BDS NavIC
% amb res   : Fix and Hold
% amb glo   : Fix and Hold
% val thres : 3.0
% antenna1  :                       ( 0.0000  0.0000  0.0000)
% antenna2  :                       ( 0.0000  0.0000  0.0000)
% ref pos   : 34.744454383  137.764618776    40.7897
%
% (lat/lon/height=WGS84/ellipsoidal,Q=1:fix,2:float,3:sbas,4:dgps,5:single,6:ppp,ns=# of satellites)
%  GPST                  latitude(deg) longitude(deg)  height(m)   Q  ns   sdn(m)   sde(m)   sdu(m)  sdne(m)  sdeu(m)  sdun(m) age(s)  ratio
2024/11/12 05:24:18.000   34.744631617  137.764302464    41.0001   1  23   0.0034   0.0038   0.0072   0.0020  -0.0031  -0.0032  -0.01    3.3
2024/11/12 05:24:18.100   34.744631619  137.764302444    40.9976   1  23   0.0034   0.0038   0.0072   0.0020  -0.0031  -0.0032   0.09    3.3
2024/11/12 05:24:18.200   34.744631609  137.764302452    40.9977   1  23   0.0034   0.0038   0.0072   0.0020  -0.0031  -0.0032   0.19    3.3
2024/11/12 05:24:18.300   34.744631605  137.764302463    40.9993   1  23   0.0034   0.0038   0.0072   0.0020  -0.0031  -0.0032   0.29    3.3
2024/11/12 05:24:18.400   34.744631606  137.764302450    40.9993   1  23   0.0034   0.0038   0.0072   0.0020  -0.0031  -0.0032   0.39    3.3
2024/11/12 05:24:18.500   34.744631591  137.764302432    41.0028   1  23   0.0034   0.0038   0.0072   0.0020  -0.0031  -0.0032   0.49    3.3
2024/11/12 05:24:18.600   34.744631621  137.764302435    41.0030   1  23   0.0034   0.0038   0.0072   0.0020  -0.0031  -0.0032  -0.41    3.3
2024/11/12 05:24:18.700   34.744631627  137.764302431    41.0034   1  23   0.0034   0.0038   0.0072   0.0020  -0.0031  -0.0032  -0.31    3.3
2024/11/12 05:24:18.800   34.744631610  137.764302442    41.0031   1  23   0.0034   0.0038   0.0072   0.0020  -0.0031  -0.0032  -0.21    3.3
2024/11/12 05:24:18.900   34.744631612  137.764302424    41.0032   1  23   0.0034   0.0038   0.0072   0.0020  -0.0031  -0.0032  -0.11    3.3
2024/11/12 05:24:19.000   34.744631614  137.764302415    41.0046   1  23   0.0034   0.0038   0.0072   0.0020  -0.0031  -0.0032  -0.01    3.3
2024/11/12 05:24:19.100   34.744631605  137.764302437    41.0036   1  23   0.0034   0.0038   0.0072   0.0020  -0.0031  -0.0032   0.09    3.3
2024/11/12 05:24:19.200   34.744631598  137.764302439    41.0042   1  23   0.0034   0.0038   0.0072   0.0020  -0.0031  -0.0032   0.19    3.3
2024/11/12 05:24:19.300   34.744631606  137.764302425    41.0050   1  23   0.0034   0.0038   0.0072   0.0020  -0.0031  -0.0032   0.29    3.3
2024/11/12 05:24:19.400   34.744631594  137.764302440    41.0042   1  23   0.0034   0.0038   0.0072   0.0020  -0.0031  -0.0032   0.39    3.3
2024/11/12 05:24:19.500   34.744631589  137.764302429    41.0058   1  23   0.0034   0.0038   0.0072   0.0020  -0.0031  -0.0032   0.49    3.3
2024/11/12 05:24:19.600   34.744631598  137.764302428    41.0054   1  23   0.0034   0.0038   0.0072   0.0020  -0.0031  -0.0032  -0.41    3.3
2024/11/12 05:24:19.700   34.744631593  137.764302410    41.0071   1  23   0.0034   0.0038   0.0072   0.0020  -0.0031  -0.0032  -0.31    3.3
2024/11/12 05:24:19.800   34.744631585  137.764302426    41.0050   1  23   0.0034   0.0038   0.0072   0.0020  -0.0031  -0.0032  -0.21    3.3
2024/11/12 05:24:19.900   34.744631596  137.764302436    41.0035   1  23   0.0034   0.0038   0.0072   0.0020  -0.0031  -0.0032  -0.11    3.2
2024/11/12 05:24:20.000   34.744631585  137.764302401    41.0047   1  23   0.0034   0.0038   0.0072   0.0020  -0.0031  -0.0032  -0.01    3.2
2024/11/12 05:24:20.100   34.744631595  137.764302427    41.0023   1  23   0.0034   0.0038   0.0072   0.0020  -0.0031  -0.0032   0.09    3.2
2024/11/12 05:24:20.200   34.744631573  137.764302423    41.0041   1  23   0.0034   0.0038   0.0072   0.0020  -0.0031  -0.0032   0.19    3.2
2024/11/12 05:24:20.300   34.744631586  137.764302429    41.0026   1  23   0.0034   0.0038   0.0072   0.0020  -0.0031  -0.0032   0.29    3.2
2024/11/12 05:24:20.400   34.744631575  137.764302423    41.0035   1  23   0.0034   0.0038   0.0072   0.0020  -0.0031  -0.0032   0.39    3.2
2024/11/12 05:24:20.500   34.744631579  137.764302435    41.0025   1  23   0.0034   0.0038   0.0072   0.0020  -0.0031  -0.0032   0.49    3.2
2024/11/12 05:24:20.600   34.744631611  137.764302434    41.0017   1  23   0.0034   0.0038   0.0072   0.0020  -0.0031  -0.0032  -0.41    3.2
2024/11/12 05:24:20.700   34.744631598  137.764302442    40.9995   1  23   0.0034   0.0038   0.0072   0.0020  -0.0031  -0.0032  -0.31    3.2
2024/11/12 05:24:20.800   34.744631606  137.764302442    41.0003   1  23   0.0034   0.0038   0.0072   0.0020  -0.0031  -0.0032  -0.21    3.2
2024/11/12 05:24:20.900   34.744631603  137.764302441    41.0011   1  23   0.0034   0.0038   0.0072   0.0020  -0.0031  -0.0032  -0.11    3.2
2024/11/12 05:24:21.000   34.744631602  137.764302437    41.0006   1  23   0.0034   0.0038   0.0072   0.0020  -0.0031  -0.0032  -0.01    3.2
2024/11/12 05:24:21.100   34.744631618  137.764302457    41.0002   1  23   0.0034   0.0038   0.0072   0.0020  -0.0031  -0.0032   0.09    3.2
2024/11/12 05:24:21.200   34.744631599  137.764302450    41.0021   1  23   0.0034   0.0038   0.0072   0.0020  -0.0031  -0.0032   0.19    3.2
2024/11/12 05:24:21.300   34.744631595  137.764302459    40.9990   1  23   0.0034   0.0038   0.0072   0.0020  -0.0031  -0.0032   0.29    3.2
2024/11/12 05:24:21.400   34.744631595  137.764302439    40.9997   1  23   0.0034   0.0038   0.0072   0.0020  -0.0031  -0.0032   0.39    3.2
2024/11/12 05:24:21.500   34.744631602  137.764302448    40.9988   1  23   0.0034   0.0038   0.0072   0.0020  -0.0031  -0.0032   0.49    3.2
2024/11/12 05:24:21.600   34.744631596  137.764302421    41.0005   1  23   0.0034   0.0038   0.0072   0.0020  -0.0031  -0.0032  -0.41    3.2
2024/11/12 05:24:21.700   34.744631597  137.764302437    41.0016   1  23   0.0034   0.0038   0.0072   0.0020  -0.0031  -0.0032  -0.31    3.2
2024/11/12 05:24:21.800   34.744631594  137.764302433    41.0028   1  23   0.0034   0.0038   0.0072   0.0020  -0.0031  -0.0032  -0.21    3.2
2024/11/12 05:24:21.900   34.744631604  137.764302442    41.0002   1  23   0.0034   0.0038   0.0072   0.0020  -0.0031  -0.0032  -0.11    3.2
2024/11/12 05:24:22.000   34.744631602  137.764302448    40.9974   1  23   0.0034   0.0038   0.0072   0.0020  -0.0031  -0.0032  -0.01    3.1
2024/11/12 05:24:22.100   34.744631607  137.764302449    40.9996   1  23   0.0034   0.0038   0.0072   0.0020  -0.0031  -0.0032   0.09    3.1
2024/11/12 05:24:22.200   34.744631589  137.764302418    41.0036   1  23   0.0034   0.0038   0.0072   0.0020  -0.0031  -0.0032   0.19    3.1
2024/11/12 05:24:22.300   34.744631607  137.764302442    41.0009   1  23   0.0024   0.0026   0.0051   0.0014  -0.0022  -0.0023   0.29    3.7
2024/11/12 05:24:22.400   34.744631596  137.764302442    41.0032   1  23   0.0024   0.0027   0.0051   0.0014  -0.0022  -0.0023   0.39    3.7
2024/11/12 05:24:22.500   34.744631592  137.764302420    41.0019   1  23   0.0024   0.0027   0.0051   0.0014  -0.0022  -0.0023   0.49    3.7
2024/11/12 05:24:22.600   34.744631629  137.764302451    40.9990   1  23   0.0024   0.0027   0.0051   0.0014  -0.0022  -0.0023  -0.41    3.7
2024/11/12 05:24:22.700   34.744631617  137.764302470    40.9985   1  23   0.0024   0.0026   0.0051   0.0014  -0.0022  -0.0023  -0.31    3.7
2024/11/12 05:24:22.800   34.744631630  137.764302456    40.9958   1  23   0.0024   0.0026   0.0051   0.0014  -0.0022  -0.0023  -0.21    3.7
2024/11/12 05:24:22.900   34.744631630  137.764302472    40.9971   1  23   0.0024   0.0026   0.0051   0.0014  -0.0022  -0.0023  -0.11    3.7
2024/11/12 05:24:23.000   34.744631614  137.764302478    40.9992   1  23   0.0024   0.0026   0.0051   0.0014  -0.0022  -0.0023  -0.01    3.7
2024/11/12 05:24:23.100   34.744631611  137.764302464    40.9990   1  23   0.0024   0.0026   0.0051   0.0014  -0.0022  -0.0023   0.09    3.7
2024/11/12 05:24:23.200   34.744631620  137.764302480    40.9978   1  23   0.0024   0.0026   0.0051   0.0014  -0.0022  -0.0023   0.19    3.7
2024/11/12 05:24:23.300   34.744631604  137.764302473    40.9983   1  23   0.0024   0.0026   0.0051   0.0014  -0.0022  -0.0023   0.29    3.7
2024/11/12 05:24:23.400   34.744631621  137.764302477    40.9962   1  23   0.0024   0.0027   0.0051   0.0014  -0.0022  -0.0023   0.39    3.7
2024/11/12 05:24:23.500   34.744631608  137.764302468    40.9983   1  23   0.0024   0.0027   0.0051   0.0014  -0.0022  -0.0023   0.49    3.7
2024/11/12 05:24:23.600   34.744631609  137.764302449    40.9993   1  23   0.0024   0.0027   0.0051   0.0014  -0.0022  -0.0023  -0.41    3.7
2024/11/12 05:24:23.700   34.744631612  137.764302445    40.9994   1  23   0.0024   0.0026   0.0051   0.0014  -0.0022  -0.0023  -0.31    3.7
2024/11/12 05:24:23.800   34.744631609  137.764302441    41.0001   1  23   0.0024   0.0026   0.0051   0.0014  -0.0022  -0.0023  -0.21    3.7
2024/11/12 05:24:23.900   34.744631604  137.764302456    41.0015   1  23   0.0024   0.0026   0.0051   0.0014  -0.0022  -0.0023  -0.11    3.7
2024/11/12 05:24:24.000   34.744631603  137.764302446    41.0018   1  23   0.0024   0.0026   0.0051   0.0014  -0.0022  -0.0023  -0.01    3.7
2024/11/12 05:24:24.100   34.744631606  137.764302442    41.0016   1  23   0.0024   0.0026   0.0051   0.0014  -0.0022  -0.0023   0.09    3.7
2024/11/12 05:24:24.200   34.744631605  137.764302461    40.9999   1  23   0.0024   0.0026   0.0051   0.0014  -0.0022  -0.0023   0.19    3.7
2024/11/12 05:24:24.300   34.744631595  137.764302438    40.9984   1  23   0.0024   0.0026   0.0051   0.0014  -0.0022  -0.0023   0.29    3.7
2024/11/12 05:24:24.400   34.744631605  137.764302444    40.9990   1  23   0.0024   0.0027   0.0051   0.0014  -0.0022  -0.0023   0.39    3.7
2024/11/12 05:24:24.500   34.744631599  137.764302447    40.9977   1  23   0.0024   0.0027   0.0051   0.0014  -0.0022  -0.0023   0.49    3.8
2024/11/12 05:24:24.600   34.744631585  137.764302437    41.0026   1  23   0.0024   0.0027   0.0051   0.0014  -0.0022  -0.0023  -0.41    3.8
2024/11/12 05:24:24.700   34.744631600  137.764302441    41.0035   1  23   0.0024   0.0026   0.0051   0.0014  -0.0022  -0.0023  -0.31    3.8
2024/11/12 05:24:24.800   34.744631594  137.764302445    41.0031   1  23   0.0024   0.0026   0.0051   0.0014  -0.0022  -0.0023  -0.21    3.8
2024/11/12 05:24:24.900   34.744631596  137.764302457    40.9995   1  23   0.0024   0.0026   0.0051   0.0014  -0.0022  -0.0023  -0.11    3.8
2024/11/12 05:24:25.000   34.744631603  137.764302456    41.0000   1  23   0.0024   0.0026   0.0051   0.0014  -0.0022  -0.0023  -0.01    3.8
2024/11/12 05:24:25.100   34.744631601  137.764302470    41.0006   1  23   0.0024   0.0026   0.0051   0.0014  -0.0022  -0.0023   0.09    3.8
2024/11/12 05:24:25.200   34.744631582  137.764302464    40.9998   1  23   0.0024   0.0026   0.0051   0.0014  -0.0022  -0.0023   0.19    3.8
2024/11/12 05:24:25.300   34.744631594  137.764302456    41.0001   1  23   0.0024   0.0026   0.0051   0.0014  -0.0022  -0.0023   0.29    3.9
2024/11/12 05:24:25.400   34.744631578  137.764302444    41.0037   1  23   0.0024   0.0027   0.0051   0.0014  -0.0022  -0.0023   0.39    3.9
2024/11/12 05:24:25.500   34.744631587  137.764302453    40.9992   1  23   0.0024   0.0027   0.0051   0.0014  -0.0022  -0.0023   0.49    3.9
2024/11/12 05:24:25.600   34.744631610  137.764302471    40.9975   1  23   0.0033   0.0037   0.0071   0.0020  -0.0031  -0.0032  -0.41    3.9
2024/11/12 05:24:25.700   34.744631610  137.764302480    40.9977   1  23   0.0033   0.0037   0.0071   0.0020  -0.0031  -0.0032  -0.31    3.9
2024/11/12 05:24:25.800   34.744631609  137.764302446    41.0005   1  23   0.0033   0.0037   0.0071   0.0020  -0.0031  -0.0032  -0.21    3.9
2024/11/12 05:24:25.900   34.744631594  137.764302444    41.0002   1  23   0.0033   0.0037   0.0071   0.0020  -0.0031  -0.0032  -0.11    3.9
2024/11/12 05:24:26.000   34.744631597  137.764302472    40.9977   1  23   0.0033   0.0037   0.0071   0.0020  -0.0031  -0.0032  -0.01    3.9
2024/11/12 05:24:26.100   34.744631607  137.764302475    40.9983   1  23   0.0033   0.0037   0.0071   0.0020  -0.0031  -0.0032   0.09    3.9
2024/11/12 05:24:26.200   34.744631592  137.764302448    41.0014   1  23   0.0033   0.0037   0.0071   0.0020  -0.0031  -0.0032   0.19    3.9
2024/11/12 05:24:26.300   34.744631598  137.764302456    41.0006   1  23   0.0033   0.0037   0.0071   0.0020  -0.0031  -0.0032   0.29    3.9
2024/11/12 05:24:26.400   34.744631584  137.764302468    41.0021   1  23   0.0033   0.0037   0.0071   0.0020  -0.0031  -0.0032   0.39    3.9
2024/11/12 05:24:26.500   34.744631583  137.764302445    41.0037   1  23   0.0033   0.0037   0.0071   0.0020  -0.0031  -0.0032   0.49    3.9
2024/11/12 05:24:26.600   34.744631605  137.764302467    41.0001   1  23   0.0033   0.0037   0.0071   0.0020  -0.0031  -0.0032  -0.41    4.0
2024/11/12 05:24:26.700   34.744631604  137.764302455    40.9994   1  23   0.0033   0.0037   0.0071   0.0020  -0.0031  -0.0032  -0.31    4.0
2024/11/12 05:24:26.800   34.744631608  137.764302471    40.9966   1  23   0.0033   0.0037   0.0071   0.0020  -0.0031  -0.0032  -0.21    4.0
2024/11/12 05:24:26.900   34.744631603  137.764302473    40.9955   1  23   0.0033   0.0037   0.0071   0.0020  -0.0031  -0.0032  -0.11    4.0
2024/11/12 05:24:27.000   34.744631603  137.764302461    40.9963   1  23   0.0033   0.0037   0.0071   0.0020  -0.0031  -0.0032  -0.01    4.0
2024/11/12 05:24:27.100   34.744631605  137.764302463    40.9963   1  23   0.0033   0.0037   0.0071   0.0020  -0.0031  -0.0032   0.09    4.0
2024/11/12 05:24:27.200   34.744631595  137.764302459    40.9961   1  23   0.0033   0.0037   0.0071   0.0020  -0.0031  -0.0032   0.19    4.0
2024/11/12 05:24:27.300   34.744631594  137.764302468    40.9981   1  23   0.0033   0.0037   0.0071   0.0020  -0.0031  -0.0032   0.29    4.0
2024/11/12 05:24:27.400   34.744631601  137.764302461    40.9988   1  23   0.0033   0.0037   0.0071   0.0020  -0.0031  -0.0032   0.39    4.1
2024/11/12 05:24:27.500   34.744631592  137.764302462    40.9985   1  23   0.0033   0.0037   0.0071   0.0020  -0.0031  -0.0032   0.49    4.1
2024/11/12 05:24:27.600   34.744631608  137.764302437    40.9995   1  23   0.0033   0.0037   0.0071   0.0020  -0.0031  -0.0032  -0.41    4.1
2024/11/12 05:24:27.700   34.744631611  137.764302458    40.9970   1  23   0.0033   0.0037   0.0071   0.0020  -0.0031  -0.0032  -0.31    4.1
2024/11/12 05:24:27.800   34.744631605  137.764302443    40.9990   1  23   0.0033   0.0037   0.0071   0.0020  -0.0031  -0.0032  -0.21    4.1
2024/11/12 05:24:27.900   34.744631612  137.764302438    40.9974   1  23   0.0033   0.0037   0.0071   0.0020  -0.0031  -0.0032  -0.11    4.1
2024/11/12 05:24:28.000   34.744631617  137.764302465    40.9941   1  23   0.0033   0.0037   0.0071   0.0020  -0.0031  -0.0032  -0.01    4.1
2024/11/12 05:24:28.100   34.744631609  137.764302443    40.9969   1  23   0.0033   0.0037   0.0071   0.0020  -0.0031  -0.0032   0.09    4.1
2024/11/12 05:24:28.200   34.744631608  137.764302445    40.9970   1  23   0.0033   0.0037   0.0071   0.0020  -0.0031  -0.0032   0.19    4.1
2024/11/12 05:24:28.300   34.744631614  137.764302449    40.9953   1  23   0.0033   0.0037   0.0071   0.0020  -0.0031  -0.0032   0.29    4.1
2024/11/12 05:24:28.400   34.744631603  137.764302454    40.9961   1  23   0.0033   0.0037   0.0071   0.0020  -0.0031  -0.0032   0.39    4.1
2024/11/12 05:24:28.500   34.744631599  137.764302452    40.9983   1  23   0.0033   0.0037   0.0071   0.0020  -0.0031  -0.0032   0.49    4.1
2024/11/12 05:24:28.600   34.744631622  137.764302477    40.9956   1  23   0.0033   0.0037   0.0071   0.0020  -0.0031  -0.0032  -0.41    4.1
2024/11/12 05:24:28.700   34.744631605  137.764302452    40.9974   1  23   0.0033   0.0037   0.0071   0.0020  -0.0031  -0.0032  -0.31    4.1
2024/11/12 05:24:28.800   34.744631607  137.764302450    40.9989   1  23   0.0033   0.0037   0.0071   0.0020  -0.0031  -0.0032  -0.21    4.1
2024/11/12 05:24:28.900   34.744631610  137.764302471    40.9957   1  23   0.0033   0.0037   0.0071   0.0020  -0.0031  -0.0032  -0.11    4.1
2024/11/12 05:24:29.000   34.744631606  137.764302468    40.9959   1  23   0.0033   0.0037   0.0071   0.0020  -0.0031  -0.0032  -0.01    4.1
2024/11/12 05:24:29.100   34.744631603  137.764302462    40.9982   1  23   0.0033   0.0037   0.0071   0.0020  -0.0031  -0.0032   0.09    4.2
2024/11/12 05:24:29.200   34.744631598  137.764302471    40.9972   1  23   0.0033   0.0037   0.0071   0.0020  -0.0031  -0.0032   0.19    4.2
2024/11/12 05:24:29.300   34.744631591  137.764302442    41.0000   1  23   0.0033   0.0037   0.0071   0.0020  -0.0031  -0.0032   0.29    4.2
2024/11/12 05:24:29.400   34.744631591  137.764302452    40.9996   1  23   0.0033   0.0037   0.0071   0.0020  -0.0031  -0.0032   0.39    4.2
2024/11/12 05:24:29.500   34.744631598  137.764302450    40.9986   1  23   0.0033   0.0037   0.0071   0.0020  -0.0031  -0.0032   0.49    4.2
2024/11/12 05:24:29.600   34.744631620  137.764302469    40.9972   1  23   0.0033   0.0037   0.0071   0.0020  -0.0031  -0.0032  -0.41    4.2
2024/11/12 05:24:29.700   34.744631623  137.764302475    40.9980   1  23   0.0033   0.0037   0.0071   0.0020  -0.0031  -0.0032  -0.31    4.2
2024/11/12 05:24:29.800   34.744631607  137.764302481    40.9968   1  23   0.0033   0.0037   0.0071   0.0020  -0.0031  -0.0032  -0.21    4.2
2024/11/12 05:24:29.900   34.744631607  137.764302466    40.9999   1  23   0.0033   0.0037   0.0071   0.0020  -0.0031  -0.0032  -0.11    4.2
2024/11/12 05:24:30.000   34.744631599  137.764302466    41.0000   1  23   0.0033   0.0037   0.0071   0.0020  -0.0031  -0.0032  -0.01    4.2
2024/11/12 05:24:30.100   34.744631596  137.764302470    40.9982   1  23   0.0033   0.0037   0.0071   0.0020  -0.0031  -0.0032   0.09    4.2
2024/11/12 05:24:30.200   34.744631593  137.764302466    41.0010   1  23   0.0033   0.0037   0.0071   0.0020  -0.0031  -0.0032   0.19    4.2
2024/11/12 05:24:30.300   34.744631594  137.764302474    41.0017   1  23   0.0033   0.0037   0.0071   0.0020  -0.0031  -0.0032   0.29    4.2
2024/11/12 05:24:30.400   34.744631583  137.764302452    41.0033   1  23   0.0033   0.0037   0.0071   0.0020  -0.0031  -0.0032   0.39    4.2
2024/11/12 05:24:30.500   34.744631587  137.764302455    41.0030   1  23   0.0033   0.0037   0.0071   0.0020  -0.0031  -0.0032   0.49    4.2
2024/11/12 05:24:30.600   34.744631598  137.764302468    41.0018   1  23   0.0033   0.0037   0.0071   0.0020  -0.0031  -0.0032  -0.41    4.2
2024/11/12 05:24:30.700   34.744631599  137.764302467    41.0005   1  23   0.0033   0.0037   0.0071   0.0020  -0.0031  -0.0032  -0.31    4.2
2024/11/12 05:24:30.800   34.744631599  137.764302458    41.0018   1  23   0.0033   0.0037   0.0071   0.0020  -0.0031  -0.0032  -0.21    4.2
2024/11/12 05:24:30.900   34.744631592  137.764302476    41.0008   1  23   0.0033   0.0037   0.0071   0.0020  -0.0031  -0.0032  -0.11    4.2
2024/11/12 05:24:31.000   34.744631593  137.764302460    41.0004   1  23   0.0033   0.0037   0.0071   0.0020  -0.0031  -0.0032  -0.01    4.2
2024/11/12 05:24:31.100   34.744631593  137.764302483    40.9996   1  23   0.0033   0.0037   0.0071   0.0020  -0.0031  -0.0032   0.09    4.2
2024/11/12 05:24:31.200   34.744631594  137.764302492    40.9992   1  23   0.0033   0.0037   0.0071   0.0020  -0.0031  -0.0032   0.19    4.2
2024/11/12 05:24:31.300   34.744631575  137.764302456    41.0018   1  23   0.0033   0.0037   0.0071   0.0020  -0.0031  -0.0032   0.29    4.2
2024/11/12 05:24:31.400   34.744631584  137.764302464    41.0013   1  23   0.0033   0.0037   0.0071   0.0020  -0.0031  -0.0032   0.39    4.2
2024/11/12 05:24:31.500   34.744631579  137.764302477    41.0020   1  23   0.0033   0.0037   0.0071   0.0020  -0.0031  -0.0032   0.49    4.2
2024/11/12 05:24:31.600   34.744631593  137.764302444    41.0012   1  23   0.0033   0.0037   0.0071   0.0020  -0.0031  -0.0032  -0.41    4.2
2024/11/12 05:24:31.700   34.744631589  137.764302457    41.0005   1  23   0.0033   0.0037   0.0071   0.0020  -0.0031  -0.0032  -0.31    4.2
2024/11/12 05:24:31.800   34.744631592  137.764302448    41.0009   1  23   0.0033   0.0037   0.0071   0.0020  -0.0031  -0.0032  -0.21    4.2
2024/11/12 05:24:31.900   34.744631592  137.764302462    40.9982   1  23   0.0033   0.0037   0.0071   0.0020  -0.0031  -0.0032  -0.11    4.2
2024/11/12 05:24:32.000   34.744631586  137.764302463    40.9999   1  23   0.0033   0.0037   0.0071   0.0020  -0.0031  -0.0032  -0.01    4.2
2024/11/12 05:24:32.100   34.744631593  137.764302463    41.0002   1  23   0.0033   0.0037   0.0071   0.0020  -0.0031  -0.0032   0.09    4.2
2024/11/12 05:24:32.200   34.744631594  137.764302452    41.0010   1  23   0.0033   0.0037   0.0071   0.0020  -0.0031  -0.0032   0.19    4.2
2024/11/12 05:24:32.300   34.744631588  137.764302475    41.0000   1  23   0.0033   0.0037   0.0071   0.0020  -0.0031  -0.0032   0.29    4.2
2024/11/12 05:24:32.400   34.744631586  137.764302456    41.0002   1  23   0.0033   0.0037   0.0071   0.0020  -0.0031  -0.0032   0.39    4.2
2024/11/12 05:24:32.500   34.744631585  137.764302449    40.9993   1  23   0.0033   0.0037   0.0071   0.0020  -0.0031  -0.0032   0.49    4.2
2024/11/12 05:24:32.600   34.744631595  137.764302442    40.9997   1  23   0.0033   0.0037   0.0071   0.0020  -0.0031  -0.0032  -0.41    4.2
2024/11/12 05:24:32.700   34.744631584  137.764302458    40.9992   1  23   0.0033   0.0037   0.0071   0.0020  -0.0031  -0.0032  -0.31    4.2
2024/11/12 05:24:32.800   34.744631591  137.764302460    40.9987   1  23   0.0033   0.0037   0.0071   0.0020  -0.0031  -0.0032  -0.21    4.2
2024/11/12 05:24:32.900   34.744631587  137.764302460    40.9981   1  23   0.0033   0.0037   0.0071   0.0020  -0.0031  -0.0032  -0.11    4.2
2024/11/12 05:24:33.000   34.744631584  137.764302458    40.9983   1  23   0.0033   0.0037   0.0071   0.0020  -0.0031  -0.0032  -0.01    4.2
2024/11/12 05:24:33.100   34.744631581  137.764302458    40.9978   1  23   0.0033   0.0037   0.0071   0.0020  -0.0031  -0.0032   0.09    4.2
2024/11/12 05:24:33.200   34.744631583  137.764302451    40.9983   1  23   0.0033   0.0037   0.0071   0.0020  -0.0031  -0.0032   0.19    4.2
2024/11/12 05:24:33.300   34.744631582  137.764302460    40.9991   1  23   0.0033   0.0037   0.0071   0.0020  -0.0031  -0.0032   0.29    4.2
2024/11/12 05:24:33.400   34.744631574  137.764302446    40.9989   1  23   0.0033   0.0037   0.0071   0.0020  -0.0031  -0.0032   0.39    4.2
2024/11/12 05:24:33.500   34.744631581  137.764302469    40.9977   1  23   0.0033   0.0037   0.0071   0.0020  -0.0031  -0.0032   0.49    4.2
2024/11/12 05:24:33.600   34.744631588  137.764302455    40.9980   1  23   0.0033   0.0037   0.0071   0.0020  -0.0031  -0.0032  -0.41    4.2
2024/11/12 05:24:33.700   34.744631581  137.764302439    40.9995   1  23   0.0033   0.0037   0.0071   0.0020  -0.0031  -0.0032  -0.31    4.2
2024/11/12 05:24:33.800   34.744631586  137.764302466    40.9974   1  23   0.0033   0.0037   0.0071   0.0020  -0.0031  -0.0032  -0.21    4.2
2024/11/12 05:24:33.900   34.744631586  137.764302452    40.9978   1  23   0.0033   0.0037   0.0071   0.0020  -0.0031  -0.0032  -0.11    4.2
2024/11/12 05:24:34.000   34.744631582  137.764302464    40.9979   1  23   0.0033   0.0037   0.0071   0.0020  -0.0031  -0.0032  -0.01    4.2
2024/11/12 05:24:34.100   34.744631574  137.764302457    40.9976   1  23   0.0033   0.0037   0.0071   0.0020  -0.0031  -0.0032   0.09    4.2
2024/11/12 05:24:34.200   34.744631576  137.764302451    40.9988   1  23   0.0033   0.0037   0.0071   0.0020  -0.0031  -0.0032   0.19    4.2
2024/11/12 05:24:34.300   34.744631570  137.764302447    40.9988   1  23   0.0033   0.0037   0.0071   0.0020  -0.0031  -0.0032   0.29    4.2
2024/11/12 05:24:34.400   34.744631579  137.764302453    40.9973   1  23   0.0033   0.0037   0.0071   0.0020  -0.0031  -0.0032   0.39    4.2
2024/11/12 05:24:34.500   34.744631572  137.764302469    40.9971   1  23   0.0033   0.0037   0.0071   0.0020  -0.0031  -0.0032   0.49    4.2
2024/11/12 05:24:34.600   34.744631581  137.764302438    41.0014   1  23   0.0033   0.0037   0.0071   0.0020  -0.0031  -0.0032  -0.41    4.2
2024/11/12 05:24:34.700   34.744631578  137.764302448    40.9996   1  23   0.0033   0.0037   0.0071   0.0020  -0.0031  -0.0032  -0.31    4.2
2024/11/12 05:24:34.800   34.744631578  137.764302449    41.0011   1  23   0.0033   0.0037   0.0071   0.0020  -0.0031  -0.0032  -0.21    4.2
2024/11/12 05:24:34.900   34.744631575  137.764302444    41.0015   1  23   0.0033   0.0037   0.0071   0.0020  -0.0031  -0.0032  -0.11    4.2
2024/11/12 05:24:35.000   34.744631572  137.764302451    41.0011   1  23   0.0033   0.0037   0.0071   0.0019  -0.0031  -0.0032  -0.01    4.2
2024/11/12 05:24:35.100   34.744631571  137.764302464    40.9996   1  23   0.0033   0.0037   0.0071   0.0020  -0.0031  -0.0032   0.09    4.2
2024/11/12 05:24:35.200   34.744631573  137.764302449    41.0003   1  23   0.0033   0.0037   0.0071   0.0020  -0.0031  -0.0032   0.19    4.2
2024/11/12 05:24:35.300   34.744631567  137.764302446    41.0006   1  23   0.0033   0.0037   0.0071   0.0020  -0.0031  -0.0032   0.29    4.2
2024/11/12 05:24:35.400   34.744631569  137.764302447    41.0003   1  23   0.0033   0.0037   0.0071   0.0020  -0.0031  -0.0032   0.39    4.2
2024/11/12 05:24:35.500   34.744631565  137.764302451    41.0030   1  23   0.0033   0.0037   0.0071   0.0020  -0.0031  -0.0032   0.49    4.2
2024/11/12 05:24:35.600   34.744631583  137.764302444    40.9989   1  23   0.0033   0.0037   0.0071   0.0020  -0.0031  -0.0032  -0.41    4.2
2024/11/12 05:24:35.700   34.744631585  137.764302454    40.9973   1  23   0.0033   0.0037   0.0071   0.0020  -0.0031  -0.0032  -0.31    4.2
2024/11/12 05:24:35.800   34.744631594  137.764302466    40.9966   1  23   0.0033   0.0037   0.0071   0.0020  -0.0031  -0.0032  -0.21    4.3
2024/11/12 05:24:35.900   34.744631584  137.764302461    40.9972   1  23   0.0033   0.0037   0.0071   0.0020  -0.0031  -0.0032  -0.11    4.3
2024/11/12 05:24:36.000   34.744631582  137.764302455    40.9978   1  23   0.0033   0.0037   0.0071   0.0019  -0.0031  -0.0032  -0.01    4.3
2024/11/12 05:24:36.100   34.744631587  137.764302468    40.9966   1  23   0.0033   0.0037   0.0071   0.0019  -0.0031  -0.0032   0.09    4.3
2024/11/12 05:24:36.200   34.744631582  137.764302455    40.9968   1  23   0.0033   0.0037   0.0071   0.0020  -0.0031  -0.0032   0.19    4.3
2024/11/12 05:24:36.300   34.744631582  137.764302466    40.9973   1  23   0.0033   0.0037   0.0071   0.0020  -0.0031  -0.0032   0.29    4.3
2024/11/12 05:24:36.400   34.744631585  137.764302459    41.0005   1  23   0.0033   0.0037   0.0071   0.0020  -0.0031  -0.0032   0.39    4.3
2024/11/12 05:24:36.500   34.744631565  137.764302468    40.9970   1  23   0.0033   0.0037   0.0071   0.0020  -0.0031  -0.0032   0.49    4.3
2024/11/12 05:24:36.600   34.744631573  137.764302447    40.9988   1  23   0.0033   0.0037   0.0071   0.0020  -0.0031  -0.0032  -0.41    4.3
2024/11/12 05:24:36.700   34.744631585  137.764302448    40.9981   1  23   0.0033   0.0037   0.0071   0.0020  -0.0031  -0.0032  -0.31    4.3
2024/11/12 05:24:36.800   34.744631576  137.764302472    40.9963   1  23   0.0033   0.0037   0.0071   0.0020  -0.0031  -0.0032  -0.21    4.3
2024/11/12 05:24:36.900   34.744631587  137.764302453    40.9975   1  23   0.0033   0.0037   0.0071   0.0019  -0.0031  -0.0032  -0.11    4.3
2024/11/12 05:24:37.000   34.744631576  137.764302445    40.9989   1  23   0.0033   0.0037   0.0071   0.0019  -0.0031  -0.0032  -0.01    4.3
2024/11/12 05:24:37.100   34.744631581  137.764302467    40.9954   1  23   0.0033   0.0037   0.0071   0.0019  -0.0031  -0.0032   0.09    4.3
2024/11/12 05:24:37.200   34.744631574  137.764302452    40.9970   1  23   0.0033   0.0037   0.0071   0.0020  -0.0031  -0.0032   0.19    4.3
2024/11/12 05:24:37.300   34.744631583  137.764302455    40.9962   1  23   0.0033   0.0037   0.0071   0.0020  -0.0031  -0.0032   0.29    4.3
2024/11/12 05:24:37.400   34.744631582  137.764302462    40.9959   1  23   0.0033   0.0037   0.0071   0.0020  -0.0031  -0.0032   0.39    4.3
2024/11/12 05:24:37.500   34.744631579  137.764302456    40.9961   1  23   0.0033   0.0037   0.0071   0.0020  -0.0031  -0.0032   0.49    4.3
2024/11/12 05:24:37.600   34.744631581  137.764302457    40.9989   1  23   0.0033   0.0037   0.0071   0.0020  -0.0031  -0.0032  -0.41    4.3
2024/11/12 05:24:37.700   34.744631585  137.764302462    40.9989   1  23   0.0033   0.0037   0.0071   0.0020  -0.0031  -0.0032  -0.31    4.3
2024/11/12 05:24:37.800   34.744631586  137.764302474    40.9975   1  23   0.0033   0.0037   0.0071   0.0020  -0.0031  -0.0032  -0.21    4.3
2024/11/12 05:24:37.900   34.744631582  137.764302449    41.0002   1  23   0.0033   0.0037   0.0071   0.0019  -0.0031  -0.0032  -0.11    4.3
2024/11/12 05:24:38.000   34.744631591  137.764302443    41.0017   1  23   0.0033   0.0037   0.0071   0.0019  -0.0031  -0.0032  -0.01    4.3
2024/11/12 05:24:38.100   34.744631592  137.764302465    40.9990   1  23   0.0033   0.0037   0.0071   0.0019  -0.0031  -0.0032   0.09    4.3
2024/11/12 05:24:38.200   34.744631586  137.764302471    41.0009   1  23   0.0033   0.0037   0.0071   0.0019  -0.0031  -0.0032   0.19    4.3
2024/11/12 05:24:38.300   34.744631582  137.764302462    41.0022   1  23   0.0033   0.0037   0.0071   0.0020  -0.0031  -0.0032   0.29    4.3
2024/11/12 05:24:38.400   34.744631582  137.764302465    41.0025   1  23   0.0033   0.0037   0.0071   0.0020  -0.0031  -0.0032   0.39    4.3
2024/11/12 05:24:38.500   34.744631582  137.764302444    41.0036   1  23   0.0033   0.0037   0.0071   0.0020  -0.0031  -0.0032   0.49    4.3
2024/11/12 05:24:38.600   34.744631598  137.764302462    40.9995   1  23   0.0033   0.0037   0.0071   0.0020  -0.0031  -0.0032  -0.41    4.3
2024/11/12 05:24:38.700   34.744631596  137.764302447    40.9997   1  23   0.0033   0.0037   0.0071   0.0020  -0.0031  -0.0032  -0.31    4.3
2024/11/12 05:24:38.800   34.744631598  137.764302441    41.0026   1  23   0.0033   0.0037   0.0071   0.0020  -0.0031  -0.0032  -0.21    4.3
2024/11/12 05:24:38.900   34.744631605  137.764302459    40.9998   1  23   0.0033   0.0037   0.0071   0.0019  -0.0031  -0.0032  -0.11    4.3
2024/11/12 05:24:39.000   34.744631596  137.764302448    40.9997   1  23   0.0033   0.0037   0.0071   0.0019  -0.0031  -0.0032  -0.01    4.3
2024/11/12 05:24:39.100   34.744631599  137.764302460    41.0006   1  23   0.0033   0.0037   0.0071   0.0019  -0.0031  -0.0032   0.09    4.3
2024/11/12 05:24:39.200   34.744631598  137.764302463    41.0017   1  23   0.0033   0.0037   0.0071   0.0019  -0.0031  -0.0032   0.19    4.3
2024/11/12 05:24:39.300   34.744631597  137.764302462    40.9994   1  24   0.0033   0.0037   0.0071   0.0020  -0.0031  -0.0032   0.29    4.3
2024/11/12 05:24:39.400   34.744631591  137.764302477    40.9968   1  26   0.0033   0.0037   0.0071   0.0019  -0.0031  -0.0032   0.39    4.3
2024/11/12 05:24:39.500   34.744631590  137.764302455    40.9997   1  26   0.0033   0.0037   0.0071   0.0019  -0.0032  -0.0032   0.49    4.3
2024/11/12 05:24:39.600   34.744631614  137.764302456    40.9997   1  26   0.0033   0.0037   0.0071   0.0019  -0.0032  -0.0033  -0.41    4.3
2024/11/12 05:24:39.700   34.744631622  137.764302476    40.9964   1  26   0.0033   0.0037   0.0071   0.0019  -0.0032  -0.0033  -0.31    4.3
2024/11/12 05:24:39.800   34.744631608  137.764302457    41.0016   1  26   0.0033   0.0037   0.0070   0.0019  -0.0032  -0.0033  -0.21    4.3
2024/11/12 05:24:39.900   34.744631605  137.764302457    40.9999   1  26   0.0033   0.0037   0.0070   0.0019  -0.0032  -0.0033  -0.11    4.3
2024/11/12 05:24:40.000   34.744631610  137.764302457    40.9982   1  26   0.0033   0.0037   0.0070   0.0019  -0.0032  -0.0033  -0.01    4.3
2024/11/12 05:24:40.100   34.744631621  137.764302469    40.9972   1  26   0.0033   0.0037   0.0070   0.0019  -0.0032  -0.0033   0.09    4.3
2024/11/12 05:24:40.200   34.744631616  137.764302460    40.9972   1  26   0.0033   0.0037   0.0070   0.0019  -0.0032  -0.0033   0.19    4.3
2024/11/12 05:24:40.300   34.744631611  137.764302470    40.9979   1  26   0.0033   0.0037   0.0070   0.0019  -0.0032  -0.0033   0.29    4.3
2024/11/12 05:24:40.400   34.744631608  137.764302459    40.9996   1  26   0.0033   0.0037   0.0070   0.0019  -0.0032  -0.0033   0.39    4.3
2024/11/12 05:24:40.500   34.744631604  137.764302455    41.0000   1  26   0.0033   0.0037   0.0071   0.0019  -0.0032  -0.0033   0.49    4.3
2024/11/12 05:24:40.600   34.744631610  137.764302445    41.0001   1  26   0.0033   0.0037   0.0070   0.0019  -0.0032  -0.0033  -0.41    4.4
2024/11/12 05:24:40.700   34.744631604  137.764302447    41.0022   1  26   0.0033   0.0037   0.0070   0.0019  -0.0032  -0.0033  -0.31    4.3
2024/11/12 05:24:40.800   34.744631616  137.764302453    41.0009   1  26   0.0033   0.0036   0.0070   0.0019  -0.0032  -0.0033  -0.21    4.3
2024/11/12 05:24:40.900   34.744631605  137.764302431    41.0026   1  26   0.0032   0.0036   0.0070   0.0019  -0.0032  -0.0033  -0.11    4.3
2024/11/12 05:24:41.000   34.744631619  137.764302444    40.9993   1  26   0.0032   0.0036   0.0070   0.0019  -0.0032  -0.0033  -0.01    4.3
2024/11/12 05:24:41.100   34.744631604  137.764302454    41.0001   1  26   0.0032   0.0036   0.0070   0.0019  -0.0032  -0.0033   0.09    4.3
2024/11/12 05:24:41.200   34.744631610  137.764302455    40.9983   1  26   0.0032   0.0036   0.0070   0.0019  -0.0032  -0.0033   0.19    4.3
2024/11/12 05:24:41.300   34.744631601  137.764302458    40.9998   1  26   0.0033   0.0037   0.0070   0.0019  -0.0032  -0.0033   0.29    4.3
2024/11/12 05:24:41.400   34.744631603  137.764302453    40.9985   1  26   0.0033   0.0037   0.0070   0.0019  -0.0032  -0.0033   0.39    4.3
2024/11/12 05:24:41.500   34.744631598  137.764302455    40.9982   1  26   0.0033   0.0037   0.0070   0.0019  -0.0032  -0.0033   0.49    4.3
2024/11/12 05:24:41.600   34.744631615  137.764302480    40.9976   1  26   0.0033   0.0037   0.0070   0.0019  -0.0032  -0.0033  -0.41    4.3
2024/11/12 05:24:41.700   34.744631605  137.764302477    40.9989   1  26   0.0033   0.0037   0.0070   0.0019  -0.0032  -0.0033  -0.31    4.4
2024/11/12 05:24:41.800   34.744631607  137.764302458    40.9998   1  26   0.0032   0.0036   0.0070   0.0019  -0.0032  -0.0033  -0.21    4.4
2024/11/12 05:24:41.900   34.744631604  137.764302476    40.9979   1  26   0.0032   0.0036   0.0070   0.0019  -0.0032  -0.0033  -0.11    4.4
2024/11/12 05:24:42.000   34.744631594  137.764302482    40.9980   1  26   0.0032   0.0036   0.0070   0.0019  -0.0032  -0.0033  -0.01    4.4
2024/11/12 05:24:42.100   34.744631599  137.764302467    40.9995   1  26   0.0032   0.0036   0.0070   0.0019  -0.0032  -0.0033   0.09    4.4
2024/11/12 05:24:42.200   34.744631594  137.764302465    40.9993   1  26   0.0032   0.0036   0.0070   0.0019  -0.0032  -0.0033   0.19    4.4
2024/11/12 05:24:42.300   34.744631597  137.764302474    40.9978   1  26   0.0032   0.0036   0.0070   0.0019  -0.0032  -0.0033   0.29    4.4
2024/11/12 05:24:42.400   34.744631591  137.764302462    40.9986   1  26   0.0033   0.0037   0.0070   0.0019  -0.0032  -0.0033   0.39    4.4
2024/11/12 05:24:42.500   34.744631586  137.764302478    40.9980   1  26   0.0033   0.0037   0.0070   0.0019  -0.0032  -0.0033   0.49    4.4
2024/11/12 05:24:42.600   34.744631594  137.764302462    40.9983   1  26   0.0033   0.0037   0.0070   0.0019  -0.0032  -0.0033  -0.41    4.4
2024/11/12 05:24:42.700   34.744631595  137.764302454    40.9980   1  26   0.0033   0.0036   0.0070   0.0019  -0.0032  -0.0033  -0.31    4.4
2024/11/12 05:24:42.800   34.744631600  137.764302469    40.9970   1  26   0.0032   0.0036   0.0070   0.0019  -0.0032  -0.0033  -0.21    4.4
2024/11/12 05:24:42.900   34.744631599  137.764302468    40.9991   1  26   0.0032   0.0036   0.0070   0.0019  -0.0032  -0.0033  -0.11    4.4
2024/11/12 05:24:43.000   34.744631597  137.764302492    40.9945   1  26   0.0032   0.0036   0.0070   0.0019  -0.0032  -0.0033  -0.01    4.4
2024/11/12 05:24:43.100   34.744631603  137.764302482    40.9947   1  26   0.0032   0.0036   0.0070   0.0019  -0.0032  -0.0033   0.09    3.0
2024/11/12 05:24:43.200   34.744631605  137.764302466    40.9965   1  26   0.0032   0.0036   0.0070   0.0019  -0.0032  -0.0033   0.19    3.1
2024/11/12 05:24:43.300   34.744631591  137.764302464    40.9988   1  26   0.0032   0.0036   0.0070   0.0019  -0.0032  -0.0033   0.29    3.1
2024/11/12 05:24:43.400   34.744631596  137.764302468    40.9960   1  26   0.0033   0.0037   0.0070   0.0019  -0.0032  -0.0033   0.39    3.2
2024/11/12 05:24:43.500   34.744631593  137.764302475    40.9948   1  26   0.0033   0.0037   0.0070   0.0019  -0.0032  -0.0033   0.49    3.2
2024/11/12 05:24:43.600   34.744631604  137.764302438    40.9985   1  26   0.0033   0.0037   0.0070   0.0019  -0.0032  -0.0033  -0.41    3.3
2024/11/12 05:24:43.700   34.744631611  137.764302457    40.9967   1  26   0.0032   0.0036   0.0070   0.0019  -0.0032  -0.0033  -0.31    3.3
2024/11/12 05:24:43.800   34.744631592  137.764302448    40.9976   1  26   0.0032   0.0036   0.0070   0.0019  -0.0032  -0.0033  -0.21    3.3
2024/11/12 05:24:43.900   34.744631601  137.764302439    40.9998   1  26   0.0032   0.0036   0.0070   0.0019  -0.0032  -0.0033  -0.11    3.4
2024/11/12 05:24:44.000   34.744631605  137.764302454    40.9979   1  26   0.0032   0.0036   0.0070   0.0019  -0.0032  -0.0033  -0.01    3.4
2024/11/12 05:24:44.100   34.744631602  137.764302465    40.9954   1  26   0.0032   0.0036   0.0070   0.0019  -0.0032  -0.0033   0.09    3.5
2024/11/12 05:24:44.200   34.744631598  137.764302454    40.9983   1  26   0.0032   0.0036   0.0070   0.0019  -0.0032  -0.0033   0.19    3.5
2024/11/12 05:24:44.300   34.744631606  137.764302453    40.9963   1  26   0.0032   0.0036   0.0070   0.0019  -0.0032  -0.0033   0.29    3.6
2024/11/12 05:24:44.400   34.744631592  137.764302448    40.9978   1  26   0.0033   0.0037   0.0070   0.0019  -0.0032  -0.0033   0.39    3.6
2024/11/12 05:24:44.500   34.744631601  137.764302461    40.9968   1  26   0.0033   0.0037   0.0070   0.0019  -0.0032  -0.0033   0.49    3.6
2024/11/12 05:24:44.600   34.744631624  137.764302467    40.9956   1  26   0.0033   0.0037   0.0070   0.0019  -0.0032  -0.0033  -0.41    3.7
2024/11/12 05:24:44.700   34.744631628  137.764302475    40.9932   1  26   0.0032   0.0036   0.0070   0.0019  -0.0032  -0.0033  -0.31    3.7
2024/11/12 05:24:44.800   34.744631630  137.764302466    40.9946   1  26   0.0032   0.0036   0.0070   0.0019  -0.0032  -0.0033  -0.21    3.8
2024/11/12 05:24:44.900   34.744631617  137.764302468    40.9964   1  26   0.0032   0.0036   0.0070   0.0019  -0.0032  -0.0033  -0.11    3.8
2024/11/12 05:24:45.000   34.744631610  137.764302468    40.9965   1  26   0.0032   0.0036   0.0070   0.0019  -0.0032  -0.0033  -0.01    3.8
2024/11/12 05:24:45.100   34.744631626  137.764302462    40.9973   1  26   0.0032   0.0036   0.0070   0.0019  -0.0032  -0.0033   0.09    3.9
2024/11/12 05:24:45.200   34.744631610  137.764302455    40.9970   1  26   0.0032   0.0036   0.0070   0.0019  -0.0032  -0.0033   0.19    3.9
2024/11/12 05:24:45.300   34.744631617  137.764302458    40.9976   1  27   0.0032   0.0036   0.0070   0.0019  -0.0032  -0.0033   0.29    4.0
2024/11/12 05:24:45.400   34.744631624  137.764302479    40.9959   1  27   0.0033   0.0036   0.0070   0.0019  -0.0031  -0.0033   0.39    4.0
2024/11/12 05:24:45.500   34.744631613  137.764302482    40.9940   1  27   0.0033   0.0036   0.0070   0.0019  -0.0031  -0.0033   0.49    4.0
2024/11/12 05:24:45.600   34.744631625  137.764302481    40.9911   1  27   0.0033   0.0035   0.0069   0.0018  -0.0030  -0.0033  -0.41    4.1
2024/11/12 05:24:45.700   34.744631622  137.764302481    40.9919   1  27   0.0032   0.0035   0.0069   0.0018  -0.0030  -0.0033  -0.31    4.1
2024/11/12 05:24:45.800   34.744631623  137.764302480    40.9925   1  27   0.0032   0.0035   0.0068   0.0018  -0.0029  -0.0032  -0.21    4.2
2024/11/12 05:24:45.900   34.744631619  137.764302485    40.9919   1  27   0.0032   0.0035   0.0068   0.0018  -0.0029  -0.0032  -0.11    4.2
2024/11/12 05:24:46.000   34.744631605  137.764302462    40.9938   1  27   0.0032   0.0035   0.0068   0.0018  -0.0029  -0.0032  -0.01    4.2
2024/11/12 05:24:46.100   34.744631616  137.764302475    40.9929   1  27   0.0032   0.0035   0.0068   0.0018  -0.0029  -0.0032   0.09    4.3
2024/11/12 05:24:46.200   34.744631603  137.764302475    40.9935   1  27   0.0032   0.0035   0.0068   0.0018  -0.0029  -0.0032   0.19    4.3
2024/11/12 05:24:46.300   34.744631592  137.764302463    40.9956   1  27   0.0032   0.0035   0.0068   0.0018  -0.0029  -0.0032   0.29    4.3
2024/11/12 05:24:46.400   34.744631596  137.764302468    40.9961   1  27   0.0032   0.0035   0.0068   0.0018  -0.0029  -0.0032   0.39    4.4
2024/11/12 05:24:46.500   34.744631603  137.764302469    40.9973   1  27   0.0033   0.0035   0.0068   0.0018  -0.0029  -0.0033   0.49    4.4
2024/11/12 05:24:46.600   34.744631612  137.764302477    40.9949   1  27   0.0032   0.0035   0.0068   0.0018  -0.0029  -0.0032  -0.41    4.5
2024/11/12 05:24:46.700   34.744631619  137.764302492    40.9907   1  27   0.0032   0.0035   0.0068   0.0018  -0.0029  -0.0032  -0.31    4.5
2024/11/12 05:24:46.800   34.744631618  137.764302487    40.9942   1  27   0.0032   0.0035   0.0068   0.0018  -0.0029  -0.0032  -0.21    4.5
2024/11/12 05:24:46.900   34.744631600  137.764302464    40.9967   1  27   0.0032   0.0035   0.0068   0.0018  -0.0029  -0.0032  -0.11    4.5
2024/11/12 05:24:47.000   34.744631609  137.764302479    40.9951   1  27   0.0032   0.0035   0.0068   0.0018  -0.0029  -0.0032  -0.01    4.5
2024/11/12 05:24:47.100   34.744631601  137.764302473    40.9959   1  27   0.0032   0.0035   0.0068   0.0018  -0.0029  -0.0032   0.09    4.5
2024/11/12 05:24:47.200   34.744631606  137.764302466    40.9946   1  27   0.0032   0.0035   0.0068   0.0018  -0.0029  -0.0032   0.19    4.5
2024/11/12 05:24:47.300   34.744631605  137.764302471    40.9942   1  27   0.0032   0.0035   0.0068   0.0018  -0.0029  -0.0032   0.29    4.5
2024/11/12 05:24:47.400   34.744631603  137.764302472    40.9951   1  27   0.0032   0.0035   0.0068   0.0018  -0.0029  -0.0032   0.39    4.5
2024/11/12 05:24:47.500   34.744631606  137.764302474    40.9927   1  27   0.0033   0.0035   0.0068   0.0018  -0.0029  -0.0033   0.49    4.5
2024/11/12 05:24:47.600   34.744631633  137.764302487    40.9889   1  27   0.0032   0.0035   0.0068   0.0018  -0.0029  -0.0032  -0.41    4.5
2024/11/12 05:24:47.700   34.744631634  137.764302483    40.9890   1  27   0.0032   0.0035   0.0068   0.0018  -0.0029  -0.0032  -0.31    4.5
2024/11/12 05:24:47.800   34.744631628  137.764302470    40.9898   1  27   0.0032   0.0035   0.0068   0.0018  -0.0029  -0.0032  -0.21    4.5
2024/11/12 05:24:47.900   34.744631621  137.764302470    40.9918   1  27   0.0032   0.0035   0.0068   0.0018  -0.0029  -0.0032  -0.11    4.5
2024/11/12 05:24:48.000   34.744631618  137.764302488    40.9908   1  27   0.0032   0.0035   0.0068   0.0018  -0.0029  -0.0032  -0.01    4.5
2024/11/12 05:24:48.100   34.744631615  137.764302460    40.9938   1  27   0.0032   0.0035   0.0068   0.0018  -0.0029  -0.0032   0.09    4.5
2024/11/12 05:24:48.200   34.744631614  137.764302456    40.9949   1  27   0.0032   0.0035   0.0068   0.0018  -0.0029  -0.0032   0.19    4.5
2024/11/12 05:24:48.300   34.744631619  137.764302476    40.9926   1  27   0.0032   0.0035   0.0068   0.0018  -0.0029  -0.0032   0.29    4.5
2024/11/12 05:24:48.400   34.744631615  137.764302476    40.9921   1  27   0.0032   0.0035   0.0068   0.0018  -0.0029  -0.0032   0.39    4.5
2024/11/12 05:24:48.500   34.744631620  137.764302463    40.9923   1  27   0.0033   0.0035   0.0068   0.0018  -0.0029  -0.0032   0.49    4.5
2024/11/12 05:24:48.600   34.744631633  137.764302468    40.9951   1  27   0.0032   0.0035   0.0068   0.0018  -0.0029  -0.0032  -0.41    4.5
2024/11/12 05:24:48.700   34.744631630  137.764302466    40.9937   1  27   0.0032   0.0035   0.0068   0.0018  -0.0029  -0.0032  -0.31    4.5
2024/11/12 05:24:48.800   34.744631621  137.764302456    40.9940   1  27   0.0032   0.0035   0.0068   0.0018  -0.0029  -0.0032  -0.21    4.5
2024/11/12 05:24:48.900   34.744631627  137.764302455    40.9957   1  27   0.0032   0.0035   0.0068   0.0018  -0.0029  -0.0032  -0.11    4.5
2024/11/12 05:24:49.000   34.744631615  137.764302475    40.9951   1  27   0.0032   0.0035   0.0068   0.0018  -0.0029  -0.0032  -0.01    4.5
2024/11/12 05:24:49.100   34.744631617  137.764302472    40.9926   1  27   0.0032   0.0035   0.0068   0.0018  -0.0029  -0.0032   0.09    4.5
2024/11/12 05:24:49.200   34.744631626  137.764302467    40.9928   1  27   0.0032   0.0035   0.0068   0.0018  -0.0029  -0.0032   0.19    4.5
2024/11/12 05:24:49.300   34.744631615  137.764302488    40.9913   1  27   0.0032   0.0035   0.0068   0.0018  -0.0029  -0.0032   0.29    4.5
2024/11/12 05:24:49.400   34.744631617  137.764302456    40.9939   1  27   0.0032   0.0035   0.0068   0.0018  -0.0029  -0.0032   0.39    4.5
2024/11/12 05:24:49.500   34.744631610  137.764302465    40.9945   1  27   0.0033   0.0035   0.0068   0.0018  -0.0029  -0.0032   0.49    4.5
2024/11/12 05:24:49.600   34.744631622  137.764302460    40.9973   1  27   0.0032   0.0035   0.0068   0.0018  -0.0029  -0.0032  -0.41    4.5
2024/11/12 05:24:49.700   34.744631624  137.764302468    40.9970   1  27   0.0032   0.0035   0.0068   0.0018  -0.0029  -0.0032  -0.31    4.5
2024/11/12 05:24:49.800   34.744631613  137.764302476    40.9962   1  27   0.0032   0.0035   0.0068   0.0018  -0.0029  -0.0032  -0.21    4.5
2024/11/12 05:24:49.900   34.744631609  137.764302471    40.9960   1  27   0.0032   0.0035   0.0068   0.0018  -0.0029  -0.0032  -0.11    4.5
2024/11/12 05:24:50.000   34.744631617  137.764302454    40.9965   1  27   0.0032   0.0035   0.0068   0.0018  -0.0029  -0.0032  -0.01    4.5
2024/11/12 05:24:50.100   34.744631607  137.764302458    40.9956   1  27   0.0032   0.0035   0.0068   0.0018  -0.0029  -0.0032   0.09    4.5
2024/11/12 05:24:50.200   34.744631601  137.764302460    40.9965   1  27   0.0032   0.0035   0.0068   0.0018  -0.0029  -0.0032   0.19    4.6
2024/11/12 05:24:50.300   34.744631610  137.764302467    40.9956   1  27   0.0032   0.0035   0.0068   0.0018  -0.0029  -0.0032   0.29    4.6
2024/11/12 05:24:50.400   34.744631615  137.764302461    40.9949   1  27   0.0032   0.0035   0.0068   0.0018  -0.0029  -0.0032   0.39    4.6
2024/11/12 05:24:50.500   34.744631612  137.764302453    40.9959   1  27   0.0033   0.0035   0.0068   0.0018  -0.0029  -0.0032   0.49    4.6
2024/11/12 05:24:50.600   34.744631636  137.764302490    40.9876   1  27   0.0032   0.0035   0.0068   0.0018  -0.0029  -0.0032  -0.41    4.6
2024/11/12 05:24:50.700   34.744631633  137.764302493    40.9857   1  27   0.0032   0.0035   0.0068   0.0018  -0.0029  -0.0032  -0.31    4.6
2024/11/12 05:24:50.800   34.744631629  137.764302475    40.9879   1  27   0.0032   0.0035   0.0068   0.0018  -0.0029  -0.0032  -0.21    4.6
2024/11/12 05:24:50.900   34.744631625  137.764302466    40.9914   1  27   0.0032   0.0035   0.0068   0.0018  -0.0029  -0.0032  -0.11    4.6
2024/11/12 05:24:51.000   34.744631621  137.764302489    40.9921   1  27   0.0032   0.0035   0.0068   0.0018  -0.0029  -0.0032  -0.01    4.6
2024/11/12 05:24:51.100   34.744631618  137.764302483    40.9896   1  27   0.0032   0.0035   0.0068   0.0018  -0.0029  -0.0032   0.09    4.6
2024/11/12 05:24:51.200   34.744631616  137.764302474    40.9915   1  27   0.0032   0.0035   0.0068   0.0018  -0.0029  -0.0032   0.19    4.6
2024/11/12 05:24:51.300   34.744631621  137.764302476    40.9894   1  27   0.0032   0.0035   0.0068   0.0018  -0.0029  -0.0032   0.29    4.6
2024/11/12 05:24:51.400   34.744631622  137.764302476    40.9898   1  27   0.0032   0.0035   0.0068   0.0018  -0.0029  -0.0032   0.39    4.6
2024/11/12 05:24:51.500   34.744631613  137.764302465    40.9914   1  27   0.0032   0.0035   0.0068   0.0018  -0.0029  -0.0032   0.49    4.6
2024/11/12 05:24:51.600   34.744631638  137.764302486    40.9902   1  27   0.0032   0.0035   0.0068   0.0018  -0.0029  -0.0032  -0.41    4.6
2024/11/12 05:24:51.700   34.744631626  137.764302490    40.9913   1  27   0.0032   0.0035   0.0068   0.0018  -0.0029  -0.0032  -0.31    4.6
2024/11/12 05:24:51.800   34.744631622  137.764302462    40.9944   1  27   0.0032   0.0035   0.0068   0.0018  -0.0029  -0.0032  -0.21    4.6
2024/11/12 05:24:51.900   34.744631627  137.764302462    40.9936   1  27   0.0032   0.0035   0.0068   0.0018  -0.0029  -0.0032  -0.11    4.6
2024/11/12 05:24:52.000   34.744631626  137.764302487    40.9924   1  27   0.0032   0.0035   0.0068   0.0018  -0.0029  -0.0032  -0.01    4.6
2024/11/12 05:24:52.100   34.744631618  137.764302477    40.9925   1  27   0.0032   0.0035   0.0068   0.0018  -0.0029  -0.0032   0.09    4.6
2024/11/12 05:24:52.200   34.744631621  137.764302459    40.9935   1  27   0.0032   0.0035   0.0068   0.0018  -0.0029  -0.0032   0.19    4.6
2024/11/12 05:24:52.300   34.744631615  137.764302458    40.9949   1  27   0.0032   0.0035   0.0068   0.0018  -0.0029  -0.0032   0.29    4.6
2024/11/12 05:24:52.400   34.744631620  137.764302455    40.9943   1  27   0.0032   0.0035   0.0068   0.0018  -0.0029  -0.0032   0.39    4.6
2024/11/12 05:24:52.500   34.744631622  137.764302454    40.9943   1  27   0.0032   0.0035   0.0068   0.0018  -0.0029  -0.0032   0.49    4.6
2024/11/12 05:24:52.600   34.744631636  137.764302483    40.9898   1  27   0.0032   0.0035   0.0068   0.0018  -0.0029  -0.0032  -0.41    4.6
2024/11/12 05:24:52.700   34.744631633  137.764302475    40.9886   1  27   0.0032   0.0035   0.0068   0.0018  -0.0029  -0.0032  -0.31    4.6
2024/11/12 05:24:52.800   34.744631636  137.764302471    40.9888   1  27   0.0032   0.0035   0.0068   0.0018  -0.0029  -0.0032  -0.21    4.6
2024/11/12 05:24:52.900   34.744631634  137.764302468    40.9890   1  27   0.0032   0.0035   0.0068   0.0018  -0.0029  -0.0032  -0.11    4.6
2024/11/12 05:24:53.000   34.744631623  137.764302469    40.9897   1  27   0.0032   0.0035   0.0068   0.0018  -0.0029  -0.0032  -0.01    4.6
2024/11/12 05:24:53.100   34.744631636  137.764302476    40.9883   1  27   0.0032   0.0035   0.0068   0.0018  -0.0029  -0.0032   0.09    4.6
2024/11/12 05:24:53.200   34.744631637  137.764302478    40.9885   1  27   0.0032   0.0035   0.0068   0.0018  -0.0029  -0.0032   0.19    4.6
2024/11/12 05:24:53.300   34.744631623  137.764302486    40.9887   1  27   0.0032   0.0035   0.0068   0.0018  -0.0029  -0.0032   0.29    4.6
2024/11/12 05:24:53.400   34.744631632  137.764302478    40.9881   1  27   0.0032   0.0035   0.0068   0.0018  -0.0029  -0.0032   0.39    4.6
2024/11/12 05:24:53.500   34.744631631  137.764302477    40.9878   1  27   0.0032   0.0035   0.0068   0.0018  -0.0029  -0.0032   0.49    4.6
2024/11/12 05:24:53.600   34.744631630  137.764302480    40.9886   1  27   0.0032   0.0035   0.0068   0.0018  -0.0029  -0.0032  -0.41    4.6
2024/11/12 05:24:53.700   34.744631632  137.764302475    40.9885   1  27   0.0032   0.0035   0.0068   0.0018  -0.0029  -0.0032  -0.31    4.6
2024/11/12 05:24:53.800   34.744631627  137.764302478    40.9910   1  27   0.0032   0.0035   0.0068   0.0018  -0.0029  -0.0032  -0.21    4.6
2024/11/12 05:24:53.900   34.744631620  137.764302474    40.9905   1  27   0.0032   0.0035   0.0068   0.0018  -0.0029  -0.0032  -0.11    4.6
2024/11/12 05:24:54.000   34.744631637  137.764302473    40.9907   1  27   0.0032   0.0035   0.0068   0.0018  -0.0029  -0.0032  -0.01    4.6
2024/11/12 05:24:54.100   34.744631633  137.764302468    40.9905   1  27   0.0032   0.0035   0.0068   0.0018  -0.0029  -0.0032   0.09    4.6
2024/11/12 05:24:54.200   34.744631621  137.764302487    40.9896   1  27   0.0032   0.0035   0.0068   0.0018  -0.0029  -0.0032   0.19    4.6
2024/11/12 05:24:54.300   34.744631623  137.764302486    40.9889   1  27   0.0032   0.0035   0.0068   0.0018  -0.0029  -0.0032   0.29    4.6
2024/11/12 05:24:54.400   34.744631622  137.764302481    40.9884   1  27   0.0032   0.0035   0.0068   0.0018  -0.0029  -0.0032   0.39    4.7
2024/11/12 05:24:54.500   34.744631628  137.764302477    40.9882   1  27   0.0032   0.0035   0.0068   0.0018  -0.0029  -0.0032   0.49    4.7
2024/11/12 05:24:54.600   34.744631637  137.764302483    40.9891   1  27   0.0032   0.0035   0.0068   0.0018  -0.0029  -0.0032  -0.41    4.7
2024/11/12 05:24:54.700   34.744631635  137.764302471    40.9901   1  27   0.0032   0.0035   0.0068   0.0018  -0.0029  -0.0032  -0.31    4.7
2024/11/12 05:24:54.800   34.744631634  137.764302493    40.9897   1  27   0.0032   0.0035   0.0068   0.0018  -0.0029  -0.0032  -0.21    4.7
2024/11/12 05:24:54.900   34.744631627  137.764302467    40.9921   1  27   0.0032   0.0035   0.0068   0.0018  -0.0029  -0.0032  -0.11    4.7
2024/11/12 05:24:55.000   34.744631624  137.764302459    40.9915   1  27   0.0032   0.0035   0.0068   0.0018  -0.0029  -0.0032  -0.01    4.7
2024/11/12 05:24:55.100   34.744631633  137.764302466    40.9909   1  27   0.0032   0.0035   0.0068   0.0018  -0.0029  -0.0032   0.09    4.7
2024/11/12 05:24:55.200   34.744631629  137.764302474    40.9897   1  27   0.0032   0.0035   0.0068   0.0018  -0.0029  -0.0032   0.19    4.7
2024/11/12 05:24:55.300   34.744631626  137.764302473    40.9889   1  27   0.0032   0.0035   0.0068   0.0018  -0.0029  -0.0032   0.29    4.7
2024/11/12 05:24:55.400   34.744631625  137.764302471    40.9922   1  27   0.0032   0.0035   0.0068   0.0018  -0.0029  -0.0032   0.39    4.7
2024/11/12 05:24:55.500   34.744631634  137.764302487    40.9916   1  27   0.0032   0.0035   0.0068   0.0018  -0.0029  -0.0032   0.49    4.7
2024/11/12 05:24:55.600   34.744631624  137.764302477    40.9909   1  27   0.0032   0.0035   0.0068   0.0018  -0.0029  -0.0032  -0.41    4.7
2024/11/12 05:24:55.700   34.744631622  137.764302454    40.9924   1  27   0.0032   0.0035   0.0068   0.0018  -0.0029  -0.0032  -0.31    4.7
2024/11/12 05:24:55.800   34.744631637  137.764302476    40.9884   1  27   0.0032   0.0035   0.0068   0.0018  -0.0029  -0.0032  -0.21    4.7
2024/11/12 05:24:55.900   34.744631636  137.764302483    40.9868   1  27   0.0032   0.0035   0.0068   0.0018  -0.0029  -0.0032  -0.11    4.7
2024/11/12 05:24:56.000   34.744631620  137.764302464    40.9903   1  27   0.0032   0.0035   0.0068   0.0018  -0.0029  -0.0032  -0.01    4.7
2024/11/12 05:24:56.100   34.744631626  137.764302477    40.9904   1  27   0.0032   0.0035   0.0068   0.0018  -0.0029  -0.0032   0.09    4.7
2024/11/12 05:24:56.200   34.744631620  137.764302487    40.9892   1  27   0.0032   0.0035   0.0068   0.0018  -0.0029  -0.0032   0.19    4.7
2024/11/12 05:24:56.300   34.744631628  137.764302474    40.9890   1  27   0.0032   0.0035   0.0068   0.0018  -0.0029  -0.0032   0.29    4.7
2024/11/12 05:24:56.400   34.744631627  137.764302445    40.9896   1  27   0.0032   0.0035   0.0068   0.0018  -0.0029  -0.0032   0.39    4.7
2024/11/12 05:24:56.500   34.744631627  137.764302471    40.9888   1  27   0.0032   0.0035   0.0068   0.0018  -0.0029  -0.0032   0.49    4.7
2024/11/12 05:24:56.600   34.744631637  137.764302474    40.9894   1  27   0.0032   0.0035   0.0068   0.0018  -0.0029  -0.0032  -0.41    4.7
2024/11/12 05:24:56.700   34.744631639  137.764302455    40.9907   1  27   0.0032   0.0035   0.0068   0.0018  -0.0029  -0.0032  -0.31    4.7
2024/11/12 05:24:56.800   34.744631640  137.764302481    40.9894   1  27   0.0032   0.0035   0.0068   0.0018  -0.0029  -0.0032  -0.21    4.7
2024/11/12 05:24:56.900   34.744631638  137.764302474    40.9880   1  27   0.0032   0.0035   0.0068   0.0018  -0.0029  -0.0032  -0.11    4.7
2024/11/12 05:24:57.000   34.744631630  137.764302468    40.9901   1  27   0.0032   0.0035   0.0068   0.0018  -0.0029  -0.0032  -0.01    4.7
2024/11/12 05:24:57.100   34.744631636  137.764302475    40.9902   1  27   0.0032   0.0035   0.0068   0.0018  -0.0029  -0.0032   0.09    4.7
2024/11/12 05:24:57.200   34.744631618  137.764302473    40.9909   1  27   0.0032   0.0035   0.0068   0.0018  -0.0029  -0.0032   0.19    4.7
2024/11/12 05:24:57.300   34.744631632  137.764302458    40.9899   1  27   0.0032   0.0035   0.0068   0.0018  -0.0029  -0.0032   0.29    4.7
2024/11/12 05:24:57.400   34.744631638  137.764302476    40.9873   1  27   0.0032   0.0035   0.0068   0.0018  -0.0029  -0.0032   0.39    4.7
2024/11/12 05:24:57.500   34.744631628  137.764302463    40.9913   1  27   0.0032   0.0035   0.0068   0.0018  -0.0029  -0.0032   0.49    4.7
2024/11/12 05:24:57.600   34.744631620  137.764302458    40.9955   1  27   0.0032   0.0035   0.0068   0.0018  -0.0029  -0.0032  -0.41    4.7
2024/11/12 05:24:57.700   34.744631630  137.764302455    40.9987   1  27   0.0032   0.0035   0.0068   0.0018  -0.0029  -0.0032  -0.31    4.7
2024/11/12 05:24:57.800   34.744631623  137.764302462    40.9974   1  27   0.0032   0.0035   0.0068   0.0018  -0.0029  -0.0032  -0.21    4.7
2024/11/12 05:24:57.900   34.744631631  137.764302474    40.9961   1  27   0.0032   0.0035   0.0068   0.0018  -0.0029  -0.0032  -0.11    4.7
2024/11/12 05:24:58.000   34.744631635  137.764302451    40.9946   1  27   0.0032   0.0035   0.0068   0.0018  -0.0029  -0.0032  -0.01    4.7
2024/11/12 05:24:58.100   34.744631621  137.764302457    40.9932   1  27   0.0032   0.0035   0.0068   0.0018  -0.0029  -0.0032   0.09    4.7
2024/11/12 05:24:58.200   34.744631632  137.764302472    40.9914   1  27   0.0032   0.0035   0.0068   0.0018  -0.0029  -0.0032   0.19    4.7
2024/11/12 05:24:58.300   34.744631637  137.764302464    40.9932   1  27   0.0032   0.0035   0.0068   0.0018  -0.0029  -0.0032   0.29    4.7
2024/11/12 05:24:58.400   34.744631629  137.764302459    40.9957   1  27   0.0032   0.0035   0.0068   0.0018  -0.0029  -0.0032   0.39    4.7
2024/11/12 05:24:58.500   34.744631624  137.764302463    40.9969   1  27   0.0032   0.0035   0.0068   0.0018  -0.0029  -0.0032   0.49    4.7
2024/11/12 05:24:58.600   34.744631641  137.764302475    40.9925   1  27   0.0032   0.0035   0.0068   0.0018  -0.0029  -0.0032  -0.41    4.7
2024/11/12 05:24:58.700   34.744631641  137.764302467    40.9905   1  27   0.0032   0.0035   0.0068   0.0018  -0.0029  -0.0032  -0.31    4.7
2024/11/12 05:24:58.800   34.744631638  137.764302488    40.9912   1  27   0.0032   0.0035   0.0068   0.0018  -0.0029  -0.0032  -0.21    4.7
2024/11/12 05:24:58.900   34.744631635  137.764302477    40.9929   1  27   0.0032   0.0035   0.0068   0.0018  -0.0029  -0.0032  -0.11    4.7
2024/11/12 05:24:59.000   34.744631630  137.764302461    40.9936   1  27   0.0032   0.0035   0.0068   0.0018  -0.0029  -0.0032  -0.01    4.7
2024/11/12 05:24:59.100   34.744631621  137.764302449    40.9942   1  27   0.0032   0.0035   0.0068   0.0018  -0.0029  -0.0032   0.09    4.7
2024/11/12 05:24:59.200   34.744631613  137.764302466    40.9937   1  27   0.0032   0.0035   0.0068   0.0018  -0.0029  -0.0032   0.19    4.7
