% program   : RTKPOST demo5 b34j
% inp file  : C:\Users\cs21014\Documents\Kitani\241112hyod\src\04\GNSS_MT\gnss0\ubx\241112_14.obs
% inp file  : C:\Users\cs21014\Documents\Kitani\241112hyod\src\rtk_base\COM4___9600_241112_050705.obs
% inp file  : C:\Users\cs21014\Documents\Kitani\241112hyod\src\rtk_base\COM4___9600_241112_050705.nav
% obs start : 2024/11/12 05:52:18.0 GPST (week2340 193938.0s)
% obs end   : 2024/11/12 05:55:26.1 GPST (week2340 194126.1s)
% pos mode  : Kinematic
% freqs     : L1+L2/E5b+L5
% solution  : Combined-Phase Reset
% elev mask : 15.0 deg
% dynamics  : on
% tidecorr  : on
% ionos opt : Broadcast
% tropo opt : Saastamoinen
% ephemeris : Broadcast
% navi sys  : GPS GLONASS Galileo QZSS BDS NavIC
% amb res   : Fix and Hold
% amb glo   : Fix and Hold
% val thres : 3.0
% antenna1  :                       ( 0.0000  0.0000  0.0000)
% antenna2  :                       ( 0.0000  0.0000  0.0000)
% ref pos   : 34.744454383  137.764618776    40.7897
%
% (lat/lon/height=WGS84/ellipsoidal,Q=1:fix,2:float,3:sbas,4:dgps,5:single,6:ppp,ns=# of satellites)
%  GPST                  latitude(deg) longitude(deg)  height(m)   Q  ns   sdn(m)   sde(m)   sdu(m)  sdne(m)  sdeu(m)  sdun(m) age(s)  ratio
2024/11/12 05:52:18.000   34.744628902  137.764305117    40.9768   1  24   0.0033   0.0036   0.0076   0.0018  -0.0033  -0.0028  -0.01    3.1
2024/11/12 05:52:18.100   34.744628897  137.764305112    40.9781   1  24   0.0033   0.0036   0.0076   0.0018  -0.0033  -0.0028   0.09    3.1
2024/11/12 05:52:18.200   34.744628902  137.764305102    40.9773   1  24   0.0033   0.0036   0.0076   0.0018  -0.0032  -0.0027   0.19    3.1
2024/11/12 05:52:18.300   34.744628901  137.764305121    40.9781   1  25   0.0031   0.0034   0.0073   0.0015  -0.0028  -0.0024   0.28    3.1
2024/11/12 05:52:18.400   34.744628900  137.764305101    40.9781   1  25   0.0031   0.0034   0.0073   0.0015  -0.0028  -0.0024   0.38    3.0
2024/11/12 05:52:18.500   34.744628895  137.764305115    40.9777   1  25   0.0032   0.0034   0.0073   0.0015  -0.0028  -0.0024   0.49    3.0
2024/11/12 05:52:18.600   34.744628911  137.764305148    40.9726   1  25   0.0032   0.0034   0.0073   0.0015  -0.0029  -0.0024  -0.41    4.5
2024/11/12 05:52:18.700   34.744628911  137.764305151    40.9722   1  25   0.0031   0.0034   0.0073   0.0015  -0.0029  -0.0024  -0.31    4.5
2024/11/12 05:52:18.800   34.744628913  137.764305145    40.9748   1  25   0.0031   0.0034   0.0073   0.0015  -0.0029  -0.0024  -0.22    4.5
2024/11/12 05:52:18.900   34.744628893  137.764305134    40.9783   1  25   0.0031   0.0033   0.0071   0.0012  -0.0026  -0.0022  -0.12    4.5
2024/11/12 05:52:19.000   34.744628912  137.764305134    40.9760   1  25   0.0031   0.0033   0.0072   0.0013  -0.0027  -0.0022  -0.01    4.5
2024/11/12 05:52:19.100   34.744628907  137.764305121    40.9772   1  25   0.0031   0.0034   0.0073   0.0013  -0.0027  -0.0023   0.09    4.4
2024/11/12 05:52:19.200   34.744628902  137.764305134    40.9774   1  25   0.0031   0.0034   0.0074   0.0014  -0.0029  -0.0024   0.19    5.1
2024/11/12 05:52:19.300   34.744628905  137.764305131    40.9782   1  25   0.0032   0.0035   0.0075   0.0016  -0.0031  -0.0026   0.28    5.1
2024/11/12 05:52:19.400   34.744628900  137.764305131    40.9783   1  25   0.0033   0.0036   0.0076   0.0018  -0.0032  -0.0027   0.38    5.0
2024/11/12 05:52:19.500   34.744628898  137.764305128    40.9769   1  25   0.0031   0.0034   0.0073   0.0014  -0.0028  -0.0023   0.49    5.0
2024/11/12 05:52:19.600   34.744628878  137.764305113    40.9799   1  25   0.0030   0.0032   0.0070   0.0011  -0.0024  -0.0020  -0.41    5.0
2024/11/12 05:52:19.700   34.744628897  137.764305127    40.9771   1  25   0.0030   0.0032   0.0070   0.0011  -0.0024  -0.0020  -0.31    5.0
2024/11/12 05:52:19.800   34.744628900  137.764305123    40.9766   1  25   0.0030   0.0032   0.0070   0.0011  -0.0024  -0.0020  -0.22    5.0
2024/11/12 05:52:19.900   34.744628911  137.764305114    40.9770   1  25   0.0030   0.0032   0.0070   0.0011  -0.0024  -0.0020  -0.12    5.0
2024/11/12 05:52:20.000   34.744628899  137.764305118    40.9797   1  25   0.0030   0.0032   0.0070   0.0011  -0.0024  -0.0020  -0.01    4.9
2024/11/12 05:52:20.100   34.744628892  137.764305109    40.9781   1  25   0.0030   0.0032   0.0070   0.0011  -0.0024  -0.0020   0.09    4.9
2024/11/12 05:52:20.200   34.744628901  137.764305107    40.9777   1  25   0.0030   0.0032   0.0070   0.0011  -0.0024  -0.0020   0.19    4.9
2024/11/12 05:52:20.300   34.744628897  137.764305127    40.9779   1  25   0.0030   0.0032   0.0070   0.0011  -0.0024  -0.0020   0.28    4.9
2024/11/12 05:52:20.400   34.744628895  137.764305116    40.9776   1  25   0.0030   0.0032   0.0070   0.0011  -0.0024  -0.0020   0.38    4.9
2024/11/12 05:52:20.500   34.744628882  137.764305082    40.9844   1  25   0.0021   0.0023   0.0050   0.0008  -0.0017  -0.0014   0.49    6.7
2024/11/12 05:52:20.600   34.744628885  137.764305087    40.9836   1  25   0.0021   0.0023   0.0050   0.0008  -0.0017  -0.0014  -0.41    6.6
2024/11/12 05:52:20.700   34.744628893  137.764305095    40.9827   1  25   0.0021   0.0023   0.0050   0.0008  -0.0017  -0.0014  -0.31    6.6
2024/11/12 05:52:20.800   34.744628886  137.764305103    40.9826   1  25   0.0021   0.0023   0.0049   0.0008  -0.0017  -0.0014  -0.22    6.5
2024/11/12 05:52:20.900   34.744628894  137.764305107    40.9814   1  25   0.0021   0.0023   0.0049   0.0008  -0.0017  -0.0014  -0.12    6.5
2024/11/12 05:52:21.000   34.744628899  137.764305124    40.9786   1  25   0.0021   0.0023   0.0049   0.0008  -0.0017  -0.0014  -0.01    6.5
2024/11/12 05:52:21.100   34.744628899  137.764305121    40.9779   1  25   0.0021   0.0023   0.0049   0.0008  -0.0017  -0.0014   0.09    6.4
2024/11/12 05:52:21.200   34.744628907  137.764305137    40.9740   1  25   0.0021   0.0023   0.0049   0.0008  -0.0017  -0.0014   0.19    6.5
2024/11/12 05:52:21.300   34.744628904  137.764305124    40.9755   1  25   0.0021   0.0023   0.0049   0.0008  -0.0017  -0.0014   0.28    6.4
2024/11/12 05:52:21.400   34.744628887  137.764305102    40.9773   1  25   0.0021   0.0023   0.0049   0.0008  -0.0017  -0.0014   0.38    6.5
2024/11/12 05:52:21.500   34.744628898  137.764305119    40.9768   1  25   0.0021   0.0023   0.0049   0.0008  -0.0017  -0.0014   0.49    6.5
2024/11/12 05:52:21.600   34.744628911  137.764305116    40.9790   1  25   0.0021   0.0023   0.0049   0.0008  -0.0017  -0.0014  -0.41    6.4
2024/11/12 05:52:21.700   34.744628905  137.764305105    40.9796   1  25   0.0021   0.0023   0.0049   0.0008  -0.0017  -0.0014  -0.31    6.5
2024/11/12 05:52:21.800   34.744628896  137.764305122    40.9813   1  25   0.0021   0.0023   0.0049   0.0008  -0.0017  -0.0014  -0.22    6.4
2024/11/12 05:52:21.900   34.744628904  137.764305121    40.9813   1  25   0.0021   0.0023   0.0049   0.0008  -0.0017  -0.0014  -0.12    6.5
2024/11/12 05:52:22.000   34.744628894  137.764305104    40.9819   1  25   0.0021   0.0023   0.0049   0.0008  -0.0017  -0.0014  -0.01    6.4
2024/11/12 05:52:22.100   34.744628900  137.764305122    40.9813   1  25   0.0021   0.0023   0.0049   0.0008  -0.0017  -0.0014   0.09    6.4
2024/11/12 05:52:22.200   34.744628894  137.764305105    40.9839   1  25   0.0021   0.0023   0.0049   0.0008  -0.0017  -0.0014   0.19    6.4
2024/11/12 05:52:22.300   34.744628909  137.764305109    40.9827   1  25   0.0021   0.0023   0.0049   0.0008  -0.0017  -0.0014   0.28    6.4
2024/11/12 05:52:22.400   34.744628883  137.764305110    40.9837   1  25   0.0021   0.0023   0.0049   0.0008  -0.0017  -0.0014   0.38    6.3
2024/11/12 05:52:22.500   34.744628879  137.764305108    40.9864   1  25   0.0021   0.0023   0.0049   0.0008  -0.0017  -0.0014   0.49    6.5
2024/11/12 05:52:22.600   34.744628879  137.764305109    40.9844   1  25   0.0021   0.0023   0.0049   0.0008  -0.0017  -0.0014  -0.41    6.5
2024/11/12 05:52:22.700   34.744628871  137.764305108    40.9854   1  25   0.0021   0.0023   0.0049   0.0008  -0.0017  -0.0014  -0.31    6.5
2024/11/12 05:52:22.800   34.744628889  137.764305107    40.9841   1  25   0.0021   0.0023   0.0049   0.0008  -0.0017  -0.0014  -0.22    6.5
2024/11/12 05:52:22.900   34.744628874  137.764305082    40.9849   1  25   0.0021   0.0023   0.0049   0.0008  -0.0017  -0.0014  -0.12    6.4
2024/11/12 05:52:23.000   34.744628886  137.764305102    40.9837   1  25   0.0021   0.0023   0.0049   0.0008  -0.0017  -0.0014  -0.01    6.4
2024/11/12 05:52:23.100   34.744628883  137.764305122    40.9836   1  25   0.0021   0.0023   0.0049   0.0008  -0.0017  -0.0014   0.09    6.4
2024/11/12 05:52:23.200   34.744628869  137.764305113    40.9846   1  25   0.0021   0.0023   0.0049   0.0008  -0.0017  -0.0014   0.19    6.4
2024/11/12 05:52:23.300   34.744628872  137.764305078    40.9910   1  25   0.0021   0.0023   0.0049   0.0008  -0.0017  -0.0014   0.28    6.3
2024/11/12 05:52:23.400   34.744628881  137.764305092    40.9873   1  25   0.0021   0.0023   0.0049   0.0008  -0.0017  -0.0014   0.38    6.3
2024/11/12 05:52:23.500   34.744628878  137.764305111    40.9866   1  25   0.0021   0.0023   0.0050   0.0008  -0.0017  -0.0014   0.49    6.3
2024/11/12 05:52:23.600   34.744628895  137.764305114    40.9858   1  25   0.0021   0.0023   0.0049   0.0008  -0.0017  -0.0014  -0.41    6.3
2024/11/12 05:52:23.700   34.744628888  137.764305113    40.9857   1  25   0.0021   0.0023   0.0049   0.0008  -0.0017  -0.0014  -0.31    6.3
2024/11/12 05:52:23.800   34.744628881  137.764305097    40.9897   1  25   0.0021   0.0023   0.0049   0.0008  -0.0017  -0.0014  -0.22    6.3
2024/11/12 05:52:23.900   34.744628891  137.764305108    40.9894   1  25   0.0021   0.0023   0.0049   0.0008  -0.0017  -0.0014  -0.12    6.3
2024/11/12 05:52:24.000   34.744628867  137.764305075    40.9906   1  25   0.0021   0.0023   0.0049   0.0008  -0.0017  -0.0014  -0.01    6.3
2024/11/12 05:52:24.100   34.744628877  137.764305079    40.9881   1  25   0.0021   0.0023   0.0049   0.0008  -0.0017  -0.0014   0.09    6.3
2024/11/12 05:52:24.200   34.744628876  137.764305087    40.9884   1  25   0.0021   0.0023   0.0049   0.0008  -0.0017  -0.0014   0.19    6.3
2024/11/12 05:52:24.300   34.744628892  137.764305094    40.9860   1  25   0.0021   0.0023   0.0049   0.0008  -0.0017  -0.0014   0.28    6.3
2024/11/12 05:52:24.400   34.744628879  137.764305057    40.9901   1  25   0.0021   0.0023   0.0050   0.0008  -0.0017  -0.0014   0.38    6.2
2024/11/12 05:52:24.500   34.744628886  137.764305059    40.9915   1  25   0.0021   0.0023   0.0050   0.0008  -0.0017  -0.0014   0.49    6.2
2024/11/12 05:52:24.600   34.744628871  137.764305067    40.9941   1  25   0.0021   0.0023   0.0050   0.0008  -0.0017  -0.0014  -0.41    6.3
2024/11/12 05:52:24.700   34.744628847  137.764305080    40.9989   1  25   0.0021   0.0023   0.0050   0.0008  -0.0017  -0.0014  -0.31    6.2
2024/11/12 05:52:24.800   34.744628876  137.764305067    40.9921   1  25   0.0021   0.0023   0.0049   0.0008  -0.0017  -0.0014  -0.22    6.2
2024/11/12 05:52:24.900   34.744628887  137.764305060    40.9869   1  25   0.0021   0.0023   0.0049   0.0008  -0.0017  -0.0014  -0.12    6.2
2024/11/12 05:52:25.000   34.744628869  137.764305050    40.9887   1  25   0.0021   0.0023   0.0049   0.0008  -0.0017  -0.0014  -0.01    6.2
2024/11/12 05:52:25.100   34.744628823  137.764305003    40.9958   1  25   0.0021   0.0023   0.0049   0.0008  -0.0017  -0.0014   0.09    6.1
2024/11/12 05:52:25.200   34.744628838  137.764305036    40.9915   1  25   0.0021   0.0023   0.0050   0.0008  -0.0017  -0.0014   0.19    6.1
2024/11/12 05:52:25.300   34.744628816  137.764305008    40.9959   1  25   0.0021   0.0023   0.0050   0.0008  -0.0017  -0.0014   0.28    6.1
2024/11/12 05:52:25.400   34.744628830  137.764305010    40.9961   1  25   0.0021   0.0023   0.0050   0.0008  -0.0017  -0.0014   0.38    6.1
2024/11/12 05:52:25.500   34.744628823  137.764305013    40.9962   1  25   0.0021   0.0023   0.0050   0.0008  -0.0017  -0.0015   0.49    6.1
2024/11/12 05:52:25.600   34.744628836  137.764305012    40.9906   1  25   0.0021   0.0023   0.0050   0.0008  -0.0017  -0.0015  -0.41    6.1
2024/11/12 05:52:25.700   34.744628833  137.764305006    40.9914   1  25   0.0021   0.0023   0.0050   0.0008  -0.0017  -0.0015  -0.31    6.0
2024/11/12 05:52:25.800   34.744628824  137.764305014    40.9913   1  25   0.0021   0.0023   0.0050   0.0008  -0.0018  -0.0015  -0.22    6.0
2024/11/12 05:52:25.900   34.744628847  137.764305044    40.9896   1  25   0.0021   0.0023   0.0050   0.0008  -0.0018  -0.0015  -0.12    6.0
2024/11/12 05:52:26.000   34.744628856  137.764305025    40.9859   1  25   0.0021   0.0023   0.0050   0.0008  -0.0018  -0.0015  -0.01    6.0
2024/11/12 05:52:26.100   34.744628866  137.764305017    40.9894   1  25   0.0022   0.0023   0.0050   0.0009  -0.0018  -0.0015   0.09    6.0
2024/11/12 05:52:26.200   34.744628880  137.764305027    40.9909   1  25   0.0022   0.0024   0.0051   0.0009  -0.0019  -0.0016   0.19    6.0
2024/11/12 05:52:26.300   34.744628905  137.764305032    40.9929   1  25   0.0022   0.0024   0.0051   0.0010  -0.0019  -0.0016   0.28    6.0
2024/11/12 05:52:26.400   34.744628930  137.764305062    40.9889   1  25   0.0022   0.0023   0.0050   0.0009  -0.0018  -0.0015   0.38    6.0
2024/11/12 05:52:26.500   34.744628921  137.764305071    40.9856   1  24   0.0022   0.0024   0.0051   0.0010  -0.0020  -0.0016   0.49    6.0
2024/11/12 05:52:26.600   34.744628927  137.764305081    40.9830   1  24   0.0022   0.0024   0.0051   0.0010  -0.0020  -0.0017  -0.41    6.0
2024/11/12 05:52:26.700   34.744628928  137.764305060    40.9831   1  24   0.0022   0.0024   0.0051   0.0010  -0.0020  -0.0016  -0.31    6.0
2024/11/12 05:52:26.800   34.744628933  137.764305099    40.9766   1  24   0.0022   0.0024   0.0051   0.0010  -0.0020  -0.0016  -0.22    6.0
2024/11/12 05:52:26.900   34.744628923  137.764305114    40.9770   1  24   0.0022   0.0024   0.0051   0.0010  -0.0020  -0.0016  -0.12    6.0
2024/11/12 05:52:27.000   34.744628910  137.764305074    40.9829   1  24   0.0022   0.0024   0.0051   0.0010  -0.0020  -0.0016  -0.01    6.0
2024/11/12 05:52:27.100   34.744628907  137.764305066    40.9846   1  24   0.0022   0.0024   0.0051   0.0010  -0.0020  -0.0016   0.09    6.0
2024/11/12 05:52:27.200   34.744628905  137.764305070    40.9850   1  24   0.0022   0.0024   0.0051   0.0010  -0.0020  -0.0016   0.19    6.0
2024/11/12 05:52:27.300   34.744628905  137.764305073    40.9841   1  24   0.0022   0.0024   0.0051   0.0010  -0.0020  -0.0016   0.28    6.0
2024/11/12 05:52:27.400   34.744628907  137.764305078    40.9845   1  24   0.0022   0.0024   0.0051   0.0010  -0.0020  -0.0017   0.38    6.0
2024/11/12 05:52:27.500   34.744628900  137.764305054    40.9878   1  24   0.0022   0.0024   0.0051   0.0010  -0.0020  -0.0017   0.49    6.0
2024/11/12 05:52:27.600   34.744628908  137.764305095    40.9841   1  24   0.0022   0.0024   0.0051   0.0010  -0.0020  -0.0017  -0.41    6.0
2024/11/12 05:52:27.700   34.744628919  137.764305097    40.9816   1  24   0.0022   0.0024   0.0051   0.0010  -0.0020  -0.0016  -0.31    6.0
2024/11/12 05:52:27.800   34.744628899  137.764305081    40.9839   1  24   0.0022   0.0024   0.0051   0.0010  -0.0020  -0.0016  -0.22    6.0
2024/11/12 05:52:27.900   34.744628898  137.764305086    40.9827   1  24   0.0022   0.0024   0.0051   0.0010  -0.0020  -0.0016  -0.12    6.0
2024/11/12 05:52:28.000   34.744628922  137.764305091    40.9784   1  24   0.0022   0.0024   0.0051   0.0010  -0.0020  -0.0016  -0.01    6.0
2024/11/12 05:52:28.100   34.744628902  137.764305091    40.9790   1  24   0.0022   0.0024   0.0051   0.0010  -0.0020  -0.0016   0.09    6.0
2024/11/12 05:52:28.200   34.744628907  137.764305092    40.9816   1  24   0.0022   0.0024   0.0051   0.0010  -0.0020  -0.0016   0.19    6.0
2024/11/12 05:52:28.300   34.744628904  137.764305077    40.9819   1  24   0.0022   0.0024   0.0051   0.0010  -0.0020  -0.0016   0.28    6.0
2024/11/12 05:52:28.400   34.744628884  137.764305068    40.9830   1  24   0.0022   0.0024   0.0051   0.0010  -0.0020  -0.0017   0.38    6.0
2024/11/12 05:52:28.500   34.744628877  137.764305080    40.9793   1  24   0.0022   0.0024   0.0051   0.0010  -0.0020  -0.0017   0.49    6.0
2024/11/12 05:52:28.600   34.744628875  137.764305097    40.9764   1  24   0.0022   0.0024   0.0051   0.0010  -0.0020  -0.0017  -0.41    6.0
2024/11/12 05:52:28.700   34.744628891  137.764305120    40.9755   1  24   0.0022   0.0024   0.0051   0.0010  -0.0020  -0.0017  -0.31    6.0
2024/11/12 05:52:28.800   34.744628887  137.764305108    40.9793   1  24   0.0022   0.0024   0.0051   0.0010  -0.0020  -0.0016  -0.22    6.0
2024/11/12 05:52:28.900   34.744628891  137.764305074    40.9834   1  24   0.0022   0.0024   0.0051   0.0010  -0.0020  -0.0016  -0.12    6.0
2024/11/12 05:52:29.000   34.744628884  137.764305084    40.9830   1  24   0.0022   0.0024   0.0051   0.0010  -0.0020  -0.0016  -0.01    6.0
2024/11/12 05:52:29.100   34.744628878  137.764305063    40.9833   1  24   0.0022   0.0024   0.0051   0.0010  -0.0020  -0.0016   0.09    6.0
2024/11/12 05:52:29.200   34.744628854  137.764305044    40.9878   1  24   0.0022   0.0024   0.0051   0.0010  -0.0020  -0.0016   0.19    6.0
2024/11/12 05:52:29.300   34.744628846  137.764305042    40.9912   1  24   0.0022   0.0024   0.0051   0.0010  -0.0020  -0.0017   0.28    6.0
2024/11/12 05:52:29.400   34.744628891  137.764305013    40.9908   1  24   0.0022   0.0024   0.0051   0.0010  -0.0020  -0.0017   0.38    6.0
2024/11/12 05:52:29.500   34.744628900  137.764305054    40.9884   1  24   0.0022   0.0024   0.0051   0.0010  -0.0020  -0.0017   0.49    6.0
2024/11/12 05:52:29.600   34.744628903  137.764305058    40.9896   1  24   0.0022   0.0024   0.0051   0.0010  -0.0020  -0.0017  -0.41    6.0
2024/11/12 05:52:29.700   34.744628878  137.764305046    40.9917   1  24   0.0022   0.0024   0.0051   0.0010  -0.0020  -0.0017  -0.31    6.0
2024/11/12 05:52:29.800   34.744628893  137.764305054    40.9863   1  24   0.0022   0.0024   0.0051   0.0010  -0.0020  -0.0017  -0.22    6.0
2024/11/12 05:52:29.900   34.744628878  137.764305042    40.9894   1  24   0.0022   0.0024   0.0051   0.0010  -0.0020  -0.0017  -0.12    6.0
2024/11/12 05:52:30.000   34.744628886  137.764305049    40.9877   1  24   0.0022   0.0024   0.0051   0.0010  -0.0020  -0.0016  -0.01    6.0
2024/11/12 05:52:30.100   34.744628901  137.764305063    40.9892   1  24   0.0022   0.0024   0.0051   0.0010  -0.0020  -0.0017   0.09    6.0
2024/11/12 05:52:30.200   34.744628871  137.764305069    40.9883   1  24   0.0022   0.0024   0.0051   0.0010  -0.0020  -0.0017   0.19    6.0
2024/11/12 05:52:30.300   34.744628856  137.764305032    40.9872   1  24   0.0022   0.0024   0.0051   0.0010  -0.0020  -0.0017   0.28    6.0
2024/11/12 05:52:30.400   34.744628851  137.764305052    40.9895   1  24   0.0022   0.0024   0.0051   0.0010  -0.0020  -0.0017   0.38    5.9
2024/11/12 05:52:30.500   34.744628875  137.764305072    40.9860   1  24   0.0022   0.0024   0.0051   0.0010  -0.0020  -0.0017   0.49    5.9
2024/11/12 05:52:30.600   34.744628906  137.764305075    40.9816   1  24   0.0022   0.0024   0.0051   0.0010  -0.0020  -0.0017  -0.41    5.9
2024/11/12 05:52:30.700   34.744628897  137.764305114    40.9798   1  24   0.0022   0.0024   0.0051   0.0010  -0.0020  -0.0017  -0.31    5.9
2024/11/12 05:52:30.800   34.744628949  137.764305122    40.9808   1  24   0.0022   0.0024   0.0051   0.0010  -0.0020  -0.0017  -0.22    5.9
2024/11/12 05:52:30.900   34.744629287  137.764305217    40.9826   1  24   0.0022   0.0024   0.0051   0.0010  -0.0020  -0.0017  -0.12    5.9
2024/11/12 05:52:31.000   34.744629626  137.764305389    40.9766   1  24   0.0022   0.0024   0.0051   0.0010  -0.0020  -0.0017  -0.01    6.0
2024/11/12 05:52:31.100   34.744629834  137.764305461    40.9755   1  24   0.0022   0.0024   0.0051   0.0010  -0.0020  -0.0017   0.09    6.0
2024/11/12 05:52:31.200   34.744629963  137.764305511    40.9791   1  24   0.0022   0.0024   0.0051   0.0010  -0.0020  -0.0017   0.19    6.0
2024/11/12 05:52:31.300   34.744629979  137.764305581    40.9750   1  24   0.0022   0.0024   0.0051   0.0010  -0.0020  -0.0017   0.28    6.0
2024/11/12 05:52:31.400   34.744630016  137.764305613    40.9730   1  24   0.0022   0.0024   0.0052   0.0010  -0.0020  -0.0017   0.38    6.0
2024/11/12 05:52:31.500   34.744630122  137.764305617    40.9764   1  24   0.0022   0.0024   0.0052   0.0010  -0.0020  -0.0017   0.49    6.0
2024/11/12 05:52:31.600   34.744630191  137.764305528    40.9789   1  24   0.0022   0.0024   0.0051   0.0010  -0.0020  -0.0017  -0.41    6.0
2024/11/12 05:52:31.700   34.744630309  137.764305503    40.9780   1  25   0.0022   0.0024   0.0051   0.0009  -0.0019  -0.0016  -0.31    6.0
2024/11/12 05:52:31.800   34.744630432  137.764305535    40.9732   1  25   0.0022   0.0024   0.0052   0.0010  -0.0020  -0.0017  -0.22    7.2
2024/11/12 05:52:31.900   34.744630501  137.764305527    40.9717   1  25   0.0022   0.0024   0.0052   0.0010  -0.0020  -0.0017  -0.12    7.2
2024/11/12 05:52:32.000   34.744630597  137.764305489    40.9698   1  25   0.0022   0.0024   0.0051   0.0009  -0.0019  -0.0016  -0.01    7.2
2024/11/12 05:52:32.100   34.744630645  137.764305470    40.9692   1  25   0.0022   0.0024   0.0051   0.0009  -0.0019  -0.0016   0.09    7.2
2024/11/12 05:52:32.200   34.744630687  137.764305450    40.9733   1  25   0.0022   0.0023   0.0051   0.0009  -0.0019  -0.0016   0.19    7.2
2024/11/12 05:52:32.300   34.744630732  137.764305446    40.9743   1  25   0.0022   0.0024   0.0051   0.0009  -0.0019  -0.0016   0.28    7.2
2024/11/12 05:52:32.400   34.744630796  137.764305425    40.9722   1  25   0.0022   0.0024   0.0051   0.0009  -0.0019  -0.0016   0.38    7.2
2024/11/12 05:52:32.500   34.744630938  137.764305426    40.9695   1  25   0.0022   0.0024   0.0051   0.0009  -0.0020  -0.0016   0.49    7.2
2024/11/12 05:52:32.600   34.744631065  137.764305438    40.9660   1  25   0.0022   0.0025   0.0052   0.0010  -0.0021  -0.0017  -0.41    7.2
2024/11/12 05:52:32.700   34.744631185  137.764305376    40.9678   1  25   0.0022   0.0025   0.0053   0.0010  -0.0021  -0.0017  -0.31    7.3
2024/11/12 05:52:32.800   34.744631332  137.764305325    40.9721   1  25   0.0022   0.0025   0.0053   0.0010  -0.0022  -0.0017  -0.22    7.3
2024/11/12 05:52:32.900   34.744631457  137.764305359    40.9648   1  25   0.0022   0.0025   0.0053   0.0010  -0.0022  -0.0017  -0.12    7.3
2024/11/12 05:52:33.000   34.744631574  137.764305297    40.9669   1  24   0.0022   0.0026   0.0055   0.0010  -0.0025  -0.0017  -0.01    7.6
2024/11/12 05:52:33.100   34.744631607  137.764305267    40.9647   1  24   0.0022   0.0027   0.0055   0.0011  -0.0025  -0.0018   0.09    7.6
2024/11/12 05:52:33.200   34.744631614  137.764305206    40.9641   1  24   0.0022   0.0027   0.0056   0.0011  -0.0026  -0.0018   0.19    7.6
2024/11/12 05:52:33.300   34.744631591  137.764305189    40.9673   1  24   0.0022   0.0027   0.0056   0.0011  -0.0026  -0.0018   0.28    7.6
2024/11/12 05:52:33.400   34.744631567  137.764305203    40.9710   1  23   0.0023   0.0028   0.0057   0.0013  -0.0027  -0.0020   0.38    7.6
2024/11/12 05:52:33.500   34.744631621  137.764305279    40.9667   1  24   0.0023   0.0028   0.0057   0.0013  -0.0028  -0.0020   0.49    7.6
2024/11/12 05:52:33.600   34.744631613  137.764305311    40.9680   1  23   0.0022   0.0026   0.0055   0.0010  -0.0024  -0.0017  -0.41    7.6
2024/11/12 05:52:33.700   34.744631529  137.764305349    40.9734   1  23   0.0022   0.0026   0.0054   0.0010  -0.0024  -0.0017  -0.31    7.6
2024/11/12 05:52:33.800   34.744631448  137.764305418    40.9732   1  23   0.0022   0.0026   0.0054   0.0010  -0.0024  -0.0017  -0.22    7.6
2024/11/12 05:52:33.900   34.744631388  137.764305319    40.9741   1  23   0.0022   0.0026   0.0054   0.0010  -0.0024  -0.0017  -0.12    7.6
2024/11/12 05:52:34.000   34.744631337  137.764305267    40.9728   1  24   0.0023   0.0027   0.0055   0.0013  -0.0025  -0.0019  -0.01    7.6
2024/11/12 05:52:34.100   34.744631258  137.764305305    40.9730   1  24   0.0023   0.0026   0.0055   0.0013  -0.0025  -0.0020   0.09    7.7
2024/11/12 05:52:34.200   34.744631150  137.764305337    40.9764   1  24   0.0023   0.0026   0.0055   0.0013  -0.0024  -0.0020   0.19    7.7
2024/11/12 05:52:34.300   34.744631071  137.764305314    40.9756   1  24   0.0023   0.0026   0.0055   0.0013  -0.0024  -0.0020   0.28    7.7
2024/11/12 05:52:34.400   34.744631031  137.764305274    40.9746   1  24   0.0023   0.0026   0.0054   0.0013  -0.0024  -0.0020   0.38    7.7
2024/11/12 05:52:34.500   34.744630963  137.764305246    40.9761   1  24   0.0023   0.0026   0.0054   0.0013  -0.0024  -0.0020   0.49    7.7
2024/11/12 05:52:34.600   34.744630822  137.764305227    40.9743   1  24   0.0023   0.0026   0.0054   0.0013  -0.0023  -0.0020  -0.41    7.7
2024/11/12 05:52:34.700   34.744630707  137.764305260    40.9758   1  24   0.0023   0.0026   0.0054   0.0013  -0.0023  -0.0020  -0.31    7.8
2024/11/12 05:52:34.800   34.744630622  137.764305258    40.9764   1  24   0.0023   0.0026   0.0054   0.0013  -0.0023  -0.0020  -0.22    7.8
2024/11/12 05:52:34.900   34.744630565  137.764305153    40.9756   1  24   0.0023   0.0026   0.0054   0.0013  -0.0023  -0.0019  -0.12    7.8
2024/11/12 05:52:35.000   34.744630606  137.764305048    40.9771   1  24   0.0023   0.0026   0.0054   0.0013  -0.0023  -0.0019  -0.01    7.8
2024/11/12 05:52:35.100   34.744630635  137.764304929    40.9783   1  24   0.0023   0.0026   0.0054   0.0013  -0.0023  -0.0019   0.09    7.7
2024/11/12 05:52:35.200   34.744630649  137.764304874    40.9757   1  24   0.0023   0.0026   0.0054   0.0013  -0.0023  -0.0019   0.19    7.8
2024/11/12 05:52:35.300   34.744630680  137.764304809    40.9782   1  24   0.0022   0.0024   0.0052   0.0010  -0.0020  -0.0017   0.28    3.2
2024/11/12 05:52:35.400   34.744630697  137.764304778    40.9801   1  24   0.0022   0.0024   0.0052   0.0010  -0.0020  -0.0017   0.38    3.4
2024/11/12 05:52:35.500   34.744630693  137.764304785    40.9807   1  24   0.0022   0.0024   0.0052   0.0010  -0.0020  -0.0017   0.49    3.5
2024/11/12 05:52:35.600   34.744630799  137.764304796    40.9743   1  24   0.0022   0.0024   0.0052   0.0010  -0.0020  -0.0017  -0.41    3.7
2024/11/12 05:52:35.700   34.744630893  137.764304756    40.9754   1  24   0.0022   0.0024   0.0051   0.0010  -0.0020  -0.0017  -0.31    3.9
2024/11/12 05:52:35.800   34.744631002  137.764304756    40.9728   1  25   0.0022   0.0024   0.0051   0.0009  -0.0019  -0.0016  -0.22    4.0
2024/11/12 05:52:35.900   34.744631082  137.764304767    40.9701   1  25   0.0022   0.0024   0.0052   0.0010  -0.0020  -0.0017  -0.12    7.8
2024/11/12 05:52:36.000   34.744631097  137.764304730    40.9736   1  25   0.0022   0.0024   0.0052   0.0010  -0.0020  -0.0017  -0.01    7.8
2024/11/12 05:52:36.100   34.744631070  137.764304784    40.9796   1  25   0.0022   0.0024   0.0051   0.0009  -0.0019  -0.0016   0.09    7.8
2024/11/12 05:52:36.200   34.744631105  137.764304777    40.9801   1  25   0.0022   0.0024   0.0051   0.0009  -0.0019  -0.0016   0.19    7.8
2024/11/12 05:52:36.300   34.744631165  137.764304809    40.9778   1  25   0.0022   0.0024   0.0051   0.0009  -0.0019  -0.0016   0.28    7.8
2024/11/12 05:52:36.400   34.744631178  137.764304768    40.9792   1  25   0.0022   0.0024   0.0051   0.0009  -0.0019  -0.0016   0.38    7.8
2024/11/12 05:52:36.500   34.744631168  137.764304762    40.9825   1  25   0.0022   0.0024   0.0052   0.0010  -0.0020  -0.0017   0.49    7.8
2024/11/12 05:52:36.600   34.744631216  137.764304849    40.9744   1  25   0.0022   0.0024   0.0052   0.0010  -0.0020  -0.0017  -0.41    7.8
2024/11/12 05:52:36.700   34.744631217  137.764304850    40.9750   1  25   0.0022   0.0024   0.0051   0.0009  -0.0019  -0.0016  -0.31    7.8
2024/11/12 05:52:36.800   34.744631217  137.764304865    40.9749   1  24   0.0022   0.0024   0.0052   0.0010  -0.0020  -0.0017  -0.22    7.8
2024/11/12 05:52:36.900   34.744631224  137.764304931    40.9729   1  24   0.0022   0.0024   0.0052   0.0011  -0.0021  -0.0017  -0.12    7.8
2024/11/12 05:52:37.000   34.744631226  137.764305008    40.9750   1  24   0.0022   0.0024   0.0052   0.0011  -0.0021  -0.0017  -0.01    7.8
2024/11/12 05:52:37.100   34.744631182  137.764305092    40.9773   1  24   0.0022   0.0025   0.0052   0.0011  -0.0021  -0.0018   0.09    7.8
2024/11/12 05:52:37.200   34.744631144  137.764305236    40.9766   1  24   0.0022   0.0025   0.0053   0.0011  -0.0021  -0.0018   0.19    3.0
2024/11/12 05:52:37.300   34.744631088  137.764305317    40.9756   1  24   0.0023   0.0026   0.0054   0.0013  -0.0023  -0.0019   0.28    3.1
2024/11/12 05:52:37.400   34.744631046  137.764305446    40.9732   1  24   0.0023   0.0026   0.0054   0.0013  -0.0023  -0.0019   0.38    3.1
2024/11/12 05:52:37.500   34.744630978  137.764305533    40.9778   1  24   0.0023   0.0026   0.0054   0.0013  -0.0023  -0.0020   0.49    3.2
2024/11/12 05:52:37.600   34.744630947  137.764305638    40.9749   1  24   0.0023   0.0026   0.0054   0.0013  -0.0023  -0.0019  -0.41    3.3
2024/11/12 05:52:37.700   34.744630929  137.764305698    40.9735   1  24   0.0023   0.0026   0.0054   0.0013  -0.0023  -0.0019  -0.31    3.3
2024/11/12 05:52:37.800   34.744630908  137.764305680    40.9768   1  24   0.0023   0.0026   0.0054   0.0013  -0.0023  -0.0019  -0.22    3.4
2024/11/12 05:52:37.900   34.744630884  137.764305667    40.9765   1  24   0.0023   0.0026   0.0054   0.0013  -0.0023  -0.0019  -0.12    3.4
2024/11/12 05:52:38.000   34.744630906  137.764305605    40.9758   1  24   0.0023   0.0026   0.0054   0.0013  -0.0023  -0.0019  -0.01    3.5
2024/11/12 05:52:38.100   34.744630906  137.764305553    40.9751   1  24   0.0023   0.0026   0.0054   0.0013  -0.0023  -0.0019   0.09    3.5
2024/11/12 05:52:38.200   34.744630934  137.764305433    40.9771   1  24   0.0023   0.0026   0.0054   0.0013  -0.0023  -0.0019   0.19    3.6
2024/11/12 05:52:38.300   34.744630974  137.764305304    40.9777   1  24   0.0023   0.0026   0.0054   0.0013  -0.0023  -0.0019   0.28    3.6
2024/11/12 05:52:38.400   34.744631011  137.764305203    40.9737   1  24   0.0023   0.0026   0.0054   0.0013  -0.0023  -0.0019   0.38    3.7
2024/11/12 05:52:38.500   34.744631033  137.764305058    40.9753   1  24   0.0023   0.0026   0.0054   0.0013  -0.0023  -0.0020   0.49    3.7
2024/11/12 05:52:38.600   34.744631033  137.764305022    40.9733   1  24   0.0023   0.0026   0.0054   0.0013  -0.0023  -0.0019  -0.41    3.8
2024/11/12 05:52:38.700   34.744630974  137.764304994    40.9683   1  24   0.0023   0.0026   0.0054   0.0013  -0.0023  -0.0019  -0.31    3.8
2024/11/12 05:52:38.800   34.744630874  137.764304885    40.9708   1  24   0.0023   0.0026   0.0054   0.0013  -0.0023  -0.0019  -0.22    3.8
2024/11/12 05:52:38.900   34.744630756  137.764304832    40.9710   1  24   0.0023   0.0026   0.0054   0.0013  -0.0023  -0.0019  -0.12    3.9
2024/11/12 05:52:39.000   34.744630625  137.764304761    40.9748   1  24   0.0023   0.0026   0.0054   0.0013  -0.0023  -0.0019  -0.01    3.9
2024/11/12 05:52:39.100   34.744630520  137.764304680    40.9818   1  24   0.0023   0.0026   0.0054   0.0013  -0.0023  -0.0019   0.09    4.0
2024/11/12 05:52:39.200   34.744630438  137.764304636    40.9834   1  24   0.0023   0.0026   0.0054   0.0013  -0.0023  -0.0019   0.19    4.0
2024/11/12 05:52:39.300   34.744630417  137.764304537    40.9861   1  24   0.0022   0.0025   0.0053   0.0011  -0.0021  -0.0018   0.28    4.1
2024/11/12 05:52:39.400   34.744630436  137.764304497    40.9804   1  24   0.0022   0.0024   0.0052   0.0011  -0.0021  -0.0018   0.38    4.1
2024/11/12 05:52:39.500   34.744630376  137.764304398    40.9827   1  24   0.0022   0.0024   0.0052   0.0011  -0.0021  -0.0017   0.49    4.2
2024/11/12 05:52:39.600   34.744630343  137.764304354    40.9768   1  24   0.0022   0.0024   0.0052   0.0010  -0.0020  -0.0017  -0.41    4.2
2024/11/12 05:52:39.700   34.744630297  137.764304275    40.9792   1  24   0.0023   0.0026   0.0054   0.0013  -0.0023  -0.0019  -0.31    4.3
2024/11/12 05:52:39.800   34.744630218  137.764304186    40.9772   1  24   0.0023   0.0026   0.0054   0.0013  -0.0023  -0.0019  -0.22    4.3
2024/11/12 05:52:39.900   34.744630142  137.764304103    40.9752   1  24   0.0023   0.0026   0.0054   0.0013  -0.0023  -0.0019  -0.12    4.4
2024/11/12 05:52:40.000   34.744630020  137.764303965    40.9773   1  24   0.0023   0.0026   0.0054   0.0013  -0.0023  -0.0019  -0.01    4.4
2024/11/12 05:52:40.100   34.744629861  137.764303749    40.9792   1  24   0.0023   0.0026   0.0054   0.0013  -0.0023  -0.0019   0.09    4.5
2024/11/12 05:52:40.200   34.744629662  137.764303439    40.9822   1  24   0.0023   0.0026   0.0054   0.0013  -0.0023  -0.0019   0.19    4.5
2024/11/12 05:52:40.300   34.744629386  137.764302999    40.9748   1  24   0.0023   0.0026   0.0054   0.0013  -0.0023  -0.0019   0.28    4.6
2024/11/12 05:52:40.400   34.744629018  137.764302514    40.9688   1  24   0.0023   0.0026   0.0054   0.0013  -0.0023  -0.0019   0.38    4.6
2024/11/12 05:52:40.500   34.744628584  137.764301856    40.9783   1  24   0.0023   0.0026   0.0054   0.0013  -0.0023  -0.0020   0.49    4.7
2024/11/12 05:52:40.600   34.744628087  137.764301172    40.9710   1  24   0.0023   0.0026   0.0054   0.0013  -0.0023  -0.0020  -0.41    4.7
2024/11/12 05:52:40.700   34.744627513  137.764300389    40.9709   1  24   0.0023   0.0026   0.0054   0.0013  -0.0023  -0.0019  -0.31    4.8
2024/11/12 05:52:40.800   34.744626852  137.764299491    40.9630   1  24   0.0022   0.0024   0.0052   0.0010  -0.0020  -0.0017  -0.22    4.8
2024/11/12 05:52:40.900   34.744626132  137.764298473    40.9663   1  25   0.0022   0.0023   0.0051   0.0009  -0.0018  -0.0015  -0.12    4.9
2024/11/12 05:52:41.000   34.744625306  137.764297504    40.9489   1  25   0.0022   0.0024   0.0051   0.0010  -0.0019  -0.0016  -0.01    4.9
2024/11/12 05:52:41.100   34.744624350  137.764296263    40.9571   1  25   0.0022   0.0024   0.0051   0.0009  -0.0019  -0.0016   0.09    5.0
2024/11/12 05:52:41.200   34.744623330  137.764295056    40.9461   1  25   0.0022   0.0023   0.0051   0.0009  -0.0018  -0.0015   0.19    5.0
2024/11/12 05:52:41.300   34.744622157  137.764293656    40.9488   1  25   0.0022   0.0023   0.0050   0.0008  -0.0018  -0.0015   0.28    5.1
2024/11/12 05:52:41.400   34.744620863  137.764292263    40.9499   1  25   0.0021   0.0023   0.0050   0.0008  -0.0018  -0.0015   0.38    5.1
2024/11/12 05:52:41.500   34.744619376  137.764290780    40.9467   1  25   0.0021   0.0023   0.0050   0.0008  -0.0018  -0.0015   0.49    5.2
2024/11/12 05:52:41.600   34.744617743  137.764289320    40.9347   1  25   0.0021   0.0023   0.0050   0.0008  -0.0017  -0.0015  -0.41    5.2
2024/11/12 05:52:41.700   34.744615922  137.764287840    40.9281   1  25   0.0021   0.0023   0.0050   0.0008  -0.0017  -0.0014  -0.31    5.3
2024/11/12 05:52:41.800   34.744613891  137.764286349    40.9283   1  25   0.0021   0.0023   0.0050   0.0008  -0.0017  -0.0014  -0.22    5.3
2024/11/12 05:52:41.900   34.744611686  137.764284971    40.9206   1  25   0.0021   0.0023   0.0050   0.0008  -0.0017  -0.0014  -0.12    5.3
2024/11/12 05:52:42.000   34.744609288  137.764283649    40.9159   1  25   0.0021   0.0023   0.0050   0.0008  -0.0017  -0.0014  -0.01    5.4
2024/11/12 05:52:42.100   34.744606731  137.764282467    40.9052   1  25   0.0021   0.0023   0.0050   0.0008  -0.0017  -0.0014   0.09    5.4
2024/11/12 05:52:42.200   34.744603991  137.764281340    40.9004   1  25   0.0021   0.0023   0.0050   0.0008  -0.0017  -0.0014   0.19    5.5
2024/11/12 05:52:42.300   34.744601133  137.764280361    40.8915   1  25   0.0021   0.0023   0.0050   0.0008  -0.0017  -0.0014   0.28    5.5
2024/11/12 05:52:42.400   34.744598137  137.764279542    40.8947   1  25   0.0021   0.0023   0.0050   0.0008  -0.0017  -0.0014   0.38    5.6
2024/11/12 05:52:42.500   34.744594991  137.764278628    40.8993   1  25   0.0021   0.0023   0.0050   0.0008  -0.0017  -0.0014   0.49    5.6
2024/11/12 05:52:42.600   34.744591714  137.764277856    40.8889   1  25   0.0021   0.0023   0.0050   0.0008  -0.0017  -0.0014  -0.41    5.7
2024/11/12 05:52:42.700   34.744588202  137.764277132    40.8883   1  25   0.0021   0.0023   0.0050   0.0008  -0.0017  -0.0014  -0.31    5.7
2024/11/12 05:52:42.800   34.744584522  137.764276479    40.8813   1  25   0.0021   0.0023   0.0050   0.0008  -0.0017  -0.0014  -0.22    5.7
2024/11/12 05:52:42.900   34.744580775  137.764275978    40.8691   1  25   0.0021   0.0023   0.0050   0.0008  -0.0017  -0.0014  -0.12    5.8
2024/11/12 05:52:43.000   34.744576789  137.764275717    40.8500   1  25   0.0021   0.0023   0.0050   0.0007  -0.0017  -0.0014  -0.01    3.0
2024/11/12 05:52:43.100   34.744572734  137.764275681    40.8398   1  25   0.0021   0.0023   0.0050   0.0007  -0.0017  -0.0014   0.09    3.1
2024/11/12 05:52:43.200   34.744568640  137.764275967    40.8244   1  25   0.0021   0.0023   0.0050   0.0007  -0.0017  -0.0014   0.19    3.2
2024/11/12 05:52:43.300   34.744564460  137.764276497    40.8207   1  25   0.0021   0.0023   0.0050   0.0007  -0.0017  -0.0014   0.28    3.3
2024/11/12 05:52:43.400   34.744560376  137.764277448    40.8162   1  25   0.0021   0.0023   0.0051   0.0007  -0.0017  -0.0015   0.38    3.4
2024/11/12 05:52:43.500   34.744556350  137.764278695    40.8078   1  25   0.0021   0.0023   0.0051   0.0007  -0.0017  -0.0015   0.49    3.5
2024/11/12 05:52:43.600   34.744552315  137.764280317    40.8014   1  25   0.0021   0.0023   0.0051   0.0007  -0.0016  -0.0015  -0.41    3.6
2024/11/12 05:52:43.700   34.744548404  137.764282193    40.7971   1  25   0.0022   0.0023   0.0052   0.0007  -0.0016  -0.0016  -0.31    4.0
2024/11/12 05:52:43.800   34.744544623  137.764284120    40.7932   1  24   0.0022   0.0023   0.0052   0.0007  -0.0016  -0.0016  -0.22    4.1
2024/11/12 05:52:43.900   34.744540887  137.764286192    40.7851   1  24   0.0022   0.0023   0.0052   0.0007  -0.0016  -0.0016  -0.12    4.2
2024/11/12 05:52:44.000   34.744537229  137.764288407    40.7698   1  24   0.0022   0.0023   0.0052   0.0007  -0.0016  -0.0016  -0.01    4.3
2024/11/12 05:52:44.100   34.744533633  137.764290795    40.7510   1  24   0.0022   0.0023   0.0053   0.0007  -0.0016  -0.0016   0.09    4.4
2024/11/12 05:52:44.200   34.744530187  137.764293427    40.7372   1  24   0.0022   0.0023   0.0053   0.0007  -0.0016  -0.0017   0.19    4.5
2024/11/12 05:52:44.300   34.744526961  137.764296340    40.7360   1  24   0.0022   0.0023   0.0053   0.0007  -0.0016  -0.0017   0.28    4.6
2024/11/12 05:52:44.400   34.744523989  137.764299503    40.7448   1  24   0.0022   0.0023   0.0053   0.0007  -0.0016  -0.0017   0.38    4.7
2024/11/12 05:52:44.500   34.744521199  137.764302914    40.7533   1  24   0.0022   0.0023   0.0053   0.0007  -0.0016  -0.0017   0.49    4.8
2024/11/12 05:52:44.600   34.744518502  137.764306423    40.7585   1  24   0.0022   0.0023   0.0053   0.0007  -0.0016  -0.0017  -0.41    4.9
2024/11/12 05:52:44.700   34.744515984  137.764310055    40.7740   1  24   0.0022   0.0023   0.0053   0.0007  -0.0016  -0.0017  -0.31    5.0
2024/11/12 05:52:44.800   34.744513668  137.764313730    40.7910   1  24   0.0022   0.0023   0.0052   0.0007  -0.0016  -0.0016  -0.22    5.1
2024/11/12 05:52:44.900   34.744511480  137.764317486    40.8060   1  25   0.0022   0.0023   0.0052   0.0007  -0.0016  -0.0016  -0.12    5.2
2024/11/12 05:52:45.000   34.744509254  137.764321466    40.8177   1  25   0.0022   0.0023   0.0052   0.0007  -0.0016  -0.0016  -0.01    5.3
2024/11/12 05:52:45.100   34.744506964  137.764325601    40.8294   1  25   0.0022   0.0023   0.0052   0.0007  -0.0016  -0.0016   0.09    5.4
2024/11/12 05:52:45.200   34.744504699  137.764329999    40.8267   1  24   0.0022   0.0023   0.0052   0.0007  -0.0016  -0.0016   0.19    5.5
2024/11/12 05:52:45.300   34.744502418  137.764334623    40.8307   1  24   0.0022   0.0023   0.0052   0.0007  -0.0016  -0.0016   0.28    5.6
2024/11/12 05:52:45.400   34.744500139  137.764339480    40.8335   1  24   0.0022   0.0023   0.0052   0.0007  -0.0016  -0.0015   0.38    5.7
2024/11/12 05:52:45.500   34.744497949  137.764344581    40.8286   1  24   0.0022   0.0023   0.0052   0.0007  -0.0016  -0.0015   0.49    5.7
2024/11/12 05:52:45.600   34.744495869  137.764350025    40.8251   1  24   0.0022   0.0023   0.0052   0.0007  -0.0016  -0.0015  -0.41    5.8
2024/11/12 05:52:45.700   34.744493879  137.764355628    40.8242   1  24   0.0022   0.0023   0.0052   0.0007  -0.0016  -0.0015  -0.31    5.9
2024/11/12 05:52:45.800   34.744491979  137.764361465    40.8196   1  24   0.0022   0.0023   0.0053   0.0007  -0.0016  -0.0017  -0.22    6.0
2024/11/12 05:52:45.900   34.744490216  137.764367522    40.8191   1  24   0.0022   0.0023   0.0053   0.0007  -0.0016  -0.0017  -0.12    6.1
2024/11/12 05:52:46.000   34.744488642  137.764373756    40.8219   1  24   0.0022   0.0023   0.0053   0.0007  -0.0016  -0.0017  -0.01    6.1
2024/11/12 05:52:46.100   34.744487244  137.764380222    40.8138   1  24   0.0022   0.0023   0.0053   0.0007  -0.0016  -0.0017   0.09    6.2
2024/11/12 05:52:46.200   34.744486097  137.764386851    40.7998   1  24   0.0022   0.0023   0.0053   0.0007  -0.0016  -0.0017   0.19    6.3
2024/11/12 05:52:46.300   34.744485312  137.764393580    40.7819   1  24   0.0022   0.0023   0.0054   0.0007  -0.0016  -0.0017   0.28    6.4
2024/11/12 05:52:46.400   34.744484890  137.764400460    40.7541   1  24   0.0022   0.0023   0.0054   0.0007  -0.0016  -0.0017   0.38    6.4
2024/11/12 05:52:46.500   34.744485001  137.764407298    40.7230   1  24   0.0022   0.0023   0.0054   0.0007  -0.0016  -0.0016   0.49    6.5
2024/11/12 05:52:46.600   34.744485855  137.764414037    40.7110   1  24   0.0022   0.0023   0.0052   0.0007  -0.0016  -0.0015  -0.41    6.6
2024/11/12 05:52:46.700   34.744487251  137.764420546    40.7199   1  25   0.0022   0.0023   0.0051   0.0008  -0.0016  -0.0014  -0.31    6.7
2024/11/12 05:52:46.800   34.744489081  137.764426868    40.7527   1  24   0.0022   0.0023   0.0052   0.0008  -0.0016  -0.0014  -0.22    6.8
2024/11/12 05:52:46.900   34.744491081  137.764433123    40.7916   1  24   0.0022   0.0023   0.0052   0.0008  -0.0016  -0.0014  -0.12    6.9
2024/11/12 05:52:47.000   34.744493119  137.764439270    40.8250   1  24   0.0022   0.0023   0.0052   0.0008  -0.0016  -0.0013  -0.01    7.0
2024/11/12 05:52:47.100   34.744495212  137.764445609    40.8428   1  24   0.0022   0.0023   0.0052   0.0008  -0.0016  -0.0013   0.09    7.1
2024/11/12 05:52:47.200   34.744497392  137.764451912    40.8546   1  25   0.0022   0.0023   0.0052   0.0008  -0.0016  -0.0012   0.19    7.2
2024/11/12 05:52:47.300   34.744499548  137.764458347    40.8485   1  24   0.0022   0.0023   0.0051   0.0008  -0.0016  -0.0012   0.28    7.3
2024/11/12 05:52:47.400   34.744501653  137.764464773    40.8445   1  24   0.0022   0.0023   0.0051   0.0008  -0.0016  -0.0012   0.38    7.3
2024/11/12 05:52:47.500   34.744503729  137.764471254    40.8384   1  25   0.0022   0.0023   0.0051   0.0008  -0.0016  -0.0013   0.49    7.4
2024/11/12 05:52:47.600   34.744505678  137.764477744    40.8305   1  25   0.0022   0.0023   0.0051   0.0008  -0.0016  -0.0013  -0.41    7.5
2024/11/12 05:52:47.700   34.744507609  137.764484359    40.8182   1  25   0.0022   0.0023   0.0051   0.0008  -0.0016  -0.0013  -0.31    7.6
2024/11/12 05:52:47.800   34.744509287  137.764491056    40.7969   1  25   0.0021   0.0023   0.0051   0.0008  -0.0016  -0.0013  -0.22    7.7
2024/11/12 05:52:47.900   34.744510568  137.764497730    40.7651   1  25   0.0021   0.0023   0.0051   0.0008  -0.0016  -0.0013  -0.12    7.8
2024/11/12 05:52:48.000   34.744511468  137.764504543    40.7409   1  25   0.0022   0.0023   0.0052   0.0007  -0.0016  -0.0014  -0.01    7.9
2024/11/12 05:52:48.100   34.744511934  137.764511541    40.7241   1  25   0.0022   0.0023   0.0052   0.0007  -0.0016  -0.0014   0.09    7.9
2024/11/12 05:52:48.200   34.744511951  137.764518409    40.7158   1  25   0.0021   0.0023   0.0051   0.0008  -0.0016  -0.0013   0.19    8.0
2024/11/12 05:52:48.300   34.744511388  137.764525241    40.7424   1  25   0.0021   0.0023   0.0051   0.0008  -0.0016  -0.0013   0.28    8.1
2024/11/12 05:52:48.400   34.744510494  137.764531893    40.7721   1  25   0.0022   0.0023   0.0051   0.0008  -0.0016  -0.0013   0.38    8.2
2024/11/12 05:52:48.500   34.744509470  137.764538327    40.8206   1  25   0.0022   0.0023   0.0051   0.0008  -0.0016  -0.0013   0.49    8.3
2024/11/12 05:52:48.600   34.744508430  137.764544866    40.8605   1  25   0.0022   0.0023   0.0051   0.0008  -0.0016  -0.0013  -0.41    8.4
2024/11/12 05:52:48.700   34.744507446  137.764551437    40.8823   1  25   0.0021   0.0023   0.0051   0.0008  -0.0016  -0.0013  -0.31    8.4
2024/11/12 05:52:48.800   34.744506615  137.764558187    40.8877   1  25   0.0021   0.0023   0.0051   0.0008  -0.0016  -0.0013  -0.22    8.5
2024/11/12 05:52:48.900   34.744505942  137.764564985    40.8839   1  25   0.0021   0.0023   0.0051   0.0008  -0.0016  -0.0013  -0.12    8.6
2024/11/12 05:52:49.000   34.744505443  137.764572032    40.8733   1  25   0.0021   0.0023   0.0051   0.0008  -0.0016  -0.0013  -0.01    8.7
2024/11/12 05:52:49.100   34.744505256  137.764579243    40.8528   1  25   0.0021   0.0023   0.0051   0.0008  -0.0016  -0.0013   0.09    8.7
2024/11/12 05:52:49.200   34.744505459  137.764586621    40.8175   1  25   0.0021   0.0023   0.0051   0.0008  -0.0016  -0.0013   0.19    8.7
2024/11/12 05:52:49.300   34.744506071  137.764594017    40.7830   1  25   0.0022   0.0023   0.0051   0.0008  -0.0016  -0.0013   0.28    8.7
2024/11/12 05:52:49.400   34.744507295  137.764601362    40.7607   1  25   0.0022   0.0023   0.0051   0.0008  -0.0016  -0.0013   0.38    8.7
2024/11/12 05:52:49.500   34.744509087  137.764608411    40.7729   1  25   0.0022   0.0023   0.0051   0.0008  -0.0016  -0.0013   0.49    8.8
2024/11/12 05:52:49.600   34.744511209  137.764615017    40.8048   1  24   0.0022   0.0023   0.0051   0.0008  -0.0016  -0.0013  -0.41    8.8
2024/11/12 05:52:49.700   34.744513519  137.764621565    40.8551   1  24   0.0022   0.0023   0.0051   0.0008  -0.0016  -0.0012  -0.31    8.8
2024/11/12 05:52:49.800   34.744515721  137.764628271    40.8874   1  24   0.0022   0.0023   0.0051   0.0008  -0.0016  -0.0012  -0.22    8.8
2024/11/12 05:52:49.900   34.744517849  137.764634925    40.8934   1  25   0.0022   0.0023   0.0052   0.0008  -0.0016  -0.0013  -0.12    8.9
2024/11/12 05:52:50.000   34.744520010  137.764641659    40.8932   1  25   0.0022   0.0023   0.0052   0.0008  -0.0016  -0.0013  -0.01    8.9
2024/11/12 05:52:50.100   34.744522011  137.764648647    40.8769   1  25   0.0022   0.0023   0.0052   0.0008  -0.0016  -0.0013   0.09    8.9
2024/11/12 05:52:50.200   34.744523887  137.764655723    40.8566   1  25   0.0022   0.0023   0.0053   0.0008  -0.0016  -0.0013   0.19    8.9
2024/11/12 05:52:50.300   34.744525605  137.764663011    40.8250   1  25   0.0022   0.0023   0.0053   0.0007  -0.0016  -0.0015   0.28    9.0
2024/11/12 05:52:50.400   34.744527010  137.764670427    40.7898   1  24   0.0022   0.0023   0.0054   0.0007  -0.0015  -0.0016   0.38    9.0
2024/11/12 05:52:50.500   34.744528016  137.764677980    40.7499   1  24   0.0022   0.0023   0.0054   0.0007  -0.0015  -0.0016   0.49    9.0
2024/11/12 05:52:50.600   34.744528590  137.764685650    40.7047   1  24   0.0022   0.0023   0.0054   0.0007  -0.0016  -0.0016  -0.41    9.0
2024/11/12 05:52:50.700   34.744528450  137.764693228    40.6998   1  24   0.0022   0.0023   0.0054   0.0007  -0.0016  -0.0016  -0.31    9.1
2024/11/12 05:52:50.800   34.744527622  137.764700411    40.7090   1  24   0.0022   0.0023   0.0054   0.0007  -0.0016  -0.0016  -0.22    9.1
2024/11/12 05:52:50.900   34.744526317  137.764707222    40.7511   1  24   0.0022   0.0023   0.0054   0.0007  -0.0016  -0.0016  -0.12    9.1
2024/11/12 05:52:51.000   34.744524943  137.764713702    40.8102   1  24   0.0022   0.0023   0.0054   0.0007  -0.0016  -0.0016  -0.01    9.1
2024/11/12 05:52:51.100   34.744523656  137.764720150    40.8695   1  24   0.0022   0.0023   0.0054   0.0007  -0.0016  -0.0016   0.09    9.2
2024/11/12 05:52:51.200   34.744522560  137.764726619    40.8960   1  24   0.0022   0.0023   0.0054   0.0007  -0.0016  -0.0016   0.19    9.2
2024/11/12 05:52:51.300   34.744521696  137.764733050    40.8957   1  24   0.0022   0.0023   0.0054   0.0007  -0.0016  -0.0016   0.28    9.2
2024/11/12 05:52:51.400   34.744521044  137.764739559    40.8703   1  24   0.0022   0.0023   0.0054   0.0007  -0.0016  -0.0016   0.38    9.2
2024/11/12 05:52:51.500   34.744520700  137.764746010    40.8443   1  24   0.0022   0.0023   0.0054   0.0007  -0.0016  -0.0016   0.49    9.2
2024/11/12 05:52:51.600   34.744520758  137.764752378    40.8276   1  24   0.0022   0.0023   0.0054   0.0007  -0.0016  -0.0016  -0.41    9.3
2024/11/12 05:52:51.700   34.744521143  137.764758799    40.8221   1  24   0.0022   0.0023   0.0052   0.0007  -0.0016  -0.0015  -0.31    9.3
2024/11/12 05:52:51.800   34.744521756  137.764765408    40.8126   1  25   0.0022   0.0023   0.0052   0.0007  -0.0016  -0.0014  -0.22    9.3
2024/11/12 05:52:51.900   34.744522599  137.764771929    40.8105   1  25   0.0022   0.0023   0.0052   0.0007  -0.0016  -0.0014  -0.12    9.3
2024/11/12 05:52:52.000   34.744523836  137.764778580    40.8013   1  25   0.0022   0.0023   0.0052   0.0007  -0.0016  -0.0013  -0.01    9.4
2024/11/12 05:52:52.100   34.744525408  137.764785046    40.7948   1  24   0.0022   0.0023   0.0052   0.0008  -0.0016  -0.0013   0.09    9.4
2024/11/12 05:52:52.200   34.744527293  137.764791025    40.8025   1  24   0.0022   0.0023   0.0052   0.0008  -0.0016  -0.0012   0.19    9.4
2024/11/12 05:52:52.300   34.744529476  137.764796882    40.8159   1  24   0.0022   0.0023   0.0052   0.0008  -0.0016  -0.0012   0.28    9.4
2024/11/12 05:52:52.400   34.744531749  137.764802583    40.8249   1  24   0.0022   0.0023   0.0052   0.0008  -0.0016  -0.0012   0.38    9.4
2024/11/12 05:52:52.500   34.744534235  137.764807916    40.8349   1  24   0.0022   0.0023   0.0052   0.0008  -0.0016  -0.0011   0.49    9.5
2024/11/12 05:52:52.600   34.744536937  137.764812975    40.8352   1  24   0.0022   0.0023   0.0053   0.0008  -0.0016  -0.0010  -0.41    9.5
2024/11/12 05:52:52.700   34.744539698  137.764817839    40.8302   1  24   0.0022   0.0023   0.0053   0.0008  -0.0016  -0.0010  -0.31    9.5
2024/11/12 05:52:52.800   34.744542686  137.764822465    40.8267   1  24   0.0023   0.0023   0.0054   0.0008  -0.0016  -0.0005  -0.22    9.4
2024/11/12 05:52:52.900   34.744545864  137.764826756    40.8255   1  24   0.0023   0.0023   0.0054   0.0008  -0.0016  -0.0007  -0.12    9.4
2024/11/12 05:52:53.000   34.744549130  137.764830609    40.8267   1  23   0.0023   0.0023   0.0054   0.0008  -0.0016  -0.0008  -0.01    9.4
2024/11/12 05:52:53.100   34.744552544  137.764834338    40.8283   1  23   0.0023   0.0023   0.0054   0.0008  -0.0016  -0.0008   0.09    9.5
2024/11/12 05:52:53.200   34.744556223  137.764837738    40.8289   1  23   0.0023   0.0023   0.0054   0.0008  -0.0016  -0.0008   0.19    9.5
2024/11/12 05:52:53.300   34.744559927  137.764840766    40.8252   1  23   0.0023   0.0023   0.0054   0.0008  -0.0016  -0.0008   0.28    9.5
2024/11/12 05:52:53.400   34.744563924  137.764843377    40.8441   1  23   0.0023   0.0023   0.0054   0.0008  -0.0016  -0.0007   0.38    9.6
2024/11/12 05:52:53.500   34.744568306  137.764845959    40.8439   1  23   0.0023   0.0023   0.0055   0.0008  -0.0017  -0.0004   0.49    9.6
2024/11/12 05:52:53.600   34.744572817  137.764848119    40.8344   1  23   0.0023   0.0023   0.0055   0.0007  -0.0017  -0.0004  -0.41    9.6
2024/11/12 05:52:53.700   34.744577628  137.764849963    40.8257   1  23   0.0023   0.0023   0.0055   0.0007  -0.0017  -0.0003  -0.31    9.7
2024/11/12 05:52:53.800   34.744582605  137.764851358    40.8140   2  23   0.0024   0.0023   0.0056   0.0007  -0.0017  -0.0002  -0.22    9.7
2024/11/12 05:52:53.900   34.744587630  137.764851997    40.7997   1  23   0.0024   0.0023   0.0056   0.0007  -0.0016  -0.0002  -0.12    9.7
2024/11/12 05:52:54.000   34.744592673  137.764851950    40.7967   1  22   0.0024   0.0023   0.0058   0.0006  -0.0017   0.0003  -0.01    9.5
2024/11/12 05:52:54.100   34.744597865  137.764851402    40.8159   1  22   0.0024   0.0023   0.0058   0.0006  -0.0017   0.0002   0.09    9.6
2024/11/12 05:52:54.200   34.744603023  137.764850389    40.8282   1  22   0.0024   0.0023   0.0059   0.0006  -0.0017  -0.0005   0.19    9.6
2024/11/12 05:52:54.300   34.744608107  137.764849009    40.8199   1  22   0.0024   0.0023   0.0059   0.0006  -0.0017  -0.0005   0.28    9.7
2024/11/12 05:52:54.400   34.744612972  137.764847105    40.8072   1  22   0.0024   0.0023   0.0059   0.0006  -0.0017  -0.0005   0.38    9.7
2024/11/12 05:52:54.500   34.744617426  137.764844584    40.8055   1  22   0.0025   0.0023   0.0060   0.0006  -0.0016  -0.0002   0.49    9.7
2024/11/12 05:52:54.600   34.744621726  137.764841649    40.7961   1  22   0.0025   0.0023   0.0060   0.0006  -0.0017  -0.0002  -0.41    9.7
2024/11/12 05:52:54.700   34.744625590  137.764838324    40.7953   1  22   0.0025   0.0023   0.0060   0.0006  -0.0017  -0.0002  -0.31    9.8
2024/11/12 05:52:54.800   34.744629099  137.764834533    40.8098   1  22   0.0025   0.0023   0.0060   0.0006  -0.0016  -0.0002  -0.22    9.8
2024/11/12 05:52:54.900   34.744632533  137.764830446    40.8262   1  22   0.0024   0.0023   0.0059   0.0006  -0.0017  -0.0005  -0.12    9.8
2024/11/12 05:52:55.000   34.744635920  137.764826181    40.8313   1  23   0.0024   0.0023   0.0059   0.0006  -0.0017  -0.0008  -0.01    9.8
2024/11/12 05:52:55.100   34.744639065  137.764821598    40.8415   1  24   0.0024   0.0023   0.0058   0.0006  -0.0016  -0.0010   0.09    9.8
2024/11/12 05:52:55.200   34.744642098  137.764816700    40.8549   1  24   0.0023   0.0023   0.0058   0.0006  -0.0017  -0.0010   0.19    9.9
2024/11/12 05:52:55.300   34.744644993  137.764811601    40.8611   1  24   0.0023   0.0023   0.0058   0.0007  -0.0016  -0.0011   0.28    9.9
2024/11/12 05:52:55.400   34.744647647  137.764806129    40.8590   1  24   0.0023   0.0023   0.0058   0.0007  -0.0016  -0.0012   0.38    9.9
2024/11/12 05:52:55.500   34.744650070  137.764800377    40.8648   1  23   0.0023   0.0023   0.0058   0.0007  -0.0016  -0.0012   0.49    9.9
2024/11/12 05:52:55.600   34.744652239  137.764794428    40.8553   1  23   0.0023   0.0023   0.0057   0.0007  -0.0016  -0.0013  -0.41    9.9
2024/11/12 05:52:55.700   34.744654121  137.764788226    40.8460   1  23   0.0023   0.0023   0.0057   0.0007  -0.0016  -0.0013  -0.31   10.0
2024/11/12 05:52:55.800   34.744655573  137.764781730    40.8311   1  24   0.0023   0.0023   0.0058   0.0006  -0.0016  -0.0014  -0.22   10.0
2024/11/12 05:52:55.900   34.744656484  137.764775105    40.8075   1  23   0.0023   0.0023   0.0059   0.0006  -0.0016  -0.0013  -0.12   10.1
2024/11/12 05:52:56.000   34.744656753  137.764768322    40.8094   1  23   0.0023   0.0023   0.0059   0.0006  -0.0016  -0.0013  -0.01   10.1
2024/11/12 05:52:56.100   34.744656424  137.764761589    40.8217   1  23   0.0023   0.0023   0.0058   0.0006  -0.0016  -0.0014   0.09   10.1
2024/11/12 05:52:56.200   34.744655736  137.764754922    40.8543   1  23   0.0023   0.0023   0.0058   0.0006  -0.0017  -0.0014   0.19   10.1
2024/11/12 05:52:56.300   34.744654913  137.764748211    40.8881   1  23   0.0024   0.0023   0.0059   0.0005  -0.0017  -0.0013   0.28   10.1
2024/11/12 05:52:56.400   34.744653976  137.764741423    40.9124   1  23   0.0024   0.0023   0.0059   0.0005  -0.0017  -0.0013   0.38   10.1
2024/11/12 05:52:56.500   34.744652977  137.764734575    40.9308   1  22   0.0024   0.0023   0.0060   0.0004  -0.0018  -0.0011   0.49    9.5
2024/11/12 05:52:56.600   34.744651918  137.764727551    40.9307   1  22   0.0024   0.0023   0.0061   0.0004  -0.0018  -0.0011  -0.41    9.5
2024/11/12 05:52:56.700   34.744650897  137.764720387    40.9384   1  22   0.0024   0.0024   0.0061   0.0004  -0.0019  -0.0011  -0.31    9.5
2024/11/12 05:52:56.800   34.744649870  137.764713090    40.9391   1  24   0.0024   0.0024   0.0062   0.0003  -0.0019  -0.0010  -0.22    9.5
2024/11/12 05:52:56.900   34.744649041  137.764705602    40.9204   1  23   0.0024   0.0025   0.0064  -0.0004  -0.0022  -0.0005  -0.12   13.8
2024/11/12 05:52:57.000   34.744648418  137.764697910    40.8829   1  23   0.0025   0.0025   0.0065  -0.0004  -0.0023   0.0003  -0.01   13.9
2024/11/12 05:52:57.100   34.744648135  137.764690167    40.8213   1  23   0.0026   0.0025   0.0069  -0.0005  -0.0023   0.0013   0.09   13.9
2024/11/12 05:52:57.200   34.744648432  137.764682397    40.7826   1  24   0.0025   0.0025   0.0068  -0.0005  -0.0023   0.0011   0.19   14.0
2024/11/12 05:52:57.300   34.744649412  137.764674737    40.7744   1  21   0.0025   0.0025   0.0069  -0.0006  -0.0024   0.0011   0.28   14.0
2024/11/12 05:52:57.400   34.744650902  137.764667314    40.8059   1  21   0.0027   0.0026   0.0072  -0.0008  -0.0025   0.0018   0.38   14.0
2024/11/12 05:52:57.500   34.744652562  137.764660024    40.8529   1  22   0.0027   0.0026   0.0073  -0.0008  -0.0026   0.0019   0.49   14.1
2024/11/12 05:52:57.600   34.744654250  137.764652540    40.9196   1  22   0.0028   0.0026   0.0075  -0.0009  -0.0026   0.0021  -0.41   14.1
2024/11/12 05:52:57.700   34.744655993  137.764645081    40.9746   1  21   0.0028   0.0026   0.0075  -0.0009  -0.0026   0.0021  -0.31   14.1
2024/11/12 05:52:57.800   34.744657556  137.764637455    41.0031   1  21   0.0028   0.0026   0.0075  -0.0008  -0.0026   0.0021  -0.22   14.2
2024/11/12 05:52:57.900   34.744658991  137.764629636    41.0032   1  21   0.0028   0.0026   0.0075  -0.0009  -0.0026   0.0021  -0.12   14.3
2024/11/12 05:52:58.000   34.744660166  137.764621714    40.9809   1  21   0.0028   0.0026   0.0075  -0.0009  -0.0026   0.0022  -0.01   14.3
2024/11/12 05:52:58.100   34.744660931  137.764613610    40.9581   1  22   0.0028   0.0026   0.0075  -0.0009  -0.0026   0.0022   0.09   14.4
2024/11/12 05:52:58.200   34.744661164  137.764605521    40.9246   1  23   0.0028   0.0026   0.0076  -0.0008  -0.0026   0.0021   0.19   14.5
2024/11/12 05:52:58.300   34.744660756  137.764597391    40.9068   1  22   0.0028   0.0027   0.0079  -0.0005  -0.0029   0.0019   0.28   21.9
2024/11/12 05:52:58.400   34.744659776  137.764589410    40.9024   1  22   0.0028   0.0027   0.0079  -0.0005  -0.0030   0.0019   0.38   22.0
2024/11/12 05:52:58.500   34.744658307  137.764581642    40.9120   1  21   0.0029   0.0027   0.0079  -0.0005  -0.0030   0.0019   0.49   22.0
2024/11/12 05:52:58.600   34.744656602  137.764573935    40.9175   1  22   0.0029   0.0030   0.0083   0.0007  -0.0034   0.0013  -0.41   23.7
2024/11/12 05:52:58.700   34.744654614  137.764566324    40.9365   1  22   0.0029   0.0030   0.0082   0.0008  -0.0034   0.0009  -0.31   23.7
2024/11/12 05:52:58.800   34.744652387  137.764558894    40.9465   1  21   0.0028   0.0030   0.0082   0.0008  -0.0034   0.0008  -0.22   23.7
2024/11/12 05:52:58.900   34.744650038  137.764551567    40.9583   1  21   0.0028   0.0029   0.0081   0.0007  -0.0034   0.0008  -0.12   23.7
2024/11/12 05:52:59.000   34.744647639  137.764544318    40.9616   1  22   0.0027   0.0026   0.0074  -0.0008  -0.0026   0.0018  -0.01   14.4
2024/11/12 05:52:59.100   34.744645248  137.764537063    40.9666   1  23   0.0027   0.0026   0.0073  -0.0008  -0.0026   0.0018   0.09   14.5
2024/11/12 05:52:59.200   34.744642989  137.764529891    40.9561   1  22   0.0027   0.0026   0.0073  -0.0008  -0.0026   0.0019   0.19   14.5
