% program   : RTKPOST demo5 b34j
% inp file  : C:\Users\cs21014\Documents\Kitani\241112hyod\src\07\GNSS_MT\gnss0\ubx\241112_15.obs
% inp file  : C:\Users\cs21014\Documents\Kitani\241112hyod\src\rtk_base\COM4___9600_241112_050705.obs
% inp file  : C:\Users\cs21014\Documents\Kitani\241112hyod\src\rtk_base\COM4___9600_241112_050705.nav
% obs start : 2024/11/12 06:18:18.0 GPST (week2340 195498.0s)
% obs end   : 2024/11/12 06:28:09.8 GPST (week2340 196089.8s)
% pos mode  : Kinematic
% freqs     : L1+L2/E5b+L5
% solution  : Combined-Phase Reset
% elev mask : 15.0 deg
% dynamics  : on
% tidecorr  : on
% ionos opt : Broadcast
% tropo opt : Saastamoinen
% ephemeris : Broadcast
% navi sys  : GPS GLONASS Galileo QZSS BDS NavIC
% amb res   : Fix and Hold
% amb glo   : Fix and Hold
% val thres : 3.0
% antenna1  :                       ( 0.0000  0.0000  0.0000)
% antenna2  :                       ( 0.0000  0.0000  0.0000)
% ref pos   : 34.744454383  137.764618776    40.7897
%
% (lat/lon/height=WGS84/ellipsoidal,Q=1:fix,2:float,3:sbas,4:dgps,5:single,6:ppp,ns=# of satellites)
%  GPST                  latitude(deg) longitude(deg)  height(m)   Q  ns   sdn(m)   sde(m)   sdu(m)  sdne(m)  sdeu(m)  sdun(m) age(s)  ratio
2024/11/12 06:18:18.000   34.744630647  137.764301564    40.9952   1  24   0.0030   0.0032   0.0083   0.0011  -0.0030  -0.0029  -0.02    3.3
2024/11/12 06:18:18.100   34.744630647  137.764301548    40.9971   1  24   0.0030   0.0032   0.0083   0.0011  -0.0030  -0.0029   0.08    3.3
2024/11/12 06:18:18.200   34.744630644  137.764301542    40.9983   1  24   0.0030   0.0032   0.0083   0.0011  -0.0030  -0.0029   0.18    3.3
2024/11/12 06:18:18.300   34.744630651  137.764301556    40.9965   1  24   0.0030   0.0032   0.0083   0.0011  -0.0030  -0.0029   0.28    3.2
2024/11/12 06:18:18.400   34.744630648  137.764301553    40.9975   1  24   0.0030   0.0032   0.0084   0.0011  -0.0030  -0.0029   0.38    3.2
2024/11/12 06:18:18.500   34.744630651  137.764301537    40.9981   1  24   0.0031   0.0033   0.0084   0.0011  -0.0030  -0.0029   0.48    3.2
2024/11/12 06:18:18.600   34.744630640  137.764301555    40.9972   1  24   0.0030   0.0032   0.0084   0.0011  -0.0030  -0.0029  -0.42    3.2
2024/11/12 06:18:18.700   34.744630636  137.764301550    40.9968   1  24   0.0030   0.0032   0.0083   0.0011  -0.0030  -0.0029  -0.32    3.2
2024/11/12 06:18:18.800   34.744630643  137.764301551    40.9977   1  24   0.0030   0.0032   0.0083   0.0011  -0.0030  -0.0029  -0.22    3.2
2024/11/12 06:18:18.900   34.744630642  137.764301557    40.9960   1  24   0.0030   0.0032   0.0083   0.0011  -0.0030  -0.0029  -0.12    3.2
2024/11/12 06:18:19.000   34.744630640  137.764301554    40.9985   1  24   0.0030   0.0032   0.0083   0.0011  -0.0030  -0.0029  -0.02    3.2
2024/11/12 06:18:19.100   34.744630643  137.764301554    40.9968   1  24   0.0030   0.0032   0.0083   0.0011  -0.0030  -0.0029   0.08    3.2
2024/11/12 06:18:19.200   34.744630641  137.764301559    40.9975   1  24   0.0030   0.0032   0.0083   0.0011  -0.0030  -0.0029   0.18    3.2
2024/11/12 06:18:19.300   34.744630641  137.764301551    40.9990   1  24   0.0030   0.0032   0.0083   0.0011  -0.0030  -0.0029   0.28    3.2
2024/11/12 06:18:19.400   34.744630647  137.764301539    40.9995   1  24   0.0030   0.0032   0.0084   0.0011  -0.0030  -0.0029   0.38    3.2
2024/11/12 06:18:19.500   34.744630654  137.764301561    40.9960   1  24   0.0031   0.0032   0.0084   0.0011  -0.0030  -0.0029   0.48    3.2
2024/11/12 06:18:19.600   34.744630631  137.764301537    40.9959   1  24   0.0030   0.0032   0.0084   0.0011  -0.0030  -0.0029  -0.42    3.2
2024/11/12 06:18:19.700   34.744630633  137.764301536    40.9962   1  24   0.0030   0.0032   0.0083   0.0011  -0.0030  -0.0029  -0.32    3.2
2024/11/12 06:18:19.800   34.744630629  137.764301546    40.9979   1  24   0.0030   0.0032   0.0083   0.0011  -0.0030  -0.0029  -0.22    3.2
2024/11/12 06:18:19.900   34.744630635  137.764301551    40.9978   1  24   0.0030   0.0032   0.0083   0.0011  -0.0030  -0.0029  -0.12    3.2
2024/11/12 06:18:20.000   34.744630634  137.764301547    40.9981   1  24   0.0030   0.0032   0.0083   0.0011  -0.0030  -0.0029  -0.02    3.2
2024/11/12 06:18:20.100   34.744630628  137.764301554    40.9985   1  24   0.0030   0.0032   0.0083   0.0011  -0.0030  -0.0029   0.08    3.2
2024/11/12 06:18:20.200   34.744630637  137.764301555    40.9987   1  24   0.0030   0.0032   0.0083   0.0011  -0.0030  -0.0029   0.18    3.2
2024/11/12 06:18:20.300   34.744630624  137.764301543    41.0011   1  24   0.0030   0.0032   0.0083   0.0011  -0.0030  -0.0029   0.28    3.2
2024/11/12 06:18:20.400   34.744630642  137.764301544    40.9997   1  24   0.0030   0.0032   0.0084   0.0011  -0.0030  -0.0029   0.38    3.2
2024/11/12 06:18:20.500   34.744630639  137.764301542    40.9988   1  24   0.0031   0.0032   0.0084   0.0011  -0.0030  -0.0029   0.48    3.2
2024/11/12 06:18:20.600   34.744630635  137.764301561    40.9950   1  24   0.0030   0.0032   0.0084   0.0011  -0.0030  -0.0029  -0.42    3.2
2024/11/12 06:18:20.700   34.744630645  137.764301563    40.9939   1  24   0.0030   0.0032   0.0083   0.0011  -0.0030  -0.0029  -0.32    3.2
2024/11/12 06:18:20.800   34.744630643  137.764301561    40.9955   1  24   0.0030   0.0032   0.0083   0.0011  -0.0030  -0.0029  -0.22    3.1
2024/11/12 06:18:20.900   34.744630637  137.764301564    40.9930   1  24   0.0030   0.0032   0.0083   0.0011  -0.0030  -0.0029  -0.12    3.1
2024/11/12 06:18:21.000   34.744630642  137.764301566    40.9949   1  24   0.0030   0.0032   0.0083   0.0011  -0.0030  -0.0029  -0.02    3.1
2024/11/12 06:18:21.100   34.744630633  137.764301556    40.9973   1  24   0.0030   0.0032   0.0083   0.0011  -0.0030  -0.0029   0.08    3.1
2024/11/12 06:18:21.200   34.744630636  137.764301560    40.9990   1  24   0.0030   0.0032   0.0083   0.0011  -0.0030  -0.0029   0.18    3.1
2024/11/12 06:18:21.300   34.744630637  137.764301554    40.9981   1  24   0.0021   0.0023   0.0059   0.0008  -0.0021  -0.0021   0.28    4.0
2024/11/12 06:18:21.400   34.744630645  137.764301556    40.9958   1  24   0.0022   0.0023   0.0060   0.0008  -0.0022  -0.0021   0.38    4.0
2024/11/12 06:18:21.500   34.744630635  137.764301557    40.9960   1  24   0.0021   0.0023   0.0059   0.0008  -0.0021  -0.0021   0.48    4.0
2024/11/12 06:18:21.600   34.744630636  137.764301566    40.9953   1  24   0.0021   0.0023   0.0059   0.0008  -0.0021  -0.0021  -0.42    4.0
2024/11/12 06:18:21.700   34.744630632  137.764301554    40.9970   1  24   0.0021   0.0023   0.0059   0.0008  -0.0021  -0.0021  -0.32    4.0
2024/11/12 06:18:21.800   34.744630632  137.764301557    40.9968   1  24   0.0021   0.0023   0.0059   0.0008  -0.0021  -0.0021  -0.22    4.1
2024/11/12 06:18:21.900   34.744630634  137.764301549    40.9983   1  24   0.0021   0.0023   0.0059   0.0008  -0.0021  -0.0020  -0.12    4.1
2024/11/12 06:18:22.000   34.744630632  137.764301551    40.9973   1  24   0.0021   0.0023   0.0059   0.0008  -0.0021  -0.0020  -0.02    4.1
2024/11/12 06:18:22.100   34.744630625  137.764301555    40.9995   1  24   0.0021   0.0023   0.0059   0.0008  -0.0021  -0.0020   0.08    4.1
2024/11/12 06:18:22.200   34.744630630  137.764301560    41.0001   1  24   0.0021   0.0023   0.0059   0.0008  -0.0021  -0.0020   0.18    4.1
2024/11/12 06:18:22.300   34.744630622  137.764301563    41.0016   1  24   0.0021   0.0023   0.0059   0.0008  -0.0021  -0.0021   0.28    4.1
2024/11/12 06:18:22.400   34.744630630  137.764301558    41.0004   1  24   0.0021   0.0023   0.0059   0.0008  -0.0021  -0.0021   0.38    4.1
2024/11/12 06:18:22.500   34.744630628  137.764301561    41.0005   1  24   0.0021   0.0023   0.0059   0.0008  -0.0021  -0.0021   0.48    4.1
2024/11/12 06:18:22.600   34.744630623  137.764301536    41.0014   1  24   0.0021   0.0023   0.0059   0.0008  -0.0021  -0.0021  -0.42    4.1
2024/11/12 06:18:22.700   34.744630619  137.764301551    41.0009   1  24   0.0021   0.0023   0.0059   0.0008  -0.0021  -0.0021  -0.32    4.1
2024/11/12 06:18:22.800   34.744630628  137.764301550    40.9997   1  24   0.0021   0.0023   0.0059   0.0008  -0.0021  -0.0020  -0.22    4.1
2024/11/12 06:18:22.900   34.744630632  137.764301541    40.9991   1  24   0.0021   0.0023   0.0059   0.0008  -0.0021  -0.0020  -0.12    4.1
2024/11/12 06:18:23.000   34.744630630  137.764301548    41.0008   1  24   0.0021   0.0023   0.0059   0.0008  -0.0021  -0.0020  -0.02    4.1
2024/11/12 06:18:23.100   34.744630622  137.764301544    41.0014   1  24   0.0021   0.0023   0.0059   0.0008  -0.0021  -0.0020   0.08    4.1
2024/11/12 06:18:23.200   34.744630638  137.764301548    40.9996   1  24   0.0021   0.0023   0.0059   0.0008  -0.0021  -0.0020   0.18    4.1
2024/11/12 06:18:23.300   34.744630630  137.764301535    41.0033   1  24   0.0021   0.0023   0.0059   0.0008  -0.0021  -0.0021   0.28    4.1
2024/11/12 06:18:23.400   34.744630630  137.764301533    41.0046   1  24   0.0021   0.0023   0.0059   0.0008  -0.0021  -0.0021   0.38    4.1
2024/11/12 06:18:23.500   34.744630627  137.764301543    41.0027   1  24   0.0021   0.0023   0.0059   0.0008  -0.0021  -0.0021   0.48    4.1
2024/11/12 06:18:23.600   34.744630645  137.764301549    40.9977   1  24   0.0021   0.0023   0.0059   0.0008  -0.0021  -0.0021  -0.42    4.1
2024/11/12 06:18:23.700   34.744630646  137.764301553    40.9972   1  24   0.0021   0.0023   0.0059   0.0008  -0.0021  -0.0021  -0.32    4.1
2024/11/12 06:18:23.800   34.744630642  137.764301559    40.9969   1  24   0.0021   0.0023   0.0059   0.0008  -0.0021  -0.0021  -0.22    4.1
2024/11/12 06:18:23.900   34.744630632  137.764301548    40.9997   1  24   0.0021   0.0023   0.0059   0.0008  -0.0021  -0.0020  -0.12    4.1
2024/11/12 06:18:24.000   34.744630649  137.764301556    40.9977   1  24   0.0021   0.0023   0.0059   0.0008  -0.0021  -0.0020  -0.02    4.1
2024/11/12 06:18:24.100   34.744630643  137.764301554    40.9997   1  24   0.0021   0.0023   0.0059   0.0008  -0.0021  -0.0020   0.08    4.1
2024/11/12 06:18:24.200   34.744630646  137.764301552    40.9990   1  24   0.0021   0.0023   0.0059   0.0008  -0.0021  -0.0020   0.18    4.1
2024/11/12 06:18:24.300   34.744630636  137.764301555    41.0004   1  24   0.0021   0.0023   0.0059   0.0008  -0.0021  -0.0021   0.28    4.1
2024/11/12 06:18:24.400   34.744630643  137.764301551    41.0036   1  24   0.0021   0.0023   0.0059   0.0008  -0.0021  -0.0021   0.38    4.1
2024/11/12 06:18:24.500   34.744630651  137.764301557    40.9995   1  24   0.0021   0.0023   0.0059   0.0008  -0.0021  -0.0021   0.48    4.1
2024/11/12 06:18:24.600   34.744630639  137.764301561    41.0012   1  24   0.0021   0.0023   0.0059   0.0008  -0.0021  -0.0021  -0.42    4.1
2024/11/12 06:18:24.700   34.744630642  137.764301560    40.9976   1  24   0.0021   0.0023   0.0059   0.0008  -0.0021  -0.0021  -0.32    4.1
2024/11/12 06:18:24.800   34.744630647  137.764301556    41.0002   1  24   0.0021   0.0023   0.0059   0.0008  -0.0021  -0.0021  -0.22    4.2
2024/11/12 06:18:24.900   34.744630636  137.764301550    41.0008   1  24   0.0021   0.0023   0.0059   0.0008  -0.0021  -0.0020  -0.12    4.2
2024/11/12 06:18:25.000   34.744630648  137.764301552    40.9984   1  24   0.0021   0.0023   0.0059   0.0008  -0.0021  -0.0020  -0.02    4.2
2024/11/12 06:18:25.100   34.744630648  137.764301571    40.9995   1  24   0.0021   0.0023   0.0059   0.0008  -0.0021  -0.0020   0.08    4.2
2024/11/12 06:18:25.200   34.744630643  137.764301548    40.9989   1  24   0.0021   0.0023   0.0059   0.0008  -0.0021  -0.0020   0.18    4.2
2024/11/12 06:18:25.300   34.744630642  137.764301560    40.9995   1  24   0.0021   0.0023   0.0059   0.0008  -0.0021  -0.0021   0.28    4.2
2024/11/12 06:18:25.400   34.744630643  137.764301575    41.0000   1  24   0.0021   0.0023   0.0059   0.0008  -0.0021  -0.0021   0.38    4.2
2024/11/12 06:18:25.500   34.744630646  137.764301553    41.0006   1  24   0.0021   0.0023   0.0059   0.0008  -0.0021  -0.0021   0.48    4.2
2024/11/12 06:18:25.600   34.744630642  137.764301532    40.9997   1  24   0.0021   0.0023   0.0059   0.0008  -0.0021  -0.0021  -0.42    4.2
2024/11/12 06:18:25.700   34.744630641  137.764301525    41.0028   1  24   0.0021   0.0023   0.0059   0.0008  -0.0021  -0.0021  -0.32    4.2
2024/11/12 06:18:25.800   34.744630649  137.764301541    41.0008   1  24   0.0021   0.0023   0.0059   0.0008  -0.0021  -0.0021  -0.22    4.2
2024/11/12 06:18:25.900   34.744630637  137.764301530    41.0012   1  24   0.0021   0.0023   0.0059   0.0008  -0.0021  -0.0020  -0.12    4.2
2024/11/12 06:18:26.000   34.744630647  137.764301529    41.0015   1  24   0.0021   0.0023   0.0059   0.0008  -0.0021  -0.0020  -0.02    4.2
2024/11/12 06:18:26.100   34.744630635  137.764301542    41.0023   1  24   0.0021   0.0023   0.0059   0.0008  -0.0021  -0.0020   0.08    4.3
2024/11/12 06:18:26.200   34.744630634  137.764301538    41.0024   1  24   0.0021   0.0023   0.0059   0.0008  -0.0021  -0.0021   0.18    4.3
2024/11/12 06:18:26.300   34.744630638  137.764301522    41.0024   1  24   0.0021   0.0023   0.0059   0.0008  -0.0021  -0.0021   0.28    4.3
2024/11/12 06:18:26.400   34.744630637  137.764301543    41.0036   1  24   0.0021   0.0023   0.0059   0.0008  -0.0021  -0.0021   0.38    4.3
2024/11/12 06:18:26.500   34.744630629  137.764301533    41.0048   1  24   0.0021   0.0023   0.0059   0.0008  -0.0021  -0.0021   0.48    4.3
2024/11/12 06:18:26.600   34.744630632  137.764301547    41.0000   1  24   0.0021   0.0023   0.0059   0.0008  -0.0021  -0.0021  -0.42    4.3
2024/11/12 06:18:26.700   34.744630629  137.764301543    41.0007   1  24   0.0021   0.0023   0.0059   0.0008  -0.0021  -0.0021  -0.32    4.3
2024/11/12 06:18:26.800   34.744630637  137.764301545    40.9973   1  24   0.0021   0.0023   0.0059   0.0008  -0.0021  -0.0021  -0.22    4.3
2024/11/12 06:18:26.900   34.744630632  137.764301542    41.0007   1  24   0.0021   0.0023   0.0059   0.0008  -0.0021  -0.0020  -0.12    4.3
2024/11/12 06:18:27.000   34.744630639  137.764301547    41.0004   1  24   0.0021   0.0023   0.0059   0.0008  -0.0021  -0.0020  -0.02    4.3
2024/11/12 06:18:27.100   34.744630636  137.764301546    41.0018   1  24   0.0021   0.0023   0.0059   0.0008  -0.0021  -0.0020   0.08    4.3
2024/11/12 06:18:27.200   34.744630636  137.764301547    41.0014   1  24   0.0021   0.0023   0.0059   0.0008  -0.0021  -0.0021   0.18    4.3
2024/11/12 06:18:27.300   34.744630638  137.764301546    41.0029   1  24   0.0021   0.0023   0.0059   0.0008  -0.0021  -0.0021   0.28    4.3
2024/11/12 06:18:27.400   34.744630643  137.764301554    40.9998   1  24   0.0021   0.0023   0.0059   0.0008  -0.0021  -0.0021   0.38    4.3
2024/11/12 06:18:27.500   34.744630633  137.764301559    41.0008   1  24   0.0021   0.0023   0.0059   0.0008  -0.0021  -0.0021   0.48    4.3
2024/11/12 06:18:27.600   34.744630644  137.764301544    40.9970   1  24   0.0021   0.0023   0.0059   0.0008  -0.0021  -0.0021  -0.42    4.3
2024/11/12 06:18:27.700   34.744630639  137.764301542    40.9982   1  24   0.0021   0.0023   0.0059   0.0008  -0.0021  -0.0021  -0.32    4.3
2024/11/12 06:18:27.800   34.744630636  137.764301546    40.9986   1  24   0.0021   0.0023   0.0059   0.0008  -0.0021  -0.0021  -0.22    4.3
2024/11/12 06:18:27.900   34.744630640  137.764301551    40.9976   1  24   0.0021   0.0023   0.0059   0.0008  -0.0021  -0.0020  -0.12    4.3
2024/11/12 06:18:28.000   34.744630639  137.764301546    40.9998   1  24   0.0021   0.0023   0.0059   0.0008  -0.0021  -0.0020  -0.02    4.3
2024/11/12 06:18:28.100   34.744630635  137.764301559    40.9993   1  24   0.0021   0.0023   0.0059   0.0008  -0.0021  -0.0020   0.08    4.3
2024/11/12 06:18:28.200   34.744630635  137.764301540    41.0023   1  24   0.0021   0.0023   0.0059   0.0008  -0.0021  -0.0021   0.18    4.3
2024/11/12 06:18:28.300   34.744630637  137.764301551    41.0018   1  24   0.0021   0.0023   0.0059   0.0008  -0.0021  -0.0021   0.28    4.3
2024/11/12 06:18:28.400   34.744630638  137.764301542    41.0015   1  24   0.0021   0.0023   0.0059   0.0008  -0.0021  -0.0021   0.38    4.3
2024/11/12 06:18:28.500   34.744630629  137.764301552    41.0028   1  24   0.0021   0.0023   0.0059   0.0008  -0.0021  -0.0021   0.48    4.3
2024/11/12 06:18:28.600   34.744630655  137.764301551    40.9960   1  24   0.0021   0.0023   0.0059   0.0008  -0.0021  -0.0021  -0.42    4.4
2024/11/12 06:18:28.700   34.744630636  137.764301538    40.9980   1  24   0.0021   0.0023   0.0059   0.0008  -0.0021  -0.0021  -0.32    4.4
2024/11/12 06:18:28.800   34.744630641  137.764301553    40.9974   1  24   0.0021   0.0023   0.0059   0.0008  -0.0021  -0.0021  -0.22    4.4
2024/11/12 06:18:28.900   34.744630650  137.764301552    40.9986   1  24   0.0021   0.0023   0.0059   0.0008  -0.0021  -0.0020  -0.12    4.4
2024/11/12 06:18:29.000   34.744630643  137.764301544    40.9999   1  24   0.0021   0.0023   0.0059   0.0008  -0.0021  -0.0020  -0.02    4.4
2024/11/12 06:18:29.100   34.744630636  137.764301545    41.0015   1  24   0.0021   0.0023   0.0059   0.0008  -0.0021  -0.0020   0.08    4.4
2024/11/12 06:18:29.200   34.744630637  137.764301554    41.0014   1  24   0.0021   0.0023   0.0059   0.0008  -0.0021  -0.0021   0.18    4.4
2024/11/12 06:18:29.300   34.744630638  137.764301544    41.0010   1  24   0.0021   0.0023   0.0059   0.0008  -0.0021  -0.0021   0.28    4.4
2024/11/12 06:18:29.400   34.744630640  137.764301547    41.0019   1  24   0.0021   0.0023   0.0059   0.0008  -0.0021  -0.0021   0.38    4.4
2024/11/12 06:18:29.500   34.744630641  137.764301543    40.9996   1  24   0.0021   0.0023   0.0059   0.0008  -0.0021  -0.0021   0.48    4.4
2024/11/12 06:18:29.600   34.744630653  137.764301535    40.9973   1  24   0.0021   0.0023   0.0059   0.0008  -0.0021  -0.0021  -0.42    4.4
2024/11/12 06:18:29.700   34.744630651  137.764301556    40.9977   1  24   0.0021   0.0023   0.0059   0.0008  -0.0021  -0.0021  -0.32    4.4
2024/11/12 06:18:29.800   34.744630651  137.764301552    40.9963   1  24   0.0021   0.0023   0.0059   0.0008  -0.0021  -0.0021  -0.22    4.4
2024/11/12 06:18:29.900   34.744630650  137.764301545    40.9974   1  24   0.0021   0.0023   0.0059   0.0008  -0.0021  -0.0021  -0.12    4.4
2024/11/12 06:18:30.000   34.744630649  137.764301551    40.9972   1  24   0.0021   0.0023   0.0059   0.0008  -0.0021  -0.0020  -0.02    4.4
2024/11/12 06:18:30.100   34.744630658  137.764301546    40.9978   1  24   0.0021   0.0023   0.0059   0.0008  -0.0021  -0.0020   0.08    4.4
2024/11/12 06:18:30.200   34.744630654  137.764301543    40.9984   1  24   0.0021   0.0023   0.0059   0.0008  -0.0021  -0.0021   0.18    4.4
2024/11/12 06:18:30.300   34.744630653  137.764301558    40.9982   1  24   0.0021   0.0023   0.0059   0.0008  -0.0021  -0.0021   0.28    4.4
2024/11/12 06:18:30.400   34.744630642  137.764301544    41.0021   1  24   0.0021   0.0023   0.0059   0.0008  -0.0021  -0.0021   0.38    4.4
2024/11/12 06:18:30.500   34.744630661  137.764301547    40.9989   1  24   0.0021   0.0023   0.0059   0.0008  -0.0021  -0.0021   0.48    4.4
2024/11/12 06:18:30.600   34.744630658  137.764301552    40.9956   1  24   0.0021   0.0023   0.0059   0.0008  -0.0021  -0.0021  -0.42    4.4
2024/11/12 06:18:30.700   34.744630647  137.764301544    40.9967   1  24   0.0021   0.0023   0.0059   0.0008  -0.0021  -0.0021  -0.32    4.4
2024/11/12 06:18:30.800   34.744630650  137.764301542    40.9965   1  24   0.0021   0.0023   0.0059   0.0008  -0.0021  -0.0021  -0.22    4.4
2024/11/12 06:18:30.900   34.744630652  137.764301541    40.9968   1  24   0.0021   0.0023   0.0059   0.0008  -0.0021  -0.0021  -0.12    4.4
2024/11/12 06:18:31.000   34.744630652  137.764301541    40.9982   1  24   0.0021   0.0023   0.0059   0.0008  -0.0021  -0.0020  -0.02    4.5
2024/11/12 06:18:31.100   34.744630646  137.764301551    40.9990   1  24   0.0021   0.0023   0.0059   0.0008  -0.0021  -0.0021   0.08    4.5
2024/11/12 06:18:31.200   34.744630656  137.764301546    40.9989   1  24   0.0021   0.0023   0.0059   0.0008  -0.0021  -0.0021   0.18    4.5
2024/11/12 06:18:31.300   34.744630646  137.764301541    40.9999   1  24   0.0021   0.0023   0.0059   0.0008  -0.0021  -0.0021   0.28    4.5
2024/11/12 06:18:31.400   34.744630644  137.764301548    41.0014   1  24   0.0021   0.0023   0.0059   0.0008  -0.0021  -0.0021   0.38    4.5
2024/11/12 06:18:31.500   34.744630653  137.764301545    40.9986   1  24   0.0021   0.0023   0.0059   0.0008  -0.0021  -0.0021   0.48    4.5
2024/11/12 06:18:31.600   34.744630648  137.764301551    40.9942   1  24   0.0021   0.0023   0.0059   0.0008  -0.0021  -0.0021  -0.42    4.5
2024/11/12 06:18:31.700   34.744630639  137.764301536    40.9965   1  24   0.0021   0.0023   0.0059   0.0008  -0.0021  -0.0021  -0.32    4.5
2024/11/12 06:18:31.800   34.744630641  137.764301548    40.9951   1  24   0.0021   0.0023   0.0059   0.0008  -0.0021  -0.0021  -0.22    4.5
2024/11/12 06:18:31.900   34.744630643  137.764301542    40.9949   1  24   0.0021   0.0023   0.0059   0.0008  -0.0021  -0.0021  -0.12    4.5
2024/11/12 06:18:32.000   34.744630637  137.764301543    40.9983   1  24   0.0021   0.0023   0.0059   0.0008  -0.0021  -0.0021  -0.02    4.5
2024/11/12 06:18:32.100   34.744630635  137.764301539    40.9994   1  24   0.0021   0.0023   0.0059   0.0008  -0.0021  -0.0021   0.08    4.5
2024/11/12 06:18:32.200   34.744630637  137.764301534    41.0004   1  24   0.0021   0.0023   0.0059   0.0008  -0.0021  -0.0021   0.18    4.5
2024/11/12 06:18:32.300   34.744630635  137.764301533    41.0009   1  24   0.0021   0.0023   0.0059   0.0008  -0.0021  -0.0021   0.28    4.5
2024/11/12 06:18:32.400   34.744630631  137.764301546    41.0008   1  24   0.0021   0.0023   0.0059   0.0008  -0.0021  -0.0021   0.38    4.5
2024/11/12 06:18:32.500   34.744630633  137.764301539    40.9994   1  24   0.0021   0.0023   0.0059   0.0008  -0.0021  -0.0021   0.48    4.5
2024/11/12 06:18:32.600   34.744630641  137.764301565    40.9947   1  24   0.0021   0.0023   0.0059   0.0008  -0.0021  -0.0021  -0.42    4.5
2024/11/12 06:18:32.700   34.744630647  137.764301554    40.9941   1  24   0.0021   0.0023   0.0059   0.0008  -0.0021  -0.0021  -0.32    4.5
2024/11/12 06:18:32.800   34.744630642  137.764301561    40.9941   1  24   0.0021   0.0023   0.0059   0.0008  -0.0021  -0.0021  -0.22    4.5
2024/11/12 06:18:32.900   34.744630645  137.764301551    40.9971   1  24   0.0021   0.0023   0.0059   0.0008  -0.0021  -0.0021  -0.12    4.5
2024/11/12 06:18:33.000   34.744630642  137.764301556    40.9961   1  24   0.0021   0.0023   0.0059   0.0008  -0.0021  -0.0021  -0.02    4.5
2024/11/12 06:18:33.100   34.744630637  137.764301546    40.9989   1  24   0.0021   0.0023   0.0059   0.0008  -0.0021  -0.0021   0.08    4.5
2024/11/12 06:18:33.200   34.744630643  137.764301559    40.9986   1  24   0.0021   0.0023   0.0059   0.0008  -0.0021  -0.0021   0.18    4.5
2024/11/12 06:18:33.300   34.744630640  137.764301569    41.0018   1  24   0.0021   0.0023   0.0059   0.0008  -0.0021  -0.0021   0.28    4.5
2024/11/12 06:18:33.400   34.744630633  137.764301547    41.0017   1  24   0.0021   0.0023   0.0059   0.0008  -0.0021  -0.0021   0.38    4.5
2024/11/12 06:18:33.500   34.744630633  137.764301550    41.0013   1  24   0.0021   0.0023   0.0059   0.0008  -0.0021  -0.0021   0.48    4.5
2024/11/12 06:18:33.600   34.744630649  137.764301555    40.9940   1  24   0.0021   0.0023   0.0059   0.0008  -0.0021  -0.0021  -0.42    4.5
2024/11/12 06:18:33.700   34.744630644  137.764301545    40.9950   1  24   0.0021   0.0023   0.0059   0.0008  -0.0021  -0.0021  -0.32    4.5
2024/11/12 06:18:33.800   34.744630632  137.764301540    40.9975   1  24   0.0021   0.0023   0.0059   0.0008  -0.0021  -0.0021  -0.22    4.5
2024/11/12 06:18:33.900   34.744630651  137.764301536    40.9972   1  24   0.0021   0.0023   0.0059   0.0008  -0.0021  -0.0021  -0.12    4.5
2024/11/12 06:18:34.000   34.744630651  137.764301544    40.9963   1  24   0.0021   0.0023   0.0059   0.0008  -0.0021  -0.0021  -0.02    4.5
2024/11/12 06:18:34.100   34.744630648  137.764301545    40.9949   1  24   0.0021   0.0023   0.0059   0.0008  -0.0021  -0.0021   0.08    4.5
2024/11/12 06:18:34.200   34.744630645  137.764301538    41.0000   1  24   0.0021   0.0023   0.0059   0.0008  -0.0021  -0.0021   0.18    4.5
2024/11/12 06:18:34.300   34.744630651  137.764301535    40.9983   1  24   0.0021   0.0023   0.0059   0.0008  -0.0021  -0.0021   0.28    4.5
2024/11/12 06:18:34.400   34.744630643  137.764301539    40.9984   1  24   0.0021   0.0023   0.0059   0.0008  -0.0021  -0.0021   0.38    4.5
2024/11/12 06:18:34.500   34.744630641  137.764301533    41.0017   1  24   0.0021   0.0023   0.0059   0.0008  -0.0021  -0.0021   0.48    4.5
2024/11/12 06:18:34.600   34.744630629  137.764301533    41.0017   1  24   0.0021   0.0023   0.0059   0.0008  -0.0021  -0.0021  -0.42    4.5
2024/11/12 06:18:34.700   34.744630629  137.764301537    41.0038   1  24   0.0021   0.0023   0.0059   0.0008  -0.0021  -0.0021  -0.32    4.5
2024/11/12 06:18:34.800   34.744630634  137.764301539    41.0031   1  24   0.0021   0.0023   0.0059   0.0008  -0.0021  -0.0021  -0.22    4.5
2024/11/12 06:18:34.900   34.744630628  137.764301530    41.0036   1  24   0.0021   0.0023   0.0059   0.0008  -0.0021  -0.0021  -0.12    4.5
2024/11/12 06:18:35.000   34.744630629  137.764301538    41.0034   1  24   0.0021   0.0023   0.0059   0.0008  -0.0021  -0.0021  -0.02    4.6
2024/11/12 06:18:35.100   34.744630620  137.764301541    41.0037   1  24   0.0021   0.0023   0.0059   0.0008  -0.0021  -0.0021   0.08    4.6
2024/11/12 06:18:35.200   34.744630630  137.764301541    41.0019   1  24   0.0021   0.0023   0.0059   0.0008  -0.0021  -0.0021   0.18    4.6
2024/11/12 06:18:35.300   34.744630633  137.764301548    41.0035   1  24   0.0021   0.0023   0.0059   0.0008  -0.0021  -0.0021   0.28    4.6
2024/11/12 06:18:35.400   34.744630630  137.764301537    41.0042   1  24   0.0021   0.0023   0.0059   0.0008  -0.0021  -0.0021   0.38    4.6
2024/11/12 06:18:35.500   34.744630626  137.764301536    41.0040   1  24   0.0021   0.0023   0.0059   0.0008  -0.0021  -0.0021   0.48    4.6
2024/11/12 06:18:35.600   34.744630636  137.764301535    41.0026   1  24   0.0021   0.0023   0.0059   0.0008  -0.0021  -0.0021  -0.42    4.6
2024/11/12 06:18:35.700   34.744630636  137.764301541    41.0007   1  24   0.0021   0.0023   0.0059   0.0008  -0.0021  -0.0021  -0.32    4.6
2024/11/12 06:18:35.800   34.744630635  137.764301529    41.0023   1  24   0.0021   0.0023   0.0059   0.0008  -0.0021  -0.0021  -0.22    4.6
2024/11/12 06:18:35.900   34.744630649  137.764301537    41.0019   1  24   0.0021   0.0023   0.0059   0.0008  -0.0021  -0.0021  -0.12    4.6
2024/11/12 06:18:36.000   34.744630631  137.764301529    41.0028   1  24   0.0021   0.0023   0.0059   0.0008  -0.0021  -0.0021  -0.02    4.6
2024/11/12 06:18:36.100   34.744630630  137.764301525    41.0022   1  24   0.0021   0.0023   0.0059   0.0008  -0.0021  -0.0021   0.08    4.6
2024/11/12 06:18:36.200   34.744630644  137.764301530    41.0022   1  24   0.0021   0.0023   0.0059   0.0008  -0.0021  -0.0021   0.18    4.6
2024/11/12 06:18:36.300   34.744630649  137.764301544    41.0021   1  24   0.0021   0.0023   0.0059   0.0008  -0.0021  -0.0021   0.28    4.6
2024/11/12 06:18:36.400   34.744630636  137.764301526    41.0038   1  24   0.0021   0.0023   0.0059   0.0008  -0.0021  -0.0021   0.38    4.6
2024/11/12 06:18:36.500   34.744630634  137.764301522    41.0051   1  24   0.0021   0.0023   0.0059   0.0008  -0.0021  -0.0021   0.48    4.6
2024/11/12 06:18:36.600   34.744630633  137.764301533    41.0007   1  24   0.0021   0.0023   0.0059   0.0008  -0.0021  -0.0021  -0.42    4.6
2024/11/12 06:18:36.700   34.744630636  137.764301531    41.0006   1  24   0.0021   0.0023   0.0059   0.0008  -0.0021  -0.0021  -0.32    4.6
2024/11/12 06:18:36.800   34.744630637  137.764301535    40.9990   1  24   0.0021   0.0023   0.0059   0.0008  -0.0021  -0.0021  -0.22    4.6
2024/11/12 06:18:36.900   34.744630632  137.764301526    40.9995   1  24   0.0021   0.0023   0.0059   0.0008  -0.0021  -0.0021  -0.12    4.6
2024/11/12 06:18:37.000   34.744630637  137.764301536    40.9997   1  24   0.0021   0.0023   0.0059   0.0008  -0.0021  -0.0021  -0.02    4.6
2024/11/12 06:18:37.100   34.744630646  137.764301532    40.9986   1  24   0.0021   0.0023   0.0059   0.0008  -0.0021  -0.0021   0.08    4.6
2024/11/12 06:18:37.200   34.744630639  137.764301539    40.9992   1  24   0.0021   0.0023   0.0059   0.0008  -0.0021  -0.0021   0.18    4.6
2024/11/12 06:18:37.300   34.744630627  137.764301521    41.0036   1  24   0.0021   0.0023   0.0059   0.0008  -0.0021  -0.0021   0.28    4.6
2024/11/12 06:18:37.400   34.744630638  137.764301537    41.0012   1  24   0.0021   0.0023   0.0059   0.0008  -0.0021  -0.0021   0.38    4.6
2024/11/12 06:18:37.500   34.744630638  137.764301541    40.9989   1  24   0.0021   0.0023   0.0059   0.0008  -0.0021  -0.0021   0.48    4.6
2024/11/12 06:18:37.600   34.744630642  137.764301525    40.9997   1  24   0.0021   0.0023   0.0059   0.0008  -0.0021  -0.0021  -0.42    4.6
2024/11/12 06:18:37.700   34.744630644  137.764301545    40.9979   1  24   0.0021   0.0023   0.0059   0.0008  -0.0021  -0.0021  -0.32    4.6
2024/11/12 06:18:37.800   34.744630650  137.764301546    40.9956   1  24   0.0021   0.0023   0.0059   0.0008  -0.0021  -0.0021  -0.22    4.7
2024/11/12 06:18:37.900   34.744630647  137.764301522    40.9990   1  24   0.0021   0.0023   0.0059   0.0008  -0.0021  -0.0021  -0.12    4.7
2024/11/12 06:18:38.000   34.744630644  137.764301539    40.9991   1  24   0.0021   0.0023   0.0059   0.0008  -0.0021  -0.0021  -0.02    4.7
2024/11/12 06:18:38.100   34.744630640  137.764301539    40.9985   1  24   0.0021   0.0023   0.0059   0.0008  -0.0021  -0.0021   0.08    4.7
2024/11/12 06:18:38.200   34.744630637  137.764301536    41.0001   1  24   0.0021   0.0023   0.0059   0.0008  -0.0021  -0.0021   0.18    4.7
2024/11/12 06:18:38.300   34.744630639  137.764301525    41.0035   1  24   0.0021   0.0023   0.0059   0.0008  -0.0021  -0.0021   0.28    4.7
2024/11/12 06:18:38.400   34.744630619  137.764301533    41.0055   1  24   0.0021   0.0023   0.0059   0.0008  -0.0021  -0.0021   0.38    4.7
2024/11/12 06:18:38.500   34.744630623  137.764301542    41.0035   1  24   0.0021   0.0023   0.0059   0.0008  -0.0021  -0.0021   0.48    4.7
2024/11/12 06:18:38.600   34.744630629  137.764301538    40.9988   1  24   0.0021   0.0023   0.0059   0.0008  -0.0021  -0.0021  -0.42    4.7
2024/11/12 06:18:38.700   34.744630638  137.764301538    40.9971   1  24   0.0021   0.0023   0.0059   0.0008  -0.0021  -0.0021  -0.32    4.7
2024/11/12 06:18:38.800   34.744630632  137.764301531    40.9974   1  24   0.0021   0.0023   0.0059   0.0008  -0.0021  -0.0021  -0.22    4.7
2024/11/12 06:18:38.900   34.744630635  137.764301533    40.9984   1  24   0.0021   0.0023   0.0059   0.0008  -0.0021  -0.0021  -0.12    4.7
2024/11/12 06:18:39.000   34.744630641  137.764301534    40.9995   1  24   0.0021   0.0023   0.0059   0.0008  -0.0021  -0.0021  -0.02    4.7
2024/11/12 06:18:39.100   34.744630626  137.764301526    41.0021   1  24   0.0021   0.0023   0.0059   0.0008  -0.0021  -0.0021   0.08    4.7
2024/11/12 06:18:39.200   34.744630638  137.764301545    41.0005   1  24   0.0021   0.0023   0.0059   0.0008  -0.0021  -0.0021   0.18    4.7
2024/11/12 06:18:39.300   34.744630624  137.764301531    41.0022   1  24   0.0021   0.0023   0.0059   0.0008  -0.0021  -0.0021   0.28    4.7
2024/11/12 06:18:39.400   34.744630629  137.764301525    41.0016   1  24   0.0021   0.0023   0.0059   0.0008  -0.0021  -0.0021   0.38    4.7
2024/11/12 06:18:39.500   34.744630633  137.764301534    41.0005   1  24   0.0021   0.0023   0.0059   0.0008  -0.0021  -0.0021   0.48    4.7
2024/11/12 06:18:39.600   34.744630621  137.764301534    41.0018   1  24   0.0021   0.0023   0.0059   0.0008  -0.0021  -0.0021  -0.42    4.7
2024/11/12 06:18:39.700   34.744630615  137.764301539    40.9997   1  24   0.0021   0.0023   0.0059   0.0008  -0.0021  -0.0021  -0.32    4.7
2024/11/12 06:18:39.800   34.744630630  137.764301535    41.0001   1  24   0.0021   0.0023   0.0059   0.0008  -0.0021  -0.0021  -0.22    4.7
2024/11/12 06:18:39.900   34.744630627  137.764301532    41.0000   1  24   0.0021   0.0023   0.0059   0.0008  -0.0021  -0.0021  -0.12    4.7
2024/11/12 06:18:40.000   34.744630625  137.764301545    41.0001   1  24   0.0021   0.0023   0.0059   0.0008  -0.0021  -0.0021  -0.02    4.7
2024/11/12 06:18:40.100   34.744630628  137.764301533    41.0044   1  24   0.0021   0.0023   0.0059   0.0008  -0.0021  -0.0021   0.08    4.7
2024/11/12 06:18:40.200   34.744630616  137.764301526    41.0045   1  24   0.0021   0.0023   0.0059   0.0008  -0.0021  -0.0021   0.18    4.7
2024/11/12 06:18:40.300   34.744630617  137.764301539    41.0052   1  24   0.0021   0.0023   0.0059   0.0008  -0.0021  -0.0021   0.28    4.7
2024/11/12 06:18:40.400   34.744630644  137.764301530    41.0023   1  24   0.0021   0.0023   0.0059   0.0008  -0.0021  -0.0021   0.38    4.7
2024/11/12 06:18:40.500   34.744630626  137.764301534    41.0023   1  24   0.0021   0.0023   0.0059   0.0008  -0.0021  -0.0021   0.48    4.7
2024/11/12 06:18:40.600   34.744630641  137.764301548    40.9954   1  24   0.0021   0.0023   0.0059   0.0008  -0.0021  -0.0021  -0.42    4.7
2024/11/12 06:18:40.700   34.744630644  137.764301543    40.9950   1  24   0.0021   0.0023   0.0059   0.0008  -0.0021  -0.0021  -0.32    4.7
2024/11/12 06:18:40.800   34.744630642  137.764301539    40.9959   1  24   0.0021   0.0023   0.0059   0.0008  -0.0021  -0.0021  -0.22    4.8
2024/11/12 06:18:40.900   34.744630640  137.764301537    40.9956   1  24   0.0021   0.0023   0.0059   0.0008  -0.0021  -0.0021  -0.12    4.8
2024/11/12 06:18:41.000   34.744630648  137.764301541    40.9970   1  24   0.0021   0.0023   0.0059   0.0008  -0.0021  -0.0021  -0.02    4.8
2024/11/12 06:18:41.100   34.744630641  137.764301545    40.9979   1  24   0.0021   0.0023   0.0059   0.0008  -0.0021  -0.0021   0.08    4.8
2024/11/12 06:18:41.200   34.744630629  137.764301532    41.0022   1  24   0.0021   0.0023   0.0059   0.0008  -0.0021  -0.0021   0.18    4.8
2024/11/12 06:18:41.300   34.744630636  137.764301540    41.0004   1  24   0.0021   0.0023   0.0059   0.0008  -0.0021  -0.0021   0.28    4.8
2024/11/12 06:18:41.400   34.744630640  137.764301532    40.9994   1  24   0.0021   0.0023   0.0059   0.0008  -0.0021  -0.0021   0.38    4.8
2024/11/12 06:18:41.500   34.744630631  137.764301542    41.0002   1  24   0.0021   0.0023   0.0059   0.0008  -0.0021  -0.0021   0.48    4.8
2024/11/12 06:18:41.600   34.744630628  137.764301537    40.9977   1  24   0.0021   0.0023   0.0059   0.0008  -0.0021  -0.0021  -0.42    4.8
2024/11/12 06:18:41.700   34.744630630  137.764301534    40.9962   1  24   0.0021   0.0023   0.0059   0.0008  -0.0021  -0.0021  -0.32    4.8
2024/11/12 06:18:41.800   34.744630625  137.764301534    40.9973   1  24   0.0021   0.0023   0.0059   0.0008  -0.0021  -0.0021  -0.22    4.8
2024/11/12 06:18:41.900   34.744630630  137.764301533    40.9977   1  24   0.0021   0.0023   0.0059   0.0008  -0.0021  -0.0021  -0.12    4.8
2024/11/12 06:18:42.000   34.744630637  137.764301531    40.9977   1  24   0.0021   0.0023   0.0059   0.0008  -0.0021  -0.0021  -0.02    4.8
2024/11/12 06:18:42.100   34.744630633  137.764301539    40.9972   1  24   0.0021   0.0023   0.0059   0.0008  -0.0021  -0.0021   0.08    4.8
2024/11/12 06:18:42.200   34.744630627  137.764301532    40.9995   1  24   0.0021   0.0023   0.0059   0.0008  -0.0021  -0.0021   0.18    4.8
2024/11/12 06:18:42.300   34.744630629  137.764301540    41.0000   1  24   0.0021   0.0023   0.0059   0.0008  -0.0021  -0.0021   0.28    4.8
2024/11/12 06:18:42.400   34.744630622  137.764301534    41.0042   1  24   0.0021   0.0023   0.0059   0.0008  -0.0021  -0.0021   0.38    4.8
2024/11/12 06:18:42.500   34.744630617  137.764301531    41.0016   1  24   0.0021   0.0023   0.0059   0.0008  -0.0021  -0.0021   0.48    4.8
2024/11/12 06:18:42.600   34.744630624  137.764301507    41.0027   1  24   0.0021   0.0023   0.0059   0.0008  -0.0021  -0.0021  -0.42    4.8
2024/11/12 06:18:42.700   34.744630624  137.764301512    41.0036   1  24   0.0021   0.0023   0.0059   0.0008  -0.0021  -0.0021  -0.32    4.8
2024/11/12 06:18:42.800   34.744630628  137.764301504    41.0032   1  24   0.0021   0.0023   0.0059   0.0008  -0.0021  -0.0021  -0.22    4.9
2024/11/12 06:18:42.900   34.744630630  137.764301514    41.0057   1  24   0.0021   0.0023   0.0059   0.0008  -0.0021  -0.0021  -0.12    4.9
2024/11/12 06:18:43.000   34.744630627  137.764301508    41.0038   1  24   0.0021   0.0023   0.0059   0.0008  -0.0021  -0.0021  -0.02    4.9
2024/11/12 06:18:43.100   34.744630632  137.764301503    41.0028   1  24   0.0021   0.0023   0.0059   0.0008  -0.0021  -0.0021   0.08    4.9
2024/11/12 06:18:43.200   34.744630619  137.764301513    41.0044   1  24   0.0021   0.0023   0.0059   0.0008  -0.0021  -0.0021   0.18    4.9
2024/11/12 06:18:43.300   34.744630617  137.764301519    41.0029   1  24   0.0021   0.0023   0.0059   0.0008  -0.0021  -0.0021   0.28    4.9
2024/11/12 06:18:43.400   34.744630629  137.764301502    41.0041   1  24   0.0021   0.0023   0.0059   0.0008  -0.0021  -0.0021   0.38    4.9
2024/11/12 06:18:43.500   34.744630626  137.764301515    41.0041   1  24   0.0021   0.0023   0.0059   0.0008  -0.0021  -0.0021   0.48    4.9
2024/11/12 06:18:43.600   34.744630616  137.764301516    41.0033   1  24   0.0021   0.0023   0.0059   0.0008  -0.0021  -0.0021  -0.42    4.9
2024/11/12 06:18:43.700   34.744630618  137.764301515    41.0033   1  24   0.0021   0.0023   0.0059   0.0008  -0.0021  -0.0021  -0.32    4.9
2024/11/12 06:18:43.800   34.744630621  137.764301519    41.0011   1  24   0.0021   0.0023   0.0059   0.0008  -0.0021  -0.0021  -0.22    4.9
2024/11/12 06:18:43.900   34.744630624  137.764301521    41.0009   1  24   0.0021   0.0023   0.0059   0.0008  -0.0021  -0.0021  -0.12    4.9
2024/11/12 06:18:44.000   34.744630620  137.764301506    41.0010   1  24   0.0021   0.0023   0.0059   0.0008  -0.0021  -0.0021  -0.02    4.9
2024/11/12 06:18:44.100   34.744630618  137.764301513    41.0021   1  24   0.0021   0.0023   0.0059   0.0008  -0.0021  -0.0021   0.08    4.9
2024/11/12 06:18:44.200   34.744630622  137.764301510    41.0035   1  24   0.0021   0.0023   0.0059   0.0008  -0.0021  -0.0021   0.18    4.9
2024/11/12 06:18:44.300   34.744630620  137.764301517    41.0054   1  24   0.0021   0.0023   0.0059   0.0008  -0.0021  -0.0021   0.28    4.9
2024/11/12 06:18:44.400   34.744630607  137.764301518    41.0074   1  24   0.0021   0.0023   0.0059   0.0008  -0.0021  -0.0021   0.38    4.9
2024/11/12 06:18:44.500   34.744630610  137.764301515    41.0045   1  24   0.0021   0.0023   0.0059   0.0008  -0.0021  -0.0021   0.48    4.9
2024/11/12 06:18:44.600   34.744630622  137.764301531    40.9997   1  24   0.0021   0.0023   0.0059   0.0008  -0.0021  -0.0021  -0.42    4.9
2024/11/12 06:18:44.700   34.744630629  137.764301525    40.9975   1  24   0.0021   0.0023   0.0059   0.0008  -0.0021  -0.0021  -0.32    4.9
2024/11/12 06:18:44.800   34.744630629  137.764301530    40.9960   1  24   0.0021   0.0023   0.0059   0.0008  -0.0021  -0.0021  -0.22    4.9
2024/11/12 06:18:44.900   34.744630628  137.764301517    40.9980   1  24   0.0021   0.0023   0.0059   0.0008  -0.0021  -0.0021  -0.12    4.9
2024/11/12 06:18:45.000   34.744630628  137.764301535    40.9973   1  24   0.0021   0.0023   0.0059   0.0008  -0.0021  -0.0021  -0.02    4.9
2024/11/12 06:18:45.100   34.744630624  137.764301521    40.9981   1  24   0.0021   0.0023   0.0059   0.0008  -0.0021  -0.0021   0.08    4.9
2024/11/12 06:18:45.200   34.744630621  137.764301526    41.0009   1  24   0.0021   0.0023   0.0059   0.0008  -0.0021  -0.0021   0.18    4.9
2024/11/12 06:18:45.300   34.744630628  137.764301537    40.9989   1  24   0.0021   0.0023   0.0059   0.0008  -0.0021  -0.0021   0.28    4.9
2024/11/12 06:18:45.400   34.744630620  137.764301524    41.0020   1  24   0.0021   0.0023   0.0059   0.0008  -0.0021  -0.0021   0.38    4.9
2024/11/12 06:18:45.500   34.744630620  137.764301533    41.0003   1  24   0.0021   0.0023   0.0059   0.0008  -0.0021  -0.0021   0.48    5.0
2024/11/12 06:18:45.600   34.744630639  137.764301526    40.9929   1  24   0.0021   0.0023   0.0059   0.0008  -0.0021  -0.0021  -0.42    5.0
2024/11/12 06:18:45.700   34.744630652  137.764301533    40.9925   1  24   0.0021   0.0023   0.0059   0.0008  -0.0021  -0.0021  -0.32    5.0
2024/11/12 06:18:45.800   34.744630641  137.764301529    40.9932   1  24   0.0021   0.0023   0.0059   0.0008  -0.0021  -0.0021  -0.22    5.0
2024/11/12 06:18:45.900   34.744630634  137.764301529    40.9965   1  24   0.0021   0.0023   0.0059   0.0008  -0.0021  -0.0021  -0.12    5.0
2024/11/12 06:18:46.000   34.744630627  137.764301522    40.9970   1  24   0.0021   0.0023   0.0059   0.0008  -0.0021  -0.0021  -0.02    5.0
2024/11/12 06:18:46.100   34.744630628  137.764301522    40.9985   1  24   0.0021   0.0023   0.0059   0.0008  -0.0021  -0.0021   0.08    5.0
2024/11/12 06:18:46.200   34.744630637  137.764301525    40.9983   1  24   0.0021   0.0023   0.0059   0.0008  -0.0021  -0.0021   0.18    5.0
2024/11/12 06:18:46.300   34.744630630  137.764301526    41.0008   1  24   0.0021   0.0023   0.0059   0.0008  -0.0021  -0.0021   0.28    5.0
2024/11/12 06:18:46.400   34.744630618  137.764301515    41.0016   1  24   0.0021   0.0023   0.0059   0.0008  -0.0021  -0.0021   0.38    5.0
2024/11/12 06:18:46.500   34.744630637  137.764301533    41.0008   1  24   0.0021   0.0023   0.0059   0.0008  -0.0021  -0.0021   0.48    5.0
2024/11/12 06:18:46.600   34.744630637  137.764301520    40.9973   1  24   0.0021   0.0023   0.0059   0.0008  -0.0021  -0.0021  -0.42    5.0
2024/11/12 06:18:46.700   34.744630632  137.764301517    40.9994   1  24   0.0021   0.0023   0.0059   0.0008  -0.0021  -0.0021  -0.32    5.0
2024/11/12 06:18:46.800   34.744630624  137.764301525    41.0016   1  24   0.0021   0.0023   0.0059   0.0008  -0.0021  -0.0021  -0.22    5.0
2024/11/12 06:18:46.900   34.744630622  137.764301528    41.0000   1  24   0.0021   0.0023   0.0059   0.0008  -0.0021  -0.0021  -0.12    5.0
2024/11/12 06:18:47.000   34.744630621  137.764301524    41.0009   1  24   0.0021   0.0023   0.0059   0.0008  -0.0021  -0.0021  -0.02    5.0
2024/11/12 06:18:47.100   34.744630631  137.764301529    41.0015   1  24   0.0021   0.0023   0.0059   0.0008  -0.0021  -0.0021   0.08    5.0
2024/11/12 06:18:47.200   34.744630626  137.764301530    41.0006   1  24   0.0021   0.0023   0.0059   0.0008  -0.0021  -0.0021   0.18    5.0
2024/11/12 06:18:47.300   34.744630625  137.764301518    41.0013   1  24   0.0021   0.0023   0.0059   0.0008  -0.0021  -0.0021   0.28    5.0
2024/11/12 06:18:47.400   34.744630625  137.764301520    41.0034   1  24   0.0021   0.0023   0.0059   0.0008  -0.0021  -0.0021   0.38    5.0
2024/11/12 06:18:47.500   34.744630623  137.764301533    41.0029   1  24   0.0021   0.0023   0.0059   0.0008  -0.0021  -0.0021   0.48    5.0
2024/11/12 06:18:47.600   34.744630627  137.764301519    41.0011   1  24   0.0021   0.0023   0.0059   0.0008  -0.0021  -0.0021  -0.42    5.0
2024/11/12 06:18:47.700   34.744630627  137.764301523    41.0023   1  24   0.0021   0.0023   0.0059   0.0008  -0.0021  -0.0021  -0.32    5.0
2024/11/12 06:18:47.800   34.744630616  137.764301529    41.0019   1  24   0.0021   0.0023   0.0059   0.0008  -0.0021  -0.0021  -0.22    5.0
2024/11/12 06:18:47.900   34.744630625  137.764301528    41.0018   1  24   0.0021   0.0023   0.0059   0.0008  -0.0021  -0.0021  -0.12    5.0
2024/11/12 06:18:48.000   34.744630626  137.764301527    41.0020   1  24   0.0021   0.0023   0.0059   0.0008  -0.0021  -0.0021  -0.02    5.0
2024/11/12 06:18:48.100   34.744630613  137.764301533    41.0016   1  24   0.0021   0.0023   0.0059   0.0008  -0.0021  -0.0021   0.08    5.0
2024/11/12 06:18:48.200   34.744630616  137.764301514    41.0021   1  24   0.0021   0.0023   0.0059   0.0008  -0.0021  -0.0021   0.18    5.0
2024/11/12 06:18:48.300   34.744630622  137.764301523    41.0041   1  24   0.0021   0.0023   0.0059   0.0008  -0.0021  -0.0021   0.28    5.0
2024/11/12 06:18:48.400   34.744630623  137.764301517    41.0033   1  24   0.0021   0.0023   0.0059   0.0008  -0.0021  -0.0021   0.38    5.0
2024/11/12 06:18:48.500   34.744630623  137.764301511    41.0032   1  24   0.0021   0.0023   0.0059   0.0008  -0.0021  -0.0021   0.48    5.0
2024/11/12 06:18:48.600   34.744630626  137.764301529    41.0017   1  24   0.0021   0.0023   0.0059   0.0008  -0.0021  -0.0021  -0.42    5.0
2024/11/12 06:18:48.700   34.744630625  137.764301526    41.0021   1  24   0.0021   0.0023   0.0059   0.0008  -0.0021  -0.0021  -0.32    5.1
2024/11/12 06:18:48.800   34.744630627  137.764301518    41.0015   1  24   0.0021   0.0023   0.0059   0.0008  -0.0021  -0.0021  -0.22    5.1
2024/11/12 06:18:48.900   34.744630621  137.764301526    41.0032   1  24   0.0021   0.0023   0.0059   0.0008  -0.0021  -0.0021  -0.12    5.1
2024/11/12 06:18:49.000   34.744630624  137.764301516    41.0038   1  24   0.0021   0.0023   0.0059   0.0008  -0.0021  -0.0021  -0.02    5.1
2024/11/12 06:18:49.100   34.744630626  137.764301528    41.0024   1  24   0.0021   0.0023   0.0059   0.0008  -0.0021  -0.0021   0.08    5.1
2024/11/12 06:18:49.200   34.744630629  137.764301523    41.0034   1  24   0.0021   0.0023   0.0059   0.0008  -0.0021  -0.0021   0.18    5.1
2024/11/12 06:18:49.300   34.744630620  137.764301519    41.0030   1  24   0.0021   0.0023   0.0059   0.0008  -0.0021  -0.0021   0.28    5.1
2024/11/12 06:18:49.400   34.744630628  137.764301530    41.0037   1  24   0.0021   0.0023   0.0059   0.0008  -0.0021  -0.0021   0.38    5.1
2024/11/12 06:18:49.500   34.744630631  137.764301533    40.9979   1  24   0.0021   0.0023   0.0059   0.0008  -0.0021  -0.0021   0.48    5.1
2024/11/12 06:18:49.600   34.744630629  137.764301507    40.9988   1  24   0.0021   0.0023   0.0059   0.0008  -0.0021  -0.0021  -0.42    5.1
2024/11/12 06:18:49.700   34.744630619  137.764301514    41.0002   1  24   0.0021   0.0023   0.0059   0.0008  -0.0021  -0.0021  -0.32    5.1
2024/11/12 06:18:49.800   34.744630616  137.764301511    41.0014   1  24   0.0021   0.0023   0.0059   0.0008  -0.0021  -0.0021  -0.22    5.1
2024/11/12 06:18:49.900   34.744630622  137.764301512    40.9997   1  24   0.0021   0.0023   0.0059   0.0008  -0.0021  -0.0021  -0.12    5.1
2024/11/12 06:18:50.000   34.744630625  137.764301517    41.0020   1  24   0.0021   0.0023   0.0059   0.0008  -0.0021  -0.0021  -0.02    5.1
2024/11/12 06:18:50.100   34.744630619  137.764301504    41.0026   1  24   0.0021   0.0023   0.0059   0.0008  -0.0021  -0.0021   0.08    5.1
2024/11/12 06:18:50.200   34.744630622  137.764301504    41.0037   1  24   0.0021   0.0023   0.0059   0.0008  -0.0021  -0.0021   0.18    5.1
2024/11/12 06:18:50.300   34.744630609  137.764301501    41.0047   1  24   0.0021   0.0023   0.0059   0.0008  -0.0021  -0.0021   0.28    5.1
2024/11/12 06:18:50.400   34.744630616  137.764301499    41.0061   1  24   0.0021   0.0023   0.0059   0.0008  -0.0021  -0.0021   0.38    5.1
2024/11/12 06:18:50.500   34.744630626  137.764301508    41.0032   1  24   0.0021   0.0023   0.0059   0.0008  -0.0021  -0.0021   0.48    5.1
2024/11/12 06:18:50.600   34.744630623  137.764301524    41.0007   1  24   0.0021   0.0023   0.0059   0.0008  -0.0021  -0.0021  -0.42    5.1
2024/11/12 06:18:50.700   34.744630632  137.764301520    40.9977   1  24   0.0021   0.0023   0.0059   0.0008  -0.0021  -0.0021  -0.32    5.1
2024/11/12 06:18:50.800   34.744630636  137.764301523    40.9955   1  24   0.0021   0.0023   0.0059   0.0008  -0.0021  -0.0021  -0.22    5.1
2024/11/12 06:18:50.900   34.744630633  137.764301528    40.9965   1  24   0.0021   0.0023   0.0059   0.0008  -0.0021  -0.0021  -0.12    5.1
2024/11/12 06:18:51.000   34.744630639  137.764301526    40.9981   1  24   0.0021   0.0023   0.0059   0.0008  -0.0021  -0.0021  -0.02    5.1
2024/11/12 06:18:51.100   34.744630642  137.764301515    40.9970   1  24   0.0021   0.0023   0.0059   0.0008  -0.0021  -0.0021   0.08    5.1
2024/11/12 06:18:51.200   34.744630637  137.764301514    40.9988   1  24   0.0021   0.0023   0.0059   0.0008  -0.0021  -0.0021   0.18    5.1
2024/11/12 06:18:51.300   34.744630636  137.764301523    41.0005   1  24   0.0021   0.0023   0.0059   0.0008  -0.0021  -0.0021   0.28    5.1
2024/11/12 06:18:51.400   34.744630639  137.764301519    41.0014   1  24   0.0021   0.0023   0.0059   0.0008  -0.0021  -0.0021   0.38    5.1
2024/11/12 06:18:51.500   34.744630625  137.764301513    41.0019   1  24   0.0021   0.0023   0.0059   0.0008  -0.0021  -0.0021   0.48    5.1
2024/11/12 06:18:51.600   34.744630629  137.764301535    40.9977   1  24   0.0021   0.0023   0.0059   0.0008  -0.0021  -0.0021  -0.42    5.1
2024/11/12 06:18:51.700   34.744630633  137.764301532    40.9930   1  24   0.0021   0.0023   0.0059   0.0008  -0.0021  -0.0021  -0.32    5.1
2024/11/12 06:18:51.800   34.744630639  137.764301543    40.9939   1  24   0.0021   0.0023   0.0059   0.0008  -0.0021  -0.0021  -0.22    5.1
2024/11/12 06:18:51.900   34.744630641  137.764301530    40.9953   1  24   0.0021   0.0023   0.0059   0.0008  -0.0021  -0.0021  -0.12    5.1
2024/11/12 06:18:52.000   34.744630633  137.764301542    40.9927   1  24   0.0021   0.0023   0.0059   0.0008  -0.0021  -0.0021  -0.02    5.1
2024/11/12 06:18:52.100   34.744630637  137.764301544    40.9953   1  24   0.0021   0.0023   0.0059   0.0008  -0.0021  -0.0021   0.08    5.1
2024/11/12 06:18:52.200   34.744630632  137.764301536    40.9985   1  24   0.0021   0.0023   0.0059   0.0008  -0.0021  -0.0021   0.18    5.1
2024/11/12 06:18:52.300   34.744630628  137.764301531    40.9970   1  24   0.0021   0.0023   0.0059   0.0008  -0.0021  -0.0021   0.28    5.2
2024/11/12 06:18:52.400   34.744630629  137.764301543    40.9985   1  24   0.0021   0.0023   0.0059   0.0008  -0.0021  -0.0021   0.38    5.2
2024/11/12 06:18:52.500   34.744630625  137.764301532    40.9993   1  24   0.0021   0.0023   0.0059   0.0008  -0.0021  -0.0021   0.48    5.2
2024/11/12 06:18:52.600   34.744630620  137.764301521    40.9988   1  24   0.0021   0.0023   0.0059   0.0008  -0.0021  -0.0021  -0.42    5.2
2024/11/12 06:18:52.700   34.744630615  137.764301532    40.9999   1  24   0.0021   0.0023   0.0059   0.0008  -0.0021  -0.0021  -0.32    5.2
2024/11/12 06:18:52.800   34.744630613  137.764301525    40.9996   1  24   0.0021   0.0023   0.0059   0.0008  -0.0021  -0.0021  -0.22    5.2
2024/11/12 06:18:52.900   34.744630617  137.764301531    41.0003   1  24   0.0021   0.0023   0.0059   0.0008  -0.0021  -0.0021  -0.12    5.2
2024/11/12 06:18:53.000   34.744630613  137.764301531    40.9967   1  24   0.0021   0.0023   0.0059   0.0008  -0.0021  -0.0021  -0.02    5.2
2024/11/12 06:18:53.100   34.744630625  137.764301535    40.9975   1  24   0.0021   0.0023   0.0059   0.0008  -0.0021  -0.0021   0.08    5.2
2024/11/12 06:18:53.200   34.744630616  137.764301522    40.9983   1  24   0.0021   0.0023   0.0059   0.0008  -0.0021  -0.0021   0.18    5.2
2024/11/12 06:18:53.300   34.744630618  137.764301530    41.0002   1  24   0.0021   0.0023   0.0059   0.0008  -0.0021  -0.0021   0.28    5.2
2024/11/12 06:18:53.400   34.744630611  137.764301533    41.0022   1  24   0.0021   0.0023   0.0059   0.0008  -0.0021  -0.0021   0.38    5.2
2024/11/12 06:18:53.500   34.744630621  137.764301513    40.9998   1  24   0.0021   0.0023   0.0059   0.0008  -0.0021  -0.0021   0.48    5.2
2024/11/12 06:18:53.600   34.744630616  137.764301532    40.9932   1  24   0.0021   0.0023   0.0059   0.0008  -0.0021  -0.0021  -0.42    5.2
2024/11/12 06:18:53.700   34.744630619  137.764301543    40.9931   1  24   0.0021   0.0023   0.0059   0.0008  -0.0021  -0.0021  -0.32    5.2
2024/11/12 06:18:53.800   34.744630625  137.764301528    40.9924   1  24   0.0021   0.0023   0.0059   0.0008  -0.0021  -0.0021  -0.22    5.2
2024/11/12 06:18:53.900   34.744630620  137.764301532    40.9927   1  24   0.0021   0.0023   0.0059   0.0008  -0.0021  -0.0021  -0.12    5.2
2024/11/12 06:18:54.000   34.744630626  137.764301534    40.9944   1  24   0.0021   0.0023   0.0059   0.0008  -0.0021  -0.0021  -0.02    5.2
2024/11/12 06:18:54.100   34.744630619  137.764301542    40.9933   1  24   0.0021   0.0023   0.0059   0.0008  -0.0021  -0.0021   0.08    5.2
2024/11/12 06:18:54.200   34.744630622  137.764301529    40.9940   1  24   0.0021   0.0023   0.0059   0.0008  -0.0021  -0.0021   0.18    5.2
2024/11/12 06:18:54.300   34.744630631  137.764301522    40.9930   1  24   0.0021   0.0023   0.0059   0.0008  -0.0021  -0.0021   0.28    5.2
2024/11/12 06:18:54.400   34.744630631  137.764301533    40.9925   1  24   0.0021   0.0023   0.0059   0.0008  -0.0021  -0.0021   0.38    5.2
2024/11/12 06:18:54.500   34.744630627  137.764301514    40.9937   1  24   0.0021   0.0023   0.0059   0.0008  -0.0021  -0.0021   0.48    5.2
2024/11/12 06:18:54.600   34.744630646  137.764301534    40.9948   1  24   0.0021   0.0023   0.0059   0.0008  -0.0021  -0.0021  -0.42    5.2
2024/11/12 06:18:54.700   34.744630648  137.764301519    40.9958   1  24   0.0021   0.0023   0.0059   0.0008  -0.0021  -0.0021  -0.32    5.2
2024/11/12 06:18:54.800   34.744630633  137.764301526    40.9977   1  24   0.0021   0.0023   0.0059   0.0008  -0.0021  -0.0021  -0.22    5.2
2024/11/12 06:18:54.900   34.744630645  137.764301528    40.9988   1  24   0.0021   0.0023   0.0059   0.0008  -0.0021  -0.0021  -0.12    5.2
2024/11/12 06:18:55.000   34.744630635  137.764301502    40.9989   1  24   0.0021   0.0023   0.0059   0.0008  -0.0021  -0.0021  -0.02    5.2
2024/11/12 06:18:55.100   34.744630641  137.764301521    40.9992   1  24   0.0021   0.0023   0.0059   0.0008  -0.0021  -0.0021   0.08    5.2
2024/11/12 06:18:55.200   34.744630641  137.764301526    40.9998   1  24   0.0021   0.0023   0.0059   0.0008  -0.0021  -0.0021   0.18    5.2
2024/11/12 06:18:55.300   34.744630627  137.764301520    41.0012   1  24   0.0021   0.0023   0.0059   0.0008  -0.0021  -0.0021   0.28    5.2
2024/11/12 06:18:55.400   34.744630636  137.764301530    41.0025   1  24   0.0021   0.0023   0.0059   0.0008  -0.0021  -0.0021   0.38    5.2
2024/11/12 06:18:55.500   34.744630634  137.764301511    41.0036   1  24   0.0021   0.0023   0.0059   0.0008  -0.0021  -0.0021   0.48    5.2
2024/11/12 06:18:55.600   34.744630632  137.764301536    40.9956   1  24   0.0021   0.0023   0.0059   0.0008  -0.0021  -0.0021  -0.42    5.2
2024/11/12 06:18:55.700   34.744630636  137.764301542    40.9951   1  24   0.0021   0.0023   0.0059   0.0008  -0.0021  -0.0021  -0.32    5.2
2024/11/12 06:18:55.800   34.744630640  137.764301550    40.9938   1  24   0.0021   0.0023   0.0059   0.0008  -0.0021  -0.0021  -0.22    5.2
2024/11/12 06:18:55.900   34.744630633  137.764301547    40.9941   1  24   0.0021   0.0023   0.0059   0.0008  -0.0021  -0.0021  -0.12    5.2
2024/11/12 06:18:56.000   34.744630641  137.764301550    40.9949   1  24   0.0021   0.0023   0.0059   0.0008  -0.0021  -0.0021  -0.02    5.2
2024/11/12 06:18:56.100   34.744630639  137.764301554    40.9927   1  24   0.0021   0.0023   0.0059   0.0008  -0.0021  -0.0021   0.08    5.2
2024/11/12 06:18:56.200   34.744630638  137.764301549    40.9941   1  24   0.0021   0.0023   0.0059   0.0008  -0.0021  -0.0021   0.18    5.3
2024/11/12 06:18:56.300   34.744630650  137.764301561    40.9940   1  24   0.0021   0.0023   0.0059   0.0008  -0.0021  -0.0021   0.28    5.3
2024/11/12 06:18:56.400   34.744630645  137.764301544    40.9945   1  24   0.0021   0.0023   0.0059   0.0008  -0.0021  -0.0021   0.38    5.3
2024/11/12 06:18:56.500   34.744630647  137.764301551    40.9963   1  24   0.0021   0.0023   0.0059   0.0008  -0.0021  -0.0021   0.48    5.3
2024/11/12 06:18:56.600   34.744630625  137.764301527    40.9960   1  24   0.0021   0.0023   0.0059   0.0008  -0.0021  -0.0021  -0.42    5.3
2024/11/12 06:18:56.700   34.744630640  137.764301529    40.9944   1  24   0.0021   0.0023   0.0059   0.0008  -0.0021  -0.0021  -0.32    5.3
2024/11/12 06:18:56.800   34.744630631  137.764301525    40.9959   1  24   0.0021   0.0023   0.0059   0.0008  -0.0021  -0.0021  -0.22    5.3
2024/11/12 06:18:56.900   34.744630620  137.764301528    40.9993   1  24   0.0021   0.0023   0.0059   0.0008  -0.0021  -0.0021  -0.12    5.3
2024/11/12 06:18:57.000   34.744630623  137.764301532    40.9967   1  24   0.0021   0.0023   0.0059   0.0008  -0.0021  -0.0021  -0.02    5.3
2024/11/12 06:18:57.100   34.744630624  137.764301534    40.9960   1  24   0.0021   0.0023   0.0059   0.0008  -0.0021  -0.0021   0.08    5.3
2024/11/12 06:18:57.200   34.744630632  137.764301525    40.9984   1  24   0.0021   0.0023   0.0059   0.0008  -0.0021  -0.0021   0.18    5.3
2024/11/12 06:18:57.300   34.744630640  137.764301539    40.9944   1  24   0.0021   0.0023   0.0059   0.0008  -0.0021  -0.0021   0.28    5.3
2024/11/12 06:18:57.400   34.744630634  137.764301529    40.9966   1  24   0.0021   0.0023   0.0059   0.0008  -0.0021  -0.0021   0.38    5.3
2024/11/12 06:18:57.500   34.744630633  137.764301529    40.9978   1  24   0.0021   0.0023   0.0059   0.0008  -0.0021  -0.0021   0.48    5.3
2024/11/12 06:18:57.600   34.744630640  137.764301537    40.9904   1  24   0.0021   0.0023   0.0059   0.0008  -0.0021  -0.0021  -0.42    5.3
2024/11/12 06:18:57.700   34.744630648  137.764301549    40.9901   1  24   0.0021   0.0023   0.0059   0.0008  -0.0021  -0.0021  -0.32    5.3
2024/11/12 06:18:57.800   34.744630644  137.764301530    40.9913   1  24   0.0021   0.0023   0.0059   0.0008  -0.0021  -0.0021  -0.22    5.3
2024/11/12 06:18:57.900   34.744630638  137.764301534    40.9909   1  24   0.0021   0.0023   0.0059   0.0008  -0.0021  -0.0021  -0.12    5.3
2024/11/12 06:18:58.000   34.744630643  137.764301527    40.9933   1  24   0.0021   0.0023   0.0059   0.0008  -0.0021  -0.0021  -0.02    5.3
2024/11/12 06:18:58.100   34.744630635  137.764301533    40.9911   1  24   0.0021   0.0023   0.0059   0.0008  -0.0021  -0.0021   0.08    5.3
2024/11/12 06:18:58.200   34.744630643  137.764301530    40.9918   1  24   0.0021   0.0023   0.0059   0.0008  -0.0021  -0.0021   0.18    5.3
2024/11/12 06:18:58.300   34.744630642  137.764301521    40.9939   1  24   0.0021   0.0023   0.0059   0.0008  -0.0021  -0.0021   0.28    5.3
2024/11/12 06:18:58.400   34.744630633  137.764301534    40.9936   1  24   0.0021   0.0023   0.0059   0.0008  -0.0021  -0.0021   0.38    5.3
2024/11/12 06:18:58.500   34.744630637  137.764301546    40.9945   1  24   0.0021   0.0023   0.0059   0.0008  -0.0021  -0.0021   0.48    5.3
2024/11/12 06:18:58.600   34.744630640  137.764301536    40.9908   1  24   0.0021   0.0023   0.0059   0.0008  -0.0021  -0.0021  -0.42    5.3
2024/11/12 06:18:58.700   34.744630624  137.764301539    40.9914   1  24   0.0021   0.0023   0.0059   0.0008  -0.0021  -0.0021  -0.32    5.3
2024/11/12 06:18:58.800   34.744630656  137.764301554    40.9898   1  24   0.0021   0.0023   0.0059   0.0008  -0.0021  -0.0021  -0.22    5.3
2024/11/12 06:18:58.900   34.744630629  137.764301549    40.9909   1  24   0.0021   0.0023   0.0059   0.0008  -0.0021  -0.0021  -0.12    5.3
2024/11/12 06:18:59.000   34.744630633  137.764301529    40.9921   1  24   0.0021   0.0023   0.0059   0.0008  -0.0021  -0.0021  -0.02    5.3
2024/11/12 06:18:59.100   34.744630632  137.764301546    40.9926   1  24   0.0021   0.0023   0.0059   0.0008  -0.0021  -0.0021   0.08    5.3
2024/11/12 06:18:59.200   34.744630638  137.764301532    40.9946   1  24   0.0021   0.0023   0.0059   0.0008  -0.0021  -0.0021   0.18    5.3
