% program   : RTKPOST demo5 b34j
% inp file  : C:\Users\cs21014\Documents\Kitani\241112hyod\src\09\GNSS_MT\gnss0\ubx\241112_16.obs
% inp file  : C:\Users\cs21014\Documents\Kitani\241112hyod\src\rtk_base\COM4___9600_241112_050705.obs
% inp file  : C:\Users\cs21014\Documents\Kitani\241112hyod\src\rtk_base\COM4___9600_241112_050705.nav
% obs start : 2024/11/12 07:01:18.0 GPST (week2340 198078.0s)
% obs end   : 2024/11/12 07:07:19.6 GPST (week2340 198439.6s)
% pos mode  : Kinematic
% freqs     : L1+L2/E5b+L5
% solution  : Combined-Phase Reset
% elev mask : 15.0 deg
% dynamics  : on
% tidecorr  : on
% ionos opt : Broadcast
% tropo opt : Saastamoinen
% ephemeris : Broadcast
% navi sys  : GPS GLONASS Galileo QZSS BDS NavIC
% amb res   : Fix and Hold
% amb glo   : Fix and Hold
% val thres : 3.0
% antenna1  :                       ( 0.0000  0.0000  0.0000)
% antenna2  :                       ( 0.0000  0.0000  0.0000)
% ref pos   : 34.744454383  137.764618776    40.7897
%
% (lat/lon/height=WGS84/ellipsoidal,Q=1:fix,2:float,3:sbas,4:dgps,5:single,6:ppp,ns=# of satellites)
%  GPST                  latitude(deg) longitude(deg)  height(m)   Q  ns   sdn(m)   sde(m)   sdu(m)  sdne(m)  sdeu(m)  sdun(m) age(s)  ratio
2024/11/12 07:01:18.000   34.744630968  137.764303874    41.0178   1  27   0.0032   0.0029   0.0074  -0.0010   0.0009  -0.0035  -0.01    5.0
2024/11/12 07:01:18.100   34.744630972  137.764303868    41.0170   1  27   0.0032   0.0029   0.0074  -0.0010   0.0009  -0.0035   0.09    5.0
2024/11/12 07:01:18.200   34.744630966  137.764303882    41.0186   1  27   0.0032   0.0029   0.0074  -0.0010   0.0009  -0.0035   0.19    5.0
2024/11/12 07:01:18.300   34.744630972  137.764303875    41.0186   1  27   0.0032   0.0029   0.0074  -0.0010   0.0009  -0.0035   0.29    5.0
2024/11/12 07:01:18.400   34.744630975  137.764303872    41.0172   1  27   0.0032   0.0029   0.0074  -0.0010   0.0009  -0.0035   0.39    5.0
2024/11/12 07:01:18.500   34.744630975  137.764303874    41.0170   1  27   0.0032   0.0029   0.0074  -0.0010   0.0009  -0.0035   0.49    5.0
2024/11/12 07:01:18.600   34.744630996  137.764303861    41.0151   1  27   0.0032   0.0029   0.0074  -0.0010   0.0009  -0.0035  -0.41    5.0
2024/11/12 07:01:18.700   34.744630991  137.764303861    41.0148   1  27   0.0032   0.0029   0.0074  -0.0010   0.0009  -0.0035  -0.31    5.0
2024/11/12 07:01:18.800   34.744630995  137.764303846    41.0161   1  27   0.0032   0.0029   0.0074  -0.0010   0.0009  -0.0035  -0.21    5.0
2024/11/12 07:01:18.900   34.744630998  137.764303864    41.0130   1  27   0.0032   0.0029   0.0074  -0.0010   0.0009  -0.0035  -0.11    5.0
2024/11/12 07:01:19.000   34.744630990  137.764303864    41.0163   1  27   0.0032   0.0029   0.0074  -0.0010   0.0009  -0.0035  -0.01    5.0
2024/11/12 07:01:19.100   34.744630997  137.764303859    41.0178   1  27   0.0032   0.0029   0.0074  -0.0010   0.0009  -0.0035   0.09    5.0
2024/11/12 07:01:19.200   34.744630982  137.764303872    41.0180   1  27   0.0032   0.0029   0.0074  -0.0010   0.0009  -0.0035   0.19    5.0
2024/11/12 07:01:19.300   34.744630985  137.764303852    41.0192   1  27   0.0032   0.0029   0.0074  -0.0010   0.0009  -0.0035   0.29    5.0
2024/11/12 07:01:19.400   34.744630992  137.764303858    41.0173   1  27   0.0032   0.0029   0.0074  -0.0010   0.0009  -0.0035   0.39    5.0
2024/11/12 07:01:19.500   34.744630982  137.764303863    41.0187   1  27   0.0032   0.0029   0.0074  -0.0010   0.0009  -0.0035   0.49    5.0
2024/11/12 07:01:19.600   34.744630983  137.764303857    41.0163   1  27   0.0032   0.0029   0.0074  -0.0010   0.0009  -0.0035  -0.41    5.0
2024/11/12 07:01:19.700   34.744630989  137.764303863    41.0151   1  27   0.0032   0.0029   0.0074  -0.0010   0.0009  -0.0035  -0.31    5.0
2024/11/12 07:01:19.800   34.744630980  137.764303873    41.0164   1  27   0.0032   0.0029   0.0074  -0.0010   0.0009  -0.0035  -0.21    5.0
2024/11/12 07:01:19.900   34.744630981  137.764303844    41.0189   1  27   0.0032   0.0029   0.0074  -0.0010   0.0009  -0.0035  -0.11    5.0
2024/11/12 07:01:20.000   34.744630989  137.764303864    41.0155   1  27   0.0032   0.0029   0.0074  -0.0010   0.0009  -0.0035  -0.01    5.0
2024/11/12 07:01:20.100   34.744630983  137.764303862    41.0164   1  27   0.0032   0.0029   0.0074  -0.0010   0.0009  -0.0035   0.09    5.0
2024/11/12 07:01:20.200   34.744630992  137.764303873    41.0161   1  27   0.0032   0.0029   0.0074  -0.0010   0.0009  -0.0035   0.19    5.0
2024/11/12 07:01:20.300   34.744630980  137.764303855    41.0164   1  27   0.0032   0.0029   0.0074  -0.0010   0.0009  -0.0035   0.29    5.0
2024/11/12 07:01:20.400   34.744630989  137.764303863    41.0166   1  27   0.0032   0.0029   0.0074  -0.0010   0.0009  -0.0035   0.39    5.0
2024/11/12 07:01:20.500   34.744630990  137.764303867    41.0162   1  27   0.0032   0.0029   0.0074  -0.0010   0.0009  -0.0035   0.49    5.0
2024/11/12 07:01:20.600   34.744630983  137.764303856    41.0157   1  27   0.0023   0.0020   0.0052  -0.0007   0.0006  -0.0024  -0.41    3.3
2024/11/12 07:01:20.700   34.744630982  137.764303857    41.0146   1  27   0.0023   0.0020   0.0053  -0.0007   0.0006  -0.0025  -0.31    3.3
2024/11/12 07:01:20.800   34.744630977  137.764303855    41.0178   1  27   0.0023   0.0020   0.0053  -0.0007   0.0006  -0.0025  -0.21    3.3
2024/11/12 07:01:20.900   34.744630979  137.764303856    41.0179   1  27   0.0023   0.0020   0.0052  -0.0007   0.0006  -0.0024  -0.11    3.3
2024/11/12 07:01:21.000   34.744630978  137.764303874    41.0165   1  27   0.0023   0.0020   0.0052  -0.0007   0.0006  -0.0024  -0.01    3.3
2024/11/12 07:01:21.100   34.744630981  137.764303859    41.0180   1  27   0.0023   0.0020   0.0052  -0.0007   0.0006  -0.0024   0.09    3.3
2024/11/12 07:01:21.200   34.744630979  137.764303862    41.0185   1  27   0.0023   0.0020   0.0052  -0.0007   0.0006  -0.0024   0.19    3.3
2024/11/12 07:01:21.300   34.744630986  137.764303861    41.0179   1  27   0.0023   0.0020   0.0052  -0.0007   0.0006  -0.0024   0.29    3.3
2024/11/12 07:01:21.400   34.744630974  137.764303858    41.0195   1  27   0.0023   0.0020   0.0052  -0.0007   0.0006  -0.0024   0.39    3.3
2024/11/12 07:01:21.500   34.744630979  137.764303856    41.0171   1  27   0.0023   0.0020   0.0052  -0.0007   0.0006  -0.0024   0.49    3.3
2024/11/12 07:01:21.600   34.744630979  137.764303872    41.0176   1  27   0.0023   0.0020   0.0052  -0.0007   0.0006  -0.0024  -0.41    3.3
2024/11/12 07:01:21.700   34.744630983  137.764303863    41.0180   1  27   0.0023   0.0020   0.0052  -0.0007   0.0006  -0.0024  -0.31    3.3
2024/11/12 07:01:21.800   34.744630975  137.764303871    41.0173   1  27   0.0023   0.0020   0.0052  -0.0007   0.0006  -0.0024  -0.21    3.3
2024/11/12 07:01:21.900   34.744630984  137.764303870    41.0177   1  27   0.0023   0.0020   0.0052  -0.0007   0.0006  -0.0024  -0.11    3.3
2024/11/12 07:01:22.000   34.744630979  137.764303871    41.0178   1  27   0.0023   0.0020   0.0052  -0.0007   0.0006  -0.0024  -0.01    3.3
2024/11/12 07:01:22.100   34.744630975  137.764303869    41.0190   1  27   0.0023   0.0020   0.0052  -0.0007   0.0006  -0.0024   0.09    3.3
2024/11/12 07:01:22.200   34.744630975  137.764303861    41.0192   1  27   0.0023   0.0020   0.0052  -0.0007   0.0006  -0.0024   0.19    3.3
2024/11/12 07:01:22.300   34.744630970  137.764303867    41.0195   1  27   0.0023   0.0020   0.0052  -0.0007   0.0006  -0.0024   0.29    3.3
2024/11/12 07:01:22.400   34.744630976  137.764303865    41.0184   1  27   0.0023   0.0020   0.0052  -0.0007   0.0006  -0.0024   0.39    3.3
2024/11/12 07:01:22.500   34.744630975  137.764303865    41.0189   1  27   0.0023   0.0020   0.0052  -0.0007   0.0006  -0.0024   0.49    3.3
2024/11/12 07:01:22.600   34.744630993  137.764303867    41.0175   1  27   0.0023   0.0020   0.0052  -0.0007   0.0006  -0.0024  -0.41    3.4
2024/11/12 07:01:22.700   34.744630989  137.764303868    41.0158   1  27   0.0023   0.0020   0.0052  -0.0007   0.0006  -0.0024  -0.31    3.4
2024/11/12 07:01:22.800   34.744630988  137.764303854    41.0168   1  27   0.0023   0.0020   0.0052  -0.0007   0.0006  -0.0024  -0.21    3.4
2024/11/12 07:01:22.900   34.744630981  137.764303861    41.0171   1  27   0.0023   0.0020   0.0052  -0.0007   0.0006  -0.0024  -0.11    3.4
2024/11/12 07:01:23.000   34.744630996  137.764303869    41.0165   1  27   0.0023   0.0020   0.0052  -0.0007   0.0006  -0.0024  -0.01    3.4
2024/11/12 07:01:23.100   34.744630969  137.764303854    41.0194   1  27   0.0023   0.0020   0.0052  -0.0007   0.0006  -0.0024   0.09    3.4
2024/11/12 07:01:23.200   34.744630978  137.764303859    41.0198   1  27   0.0023   0.0020   0.0052  -0.0007   0.0006  -0.0024   0.19    3.4
2024/11/12 07:01:23.300   34.744630982  137.764303860    41.0210   1  27   0.0023   0.0020   0.0052  -0.0007   0.0006  -0.0024   0.29    3.4
2024/11/12 07:01:23.400   34.744630976  137.764303862    41.0207   1  27   0.0023   0.0020   0.0052  -0.0007   0.0006  -0.0024   0.39    3.4
2024/11/12 07:01:23.500   34.744630986  137.764303869    41.0198   1  27   0.0023   0.0020   0.0052  -0.0007   0.0006  -0.0024   0.49    3.4
2024/11/12 07:01:23.600   34.744630983  137.764303853    41.0153   1  27   0.0023   0.0020   0.0052  -0.0007   0.0006  -0.0024  -0.41    3.4
2024/11/12 07:01:23.700   34.744630982  137.764303848    41.0162   1  27   0.0023   0.0020   0.0052  -0.0007   0.0006  -0.0024  -0.31    3.4
2024/11/12 07:01:23.800   34.744630992  137.764303862    41.0145   1  27   0.0023   0.0020   0.0052  -0.0007   0.0006  -0.0024  -0.21    3.4
2024/11/12 07:01:23.900   34.744630982  137.764303856    41.0139   1  27   0.0023   0.0020   0.0052  -0.0007   0.0006  -0.0024  -0.11    3.4
2024/11/12 07:01:24.000   34.744630988  137.764303849    41.0143   1  27   0.0023   0.0020   0.0052  -0.0007   0.0006  -0.0024  -0.01    3.4
2024/11/12 07:01:24.100   34.744630990  137.764303865    41.0143   1  27   0.0023   0.0020   0.0052  -0.0007   0.0006  -0.0024   0.09    3.4
2024/11/12 07:01:24.200   34.744630992  137.764303848    41.0171   1  27   0.0023   0.0020   0.0052  -0.0007   0.0006  -0.0024   0.19    3.4
2024/11/12 07:01:24.300   34.744630990  137.764303852    41.0170   1  27   0.0023   0.0020   0.0052  -0.0007   0.0006  -0.0024   0.29    3.4
2024/11/12 07:01:24.400   34.744630979  137.764303856    41.0176   1  27   0.0023   0.0020   0.0052  -0.0007   0.0006  -0.0024   0.39    3.4
2024/11/12 07:01:24.500   34.744630986  137.764303847    41.0167   1  27   0.0023   0.0020   0.0052  -0.0007   0.0006  -0.0024   0.49    3.4
2024/11/12 07:01:24.600   34.744630978  137.764303867    41.0132   1  27   0.0023   0.0020   0.0052  -0.0007   0.0006  -0.0024  -0.41    3.4
2024/11/12 07:01:24.700   34.744630988  137.764303869    41.0140   1  27   0.0023   0.0020   0.0052  -0.0007   0.0006  -0.0024  -0.31    3.5
2024/11/12 07:01:24.800   34.744630986  137.764303868    41.0139   1  27   0.0023   0.0020   0.0052  -0.0007   0.0006  -0.0024  -0.21    3.5
2024/11/12 07:01:24.900   34.744630995  137.764303874    41.0144   1  27   0.0023   0.0020   0.0052  -0.0007   0.0006  -0.0024  -0.11    3.5
2024/11/12 07:01:25.000   34.744630983  137.764303853    41.0156   1  27   0.0023   0.0020   0.0052  -0.0007   0.0006  -0.0024  -0.01    3.5
2024/11/12 07:01:25.100   34.744630987  137.764303865    41.0154   1  27   0.0023   0.0020   0.0052  -0.0007   0.0006  -0.0024   0.09    3.5
2024/11/12 07:01:25.200   34.744630997  137.764303869    41.0128   1  27   0.0023   0.0020   0.0052  -0.0007   0.0006  -0.0024   0.19    3.5
2024/11/12 07:01:25.300   34.744630988  137.764303863    41.0162   1  27   0.0023   0.0020   0.0052  -0.0007   0.0006  -0.0024   0.29    3.5
2024/11/12 07:01:25.400   34.744630989  137.764303865    41.0152   1  27   0.0023   0.0020   0.0052  -0.0007   0.0006  -0.0024   0.39    3.5
2024/11/12 07:01:25.500   34.744630990  137.764303850    41.0154   1  27   0.0023   0.0020   0.0052  -0.0007   0.0006  -0.0024   0.49    3.5
2024/11/12 07:01:25.600   34.744630998  137.764303857    41.0128   1  27   0.0023   0.0020   0.0052  -0.0007   0.0006  -0.0024  -0.41    3.5
2024/11/12 07:01:25.700   34.744631000  137.764303863    41.0126   1  27   0.0023   0.0020   0.0052  -0.0007   0.0006  -0.0024  -0.31    3.5
2024/11/12 07:01:25.800   34.744630994  137.764303856    41.0122   1  27   0.0023   0.0020   0.0052  -0.0007   0.0006  -0.0024  -0.21    3.5
2024/11/12 07:01:25.900   34.744630993  137.764303861    41.0126   1  27   0.0023   0.0020   0.0052  -0.0007   0.0006  -0.0024  -0.11    3.5
2024/11/12 07:01:26.000   34.744630994  137.764303860    41.0155   1  27   0.0023   0.0020   0.0052  -0.0007   0.0006  -0.0024  -0.01    3.5
2024/11/12 07:01:26.100   34.744630998  137.764303867    41.0147   1  27   0.0023   0.0020   0.0052  -0.0007   0.0006  -0.0024   0.09    3.5
2024/11/12 07:01:26.200   34.744630992  137.764303854    41.0138   1  27   0.0023   0.0020   0.0052  -0.0007   0.0006  -0.0024   0.19    3.5
2024/11/12 07:01:26.300   34.744630995  137.764303859    41.0146   1  27   0.0023   0.0020   0.0052  -0.0007   0.0006  -0.0024   0.29    3.5
2024/11/12 07:01:26.400   34.744630994  137.764303868    41.0147   1  27   0.0023   0.0020   0.0052  -0.0007   0.0006  -0.0024   0.39    3.5
2024/11/12 07:01:26.500   34.744630988  137.764303862    41.0143   1  27   0.0023   0.0020   0.0052  -0.0007   0.0006  -0.0024   0.49    3.5
2024/11/12 07:01:26.600   34.744630993  137.764303865    41.0162   1  27   0.0023   0.0020   0.0052  -0.0007   0.0006  -0.0024  -0.41    3.5
2024/11/12 07:01:26.700   34.744630988  137.764303866    41.0166   1  27   0.0023   0.0020   0.0052  -0.0007   0.0006  -0.0024  -0.31    3.5
2024/11/12 07:01:26.800   34.744630992  137.764303875    41.0152   1  27   0.0023   0.0020   0.0052  -0.0007   0.0006  -0.0024  -0.21    3.5
2024/11/12 07:01:26.900   34.744630998  137.764303873    41.0152   1  27   0.0023   0.0020   0.0052  -0.0007   0.0006  -0.0024  -0.11    3.5
2024/11/12 07:01:27.000   34.744630991  137.764303873    41.0157   1  27   0.0023   0.0020   0.0052  -0.0007   0.0006  -0.0024  -0.01    3.5
2024/11/12 07:01:27.100   34.744630986  137.764303878    41.0150   1  27   0.0023   0.0020   0.0052  -0.0007   0.0006  -0.0024   0.09    3.5
2024/11/12 07:01:27.200   34.744630985  137.764303876    41.0179   1  27   0.0023   0.0020   0.0052  -0.0007   0.0006  -0.0024   0.19    3.5
2024/11/12 07:01:27.300   34.744630989  137.764303863    41.0189   1  27   0.0023   0.0020   0.0052  -0.0007   0.0006  -0.0024   0.29    3.5
2024/11/12 07:01:27.400   34.744630992  137.764303877    41.0179   1  27   0.0023   0.0020   0.0052  -0.0007   0.0006  -0.0024   0.39    3.5
2024/11/12 07:01:27.500   34.744630988  137.764303872    41.0175   1  27   0.0023   0.0020   0.0052  -0.0007   0.0006  -0.0024   0.49    3.5
2024/11/12 07:01:27.600   34.744630985  137.764303858    41.0162   1  27   0.0023   0.0020   0.0052  -0.0007   0.0006  -0.0024  -0.41    3.5
2024/11/12 07:01:27.700   34.744630993  137.764303870    41.0153   1  27   0.0023   0.0020   0.0052  -0.0007   0.0006  -0.0024  -0.31    3.5
2024/11/12 07:01:27.800   34.744630990  137.764303859    41.0159   1  27   0.0023   0.0020   0.0052  -0.0007   0.0006  -0.0024  -0.21    3.5
2024/11/12 07:01:27.900   34.744630987  137.764303866    41.0157   1  27   0.0023   0.0020   0.0052  -0.0007   0.0006  -0.0024  -0.11    3.5
2024/11/12 07:01:28.000   34.744630989  137.764303867    41.0157   1  27   0.0023   0.0020   0.0052  -0.0007   0.0006  -0.0024  -0.01    3.5
2024/11/12 07:01:28.100   34.744630988  137.764303860    41.0166   1  27   0.0023   0.0020   0.0052  -0.0007   0.0006  -0.0024   0.09    3.5
2024/11/12 07:01:28.200   34.744630995  137.764303868    41.0150   1  27   0.0023   0.0020   0.0052  -0.0007   0.0006  -0.0024   0.19    3.5
2024/11/12 07:01:28.300   34.744630977  137.764303865    41.0166   1  27   0.0023   0.0020   0.0052  -0.0007   0.0006  -0.0024   0.29    3.5
2024/11/12 07:01:28.400   34.744630981  137.764303864    41.0188   1  27   0.0023   0.0020   0.0052  -0.0007   0.0006  -0.0024   0.39    3.5
2024/11/12 07:01:28.500   34.744630984  137.764303864    41.0161   1  27   0.0023   0.0020   0.0052  -0.0007   0.0006  -0.0024   0.49    3.5
2024/11/12 07:01:28.600   34.744630992  137.764303874    41.0130   1  27   0.0023   0.0020   0.0052  -0.0007   0.0006  -0.0024  -0.41    3.5
2024/11/12 07:01:28.700   34.744630985  137.764303860    41.0152   1  27   0.0022   0.0020   0.0051  -0.0006   0.0004  -0.0023  -0.31    3.5
2024/11/12 07:01:28.800   34.744630975  137.764303877    41.0154   1  27   0.0022   0.0020   0.0051  -0.0005   0.0004  -0.0023  -0.21    3.5
2024/11/12 07:01:28.900   34.744630983  137.764303877    41.0148   1  27   0.0021   0.0020   0.0051  -0.0005   0.0003  -0.0023  -0.11    3.5
2024/11/12 07:01:29.000   34.744630988  137.764303871    41.0145   1  27   0.0021   0.0020   0.0051  -0.0005   0.0002  -0.0023  -0.01    3.5
2024/11/12 07:01:29.100   34.744630992  137.764303873    41.0144   1  27   0.0021   0.0020   0.0051  -0.0005   0.0002  -0.0022   0.09    3.5
2024/11/12 07:01:29.200   34.744630980  137.764303860    41.0164   1  27   0.0021   0.0020   0.0051  -0.0005   0.0002  -0.0022   0.19    3.5
2024/11/12 07:01:29.300   34.744630980  137.764303878    41.0156   1  27   0.0021   0.0020   0.0051  -0.0005   0.0002  -0.0022   0.29    3.5
2024/11/12 07:01:29.400   34.744630992  137.764303872    41.0153   1  27   0.0021   0.0020   0.0051  -0.0005   0.0001  -0.0022   0.39    3.5
2024/11/12 07:01:29.500   34.744630979  137.764303865    41.0167   1  27   0.0021   0.0020   0.0051  -0.0005   0.0001  -0.0022   0.49    3.5
2024/11/12 07:01:29.600   34.744630985  137.764303886    41.0150   1  27   0.0021   0.0020   0.0051  -0.0005   0.0001  -0.0022  -0.41    3.5
2024/11/12 07:01:29.700   34.744630983  137.764303872    41.0140   1  27   0.0021   0.0020   0.0051  -0.0004   0.0001  -0.0022  -0.31    3.5
2024/11/12 07:01:29.800   34.744630976  137.764303864    41.0165   1  27   0.0021   0.0020   0.0051  -0.0004   0.0001  -0.0022  -0.21    3.5
2024/11/12 07:01:29.900   34.744630992  137.764303878    41.0142   1  27   0.0021   0.0020   0.0051  -0.0004   0.0001  -0.0022  -0.11    3.5
2024/11/12 07:01:30.000   34.744630989  137.764303876    41.0151   1  27   0.0021   0.0020   0.0051  -0.0004   0.0001  -0.0022  -0.01    3.5
2024/11/12 07:01:30.100   34.744630978  137.764303871    41.0154   1  27   0.0021   0.0020   0.0051  -0.0004   0.0001  -0.0022   0.09    3.5
2024/11/12 07:01:30.200   34.744630981  137.764303874    41.0169   1  27   0.0021   0.0020   0.0051  -0.0004   0.0001  -0.0022   0.19    3.5
2024/11/12 07:01:30.300   34.744630968  137.764303875    41.0193   1  27   0.0021   0.0020   0.0051  -0.0004  -0.0001  -0.0022   0.29    3.2
2024/11/12 07:01:30.400   34.744630972  137.764303864    41.0185   1  27   0.0021   0.0020   0.0051  -0.0004  -0.0001  -0.0022   0.39    3.3
2024/11/12 07:01:30.500   34.744630968  137.764303879    41.0182   1  27   0.0021   0.0020   0.0051  -0.0004  -0.0001  -0.0022   0.49    3.5
2024/11/12 07:01:30.600   34.744630974  137.764303883    41.0183   1  27   0.0021   0.0020   0.0051  -0.0004  -0.0001  -0.0022  -0.41    3.5
2024/11/12 07:01:30.700   34.744630976  137.764303875    41.0185   1  27   0.0021   0.0020   0.0051  -0.0004  -0.0001  -0.0022  -0.31    3.5
2024/11/12 07:01:30.800   34.744630972  137.764303885    41.0174   1  27   0.0021   0.0020   0.0051  -0.0004  -0.0001  -0.0022  -0.21    3.5
2024/11/12 07:01:30.900   34.744630978  137.764303886    41.0182   1  27   0.0021   0.0020   0.0051  -0.0004  -0.0001  -0.0022  -0.11    3.5
2024/11/12 07:01:31.000   34.744630979  137.764303874    41.0174   1  27   0.0021   0.0020   0.0051  -0.0004  -0.0001  -0.0022  -0.01    3.5
2024/11/12 07:01:31.100   34.744630979  137.764303887    41.0172   1  27   0.0021   0.0020   0.0051  -0.0004  -0.0001  -0.0022   0.09    3.5
2024/11/12 07:01:31.200   34.744630987  137.764303891    41.0185   1  27   0.0021   0.0020   0.0051  -0.0004  -0.0001  -0.0022   0.19    3.5
2024/11/12 07:01:31.300   34.744630971  137.764303877    41.0194   1  27   0.0021   0.0020   0.0051  -0.0004  -0.0001  -0.0022   0.29    3.5
2024/11/12 07:01:31.400   34.744630987  137.764303888    41.0180   1  27   0.0021   0.0020   0.0051  -0.0004  -0.0001  -0.0022   0.39    3.5
2024/11/12 07:01:31.500   34.744630974  137.764303892    41.0207   1  27   0.0021   0.0020   0.0051  -0.0004  -0.0001  -0.0022   0.49    3.5
2024/11/12 07:01:31.600   34.744630976  137.764303872    41.0164   1  27   0.0021   0.0020   0.0051  -0.0004  -0.0001  -0.0022  -0.41    3.5
2024/11/12 07:01:31.700   34.744630980  137.764303883    41.0143   1  27   0.0021   0.0020   0.0051  -0.0004  -0.0001  -0.0022  -0.31    3.5
2024/11/12 07:01:31.800   34.744630975  137.764303874    41.0163   1  27   0.0021   0.0020   0.0051  -0.0004  -0.0001  -0.0022  -0.21    3.5
2024/11/12 07:01:31.900   34.744630979  137.764303876    41.0166   1  27   0.0021   0.0020   0.0051  -0.0004  -0.0001  -0.0022  -0.11    3.5
2024/11/12 07:01:32.000   34.744630973  137.764303877    41.0181   1  27   0.0021   0.0020   0.0051  -0.0004  -0.0001  -0.0022  -0.01    3.5
2024/11/12 07:01:32.100   34.744630974  137.764303881    41.0184   1  27   0.0021   0.0020   0.0051  -0.0004  -0.0001  -0.0022   0.09    3.5
2024/11/12 07:01:32.200   34.744630970  137.764303880    41.0187   1  27   0.0021   0.0020   0.0051  -0.0004  -0.0001  -0.0022   0.19    3.5
2024/11/12 07:01:32.300   34.744630976  137.764303879    41.0181   1  27   0.0021   0.0020   0.0051  -0.0004  -0.0001  -0.0022   0.29    3.5
2024/11/12 07:01:32.400   34.744630983  137.764303882    41.0174   1  27   0.0021   0.0020   0.0051  -0.0004  -0.0001  -0.0022   0.39    3.5
2024/11/12 07:01:32.500   34.744630968  137.764303880    41.0192   1  27   0.0021   0.0020   0.0051  -0.0004  -0.0001  -0.0022   0.49    3.5
2024/11/12 07:01:32.600   34.744630977  137.764303875    41.0188   1  27   0.0021   0.0020   0.0051  -0.0004  -0.0001  -0.0022  -0.41    3.5
2024/11/12 07:01:32.700   34.744630983  137.764303875    41.0179   1  27   0.0021   0.0020   0.0051  -0.0004  -0.0001  -0.0022  -0.31    3.5
2024/11/12 07:01:32.800   34.744630970  137.764303872    41.0200   1  27   0.0021   0.0020   0.0051  -0.0004  -0.0001  -0.0022  -0.21    3.5
2024/11/12 07:01:32.900   34.744630969  137.764303880    41.0187   1  27   0.0021   0.0020   0.0051  -0.0004  -0.0001  -0.0022  -0.11    3.5
2024/11/12 07:01:33.000   34.744630981  137.764303874    41.0189   1  27   0.0021   0.0020   0.0051  -0.0004  -0.0001  -0.0022  -0.01    3.5
2024/11/12 07:01:33.100   34.744630972  137.764303876    41.0216   1  27   0.0021   0.0020   0.0051  -0.0004  -0.0001  -0.0022   0.09    3.5
2024/11/12 07:01:33.200   34.744630961  137.764303861    41.0232   1  27   0.0021   0.0020   0.0051  -0.0004  -0.0001  -0.0022   0.19    3.5
2024/11/12 07:01:33.300   34.744630974  137.764303877    41.0225   1  27   0.0021   0.0020   0.0051  -0.0004  -0.0001  -0.0022   0.29    3.5
2024/11/12 07:01:33.400   34.744630964  137.764303879    41.0239   1  27   0.0021   0.0020   0.0051  -0.0004  -0.0001  -0.0022   0.39    3.5
2024/11/12 07:01:33.500   34.744630966  137.764303887    41.0209   1  27   0.0021   0.0020   0.0051  -0.0004  -0.0001  -0.0022   0.49    3.5
2024/11/12 07:01:33.600   34.744630984  137.764303870    41.0161   1  27   0.0021   0.0020   0.0051  -0.0004  -0.0001  -0.0022  -0.41    3.5
2024/11/12 07:01:33.700   34.744630977  137.764303853    41.0165   1  27   0.0021   0.0020   0.0051  -0.0004  -0.0001  -0.0022  -0.31    3.5
2024/11/12 07:01:33.800   34.744630973  137.764303868    41.0171   1  27   0.0021   0.0020   0.0051  -0.0004  -0.0001  -0.0022  -0.21    3.5
2024/11/12 07:01:33.900   34.744630969  137.764303860    41.0191   1  27   0.0021   0.0020   0.0051  -0.0004  -0.0001  -0.0022  -0.11    3.5
2024/11/12 07:01:34.000   34.744630971  137.764303856    41.0199   1  27   0.0021   0.0020   0.0051  -0.0004  -0.0001  -0.0022  -0.01    3.5
2024/11/12 07:01:34.100   34.744630973  137.764303869    41.0197   1  27   0.0021   0.0020   0.0051  -0.0004  -0.0001  -0.0022   0.09    3.5
2024/11/12 07:01:34.200   34.744630974  137.764303873    41.0195   1  27   0.0021   0.0020   0.0051  -0.0004  -0.0001  -0.0022   0.19    3.5
2024/11/12 07:01:34.300   34.744630976  137.764303860    41.0205   1  27   0.0021   0.0020   0.0051  -0.0004  -0.0001  -0.0022   0.29    3.5
2024/11/12 07:01:34.400   34.744630975  137.764303857    41.0206   1  27   0.0021   0.0020   0.0051  -0.0004  -0.0001  -0.0022   0.39    3.5
2024/11/12 07:01:34.500   34.744630973  137.764303853    41.0209   1  27   0.0021   0.0020   0.0051  -0.0004  -0.0001  -0.0022   0.49    3.5
2024/11/12 07:01:34.600   34.744630970  137.764303873    41.0190   1  27   0.0021   0.0020   0.0051  -0.0004  -0.0001  -0.0022  -0.41    3.5
2024/11/12 07:01:34.700   34.744630977  137.764303867    41.0186   1  27   0.0021   0.0020   0.0051  -0.0004  -0.0001  -0.0022  -0.31    3.5
2024/11/12 07:01:34.800   34.744630972  137.764303864    41.0187   1  27   0.0021   0.0020   0.0051  -0.0004  -0.0001  -0.0022  -0.21    3.5
2024/11/12 07:01:34.900   34.744630979  137.764303871    41.0171   1  27   0.0021   0.0020   0.0051  -0.0004  -0.0001  -0.0022  -0.11    3.5
2024/11/12 07:01:35.000   34.744630977  137.764303870    41.0191   1  27   0.0021   0.0020   0.0051  -0.0004  -0.0001  -0.0022  -0.01    3.5
2024/11/12 07:01:35.100   34.744630976  137.764303870    41.0183   1  27   0.0021   0.0020   0.0051  -0.0004  -0.0001  -0.0022   0.09    3.5
2024/11/12 07:01:35.200   34.744630976  137.764303868    41.0194   1  27   0.0021   0.0020   0.0051  -0.0004  -0.0001  -0.0022   0.19    3.5
2024/11/12 07:01:35.300   34.744630979  137.764303859    41.0176   1  27   0.0021   0.0020   0.0051  -0.0004  -0.0001  -0.0022   0.29    3.5
2024/11/12 07:01:35.400   34.744630992  137.764303865    41.0168   1  27   0.0021   0.0020   0.0051  -0.0004  -0.0001  -0.0022   0.39    3.5
2024/11/12 07:01:35.500   34.744630980  137.764303859    41.0182   1  27   0.0021   0.0020   0.0051  -0.0004  -0.0001  -0.0022   0.49    3.5
2024/11/12 07:01:35.600   34.744630978  137.764303877    41.0185   1  27   0.0021   0.0020   0.0051  -0.0004  -0.0001  -0.0022  -0.41    3.5
2024/11/12 07:01:35.700   34.744630984  137.764303878    41.0213   1  27   0.0021   0.0020   0.0051  -0.0004  -0.0001  -0.0022  -0.31    3.5
2024/11/12 07:01:35.800   34.744630981  137.764303870    41.0207   1  27   0.0021   0.0020   0.0051  -0.0004  -0.0001  -0.0022  -0.21    3.5
2024/11/12 07:01:35.900   34.744630977  137.764303877    41.0203   1  27   0.0021   0.0020   0.0051  -0.0004  -0.0000  -0.0022  -0.11    3.5
2024/11/12 07:01:36.000   34.744630978  137.764303874    41.0225   1  27   0.0021   0.0020   0.0051  -0.0004  -0.0000  -0.0022  -0.01    3.5
2024/11/12 07:01:36.100   34.744630974  137.764303865    41.0214   1  27   0.0021   0.0020   0.0051  -0.0004  -0.0000  -0.0022   0.09    3.5
2024/11/12 07:01:36.200   34.744630983  137.764303866    41.0200   1  27   0.0021   0.0020   0.0051  -0.0004  -0.0000  -0.0022   0.19    3.5
2024/11/12 07:01:36.300   34.744630983  137.764303876    41.0206   1  27   0.0021   0.0020   0.0051  -0.0004  -0.0001  -0.0022   0.29    3.5
2024/11/12 07:01:36.400   34.744630966  137.764303878    41.0233   1  27   0.0021   0.0020   0.0051  -0.0004  -0.0001  -0.0022   0.39    3.5
2024/11/12 07:01:36.500   34.744630973  137.764303878    41.0211   1  27   0.0021   0.0020   0.0051  -0.0004  -0.0001  -0.0022   0.49    3.5
2024/11/12 07:01:36.600   34.744630981  137.764303885    41.0184   1  27   0.0021   0.0020   0.0051  -0.0004  -0.0001  -0.0022  -0.41    3.5
2024/11/12 07:01:36.700   34.744630984  137.764303876    41.0192   1  27   0.0021   0.0020   0.0051  -0.0004  -0.0001  -0.0022  -0.31    3.5
2024/11/12 07:01:36.800   34.744630970  137.764303876    41.0182   1  27   0.0021   0.0020   0.0051  -0.0004  -0.0000  -0.0022  -0.21    3.5
2024/11/12 07:01:36.900   34.744630979  137.764303875    41.0182   1  27   0.0021   0.0020   0.0051  -0.0004  -0.0000  -0.0022  -0.11    3.5
2024/11/12 07:01:37.000   34.744630984  137.764303877    41.0177   1  27   0.0021   0.0020   0.0051  -0.0004  -0.0000  -0.0022  -0.01    3.5
2024/11/12 07:01:37.100   34.744630977  137.764303861    41.0206   1  27   0.0021   0.0020   0.0051  -0.0004  -0.0000  -0.0022   0.09    3.5
2024/11/12 07:01:37.200   34.744630985  137.764303866    41.0183   1  27   0.0021   0.0020   0.0051  -0.0004  -0.0000  -0.0022   0.19    3.5
2024/11/12 07:01:37.300   34.744630982  137.764303873    41.0204   1  27   0.0021   0.0020   0.0051  -0.0004  -0.0000  -0.0022   0.29    3.5
2024/11/12 07:01:37.400   34.744630979  137.764303864    41.0200   1  27   0.0021   0.0020   0.0051  -0.0004  -0.0000  -0.0022   0.39    3.5
2024/11/12 07:01:37.500   34.744630976  137.764303863    41.0204   1  27   0.0021   0.0020   0.0051  -0.0004  -0.0001  -0.0022   0.49    3.5
2024/11/12 07:01:37.600   34.744630972  137.764303859    41.0206   1  27   0.0021   0.0020   0.0051  -0.0004  -0.0000  -0.0022  -0.41    3.5
2024/11/12 07:01:37.700   34.744630962  137.764303872    41.0192   1  27   0.0021   0.0020   0.0051  -0.0004  -0.0000  -0.0022  -0.31    3.5
2024/11/12 07:01:37.800   34.744630969  137.764303869    41.0193   1  27   0.0021   0.0020   0.0051  -0.0004  -0.0000  -0.0022  -0.21    3.5
2024/11/12 07:01:37.900   34.744630974  137.764303867    41.0188   1  27   0.0021   0.0020   0.0051  -0.0004  -0.0000  -0.0022  -0.11    3.5
2024/11/12 07:01:38.000   34.744630968  137.764303858    41.0217   1  27   0.0021   0.0020   0.0051  -0.0004  -0.0000  -0.0022  -0.01    3.5
2024/11/12 07:01:38.100   34.744630974  137.764303867    41.0188   1  27   0.0021   0.0020   0.0051  -0.0004  -0.0000  -0.0022   0.09    3.5
2024/11/12 07:01:38.200   34.744630974  137.764303868    41.0198   1  27   0.0021   0.0020   0.0051  -0.0004  -0.0000  -0.0022   0.19    3.5
2024/11/12 07:01:38.300   34.744630966  137.764303869    41.0216   1  27   0.0021   0.0020   0.0051  -0.0004  -0.0000  -0.0022   0.29    3.5
2024/11/12 07:01:38.400   34.744630975  137.764303876    41.0203   1  27   0.0021   0.0020   0.0051  -0.0004  -0.0000  -0.0022   0.39    3.5
2024/11/12 07:01:38.500   34.744630968  137.764303864    41.0211   1  27   0.0021   0.0020   0.0051  -0.0004  -0.0000  -0.0022   0.49    3.5
2024/11/12 07:01:38.600   34.744630991  137.764303876    41.0187   1  27   0.0021   0.0020   0.0051  -0.0004  -0.0000  -0.0022  -0.41    3.5
2024/11/12 07:01:38.700   34.744630988  137.764303863    41.0177   1  27   0.0021   0.0020   0.0051  -0.0004  -0.0000  -0.0022  -0.31    3.5
2024/11/12 07:01:38.800   34.744630986  137.764303855    41.0173   1  27   0.0021   0.0020   0.0051  -0.0004   0.0000  -0.0022  -0.21    3.5
2024/11/12 07:01:38.900   34.744630991  137.764303873    41.0176   1  27   0.0021   0.0020   0.0051  -0.0004   0.0000  -0.0022  -0.11    3.5
2024/11/12 07:01:39.000   34.744630987  137.764303869    41.0195   1  27   0.0021   0.0020   0.0051  -0.0004   0.0000  -0.0022  -0.01    3.5
2024/11/12 07:01:39.100   34.744630984  137.764303863    41.0200   1  27   0.0021   0.0020   0.0051  -0.0004   0.0000  -0.0022   0.09    3.5
2024/11/12 07:01:39.200   34.744630980  137.764303869    41.0202   1  27   0.0021   0.0020   0.0051  -0.0004   0.0000  -0.0022   0.19    3.5
2024/11/12 07:01:39.300   34.744630988  137.764303864    41.0201   1  27   0.0021   0.0020   0.0051  -0.0004   0.0000  -0.0022   0.29    3.5
2024/11/12 07:01:39.400   34.744630969  137.764303861    41.0200   1  27   0.0021   0.0020   0.0051  -0.0004  -0.0000  -0.0022   0.39    3.5
2024/11/12 07:01:39.500   34.744630990  137.764303864    41.0195   1  27   0.0021   0.0020   0.0051  -0.0004  -0.0000  -0.0022   0.49    3.5
2024/11/12 07:01:39.600   34.744630983  137.764303867    41.0192   1  27   0.0021   0.0020   0.0051  -0.0004  -0.0000  -0.0022  -0.41    3.5
2024/11/12 07:01:39.700   34.744630984  137.764303878    41.0182   1  27   0.0021   0.0020   0.0051  -0.0004   0.0000  -0.0022  -0.31    3.5
2024/11/12 07:01:39.800   34.744630987  137.764303869    41.0176   1  27   0.0021   0.0020   0.0051  -0.0004   0.0000  -0.0022  -0.21    3.5
2024/11/12 07:01:39.900   34.744630980  137.764303863    41.0206   1  27   0.0021   0.0020   0.0051  -0.0004   0.0000  -0.0022  -0.11    3.5
2024/11/12 07:01:40.000   34.744630983  137.764303867    41.0199   1  27   0.0021   0.0020   0.0051  -0.0004   0.0000  -0.0022  -0.01    3.5
2024/11/12 07:01:40.100   34.744630987  137.764303859    41.0200   1  27   0.0021   0.0020   0.0051  -0.0004   0.0000  -0.0022   0.09    3.5
2024/11/12 07:01:40.200   34.744630977  137.764303869    41.0212   1  27   0.0021   0.0020   0.0051  -0.0004   0.0000  -0.0022   0.19    3.5
2024/11/12 07:01:40.300   34.744630987  137.764303859    41.0214   1  27   0.0021   0.0020   0.0051  -0.0004   0.0000  -0.0022   0.29    3.5
2024/11/12 07:01:40.400   34.744630987  137.764303874    41.0205   1  27   0.0021   0.0020   0.0051  -0.0004   0.0000  -0.0022   0.39    3.5
2024/11/12 07:01:40.500   34.744630980  137.764303860    41.0213   1  27   0.0021   0.0020   0.0051  -0.0004  -0.0000  -0.0022   0.49    3.5
2024/11/12 07:01:40.600   34.744630974  137.764303874    41.0191   1  27   0.0021   0.0020   0.0051  -0.0004   0.0000  -0.0022  -0.41    3.5
2024/11/12 07:01:40.700   34.744630973  137.764303861    41.0194   1  27   0.0021   0.0020   0.0051  -0.0004   0.0000  -0.0022  -0.31    3.5
2024/11/12 07:01:40.800   34.744630982  137.764303866    41.0191   1  27   0.0021   0.0020   0.0051  -0.0004   0.0000  -0.0022  -0.21    3.5
2024/11/12 07:01:40.900   34.744630981  137.764303872    41.0196   1  27   0.0021   0.0020   0.0051  -0.0004   0.0001  -0.0022  -0.11    3.5
2024/11/12 07:01:41.000   34.744630973  137.764303869    41.0203   1  27   0.0021   0.0020   0.0051  -0.0004   0.0001  -0.0022  -0.01    3.5
2024/11/12 07:01:41.100   34.744630970  137.764303858    41.0196   1  27   0.0021   0.0020   0.0051  -0.0004   0.0001  -0.0022   0.09    3.5
2024/11/12 07:01:41.200   34.744630974  137.764303870    41.0200   1  27   0.0021   0.0020   0.0051  -0.0004   0.0001  -0.0022   0.19    3.5
2024/11/12 07:01:41.300   34.744630978  137.764303865    41.0210   1  27   0.0021   0.0020   0.0051  -0.0004   0.0000  -0.0022   0.29    3.5
2024/11/12 07:01:41.400   34.744630981  137.764303867    41.0187   1  27   0.0021   0.0020   0.0051  -0.0004   0.0000  -0.0022   0.39    3.5
2024/11/12 07:01:41.500   34.744630976  137.764303858    41.0200   1  27   0.0021   0.0020   0.0051  -0.0004   0.0000  -0.0022   0.49    3.5
2024/11/12 07:01:41.600   34.744630976  137.764303868    41.0174   1  27   0.0021   0.0020   0.0051  -0.0004   0.0000  -0.0022  -0.41    3.5
2024/11/12 07:01:41.700   34.744630981  137.764303866    41.0160   1  27   0.0021   0.0020   0.0051  -0.0004   0.0001  -0.0022  -0.31    3.5
2024/11/12 07:01:41.800   34.744630987  137.764303868    41.0157   1  27   0.0021   0.0020   0.0051  -0.0004   0.0001  -0.0022  -0.21    3.5
2024/11/12 07:01:41.900   34.744630976  137.764303872    41.0168   1  27   0.0021   0.0020   0.0051  -0.0004   0.0001  -0.0022  -0.11    3.5
2024/11/12 07:01:42.000   34.744630970  137.764303858    41.0201   1  27   0.0021   0.0020   0.0051  -0.0004   0.0001  -0.0022  -0.01    3.5
2024/11/12 07:01:42.100   34.744630975  137.764303867    41.0196   1  27   0.0021   0.0020   0.0051  -0.0004   0.0001  -0.0022   0.09    3.5
2024/11/12 07:01:42.200   34.744630981  137.764303866    41.0173   1  27   0.0021   0.0020   0.0051  -0.0004   0.0001  -0.0022   0.19    3.5
2024/11/12 07:01:42.300   34.744630972  137.764303863    41.0185   1  27   0.0021   0.0020   0.0051  -0.0004   0.0001  -0.0022   0.29    3.5
2024/11/12 07:01:42.400   34.744630973  137.764303872    41.0177   1  27   0.0021   0.0020   0.0051  -0.0004   0.0001  -0.0022   0.39    3.5
2024/11/12 07:01:42.500   34.744630964  137.764303859    41.0204   1  27   0.0021   0.0020   0.0051  -0.0004   0.0000  -0.0022   0.49    3.5
2024/11/12 07:01:42.600   34.744630976  137.764303863    41.0204   1  27   0.0021   0.0020   0.0051  -0.0004   0.0001  -0.0022  -0.41    3.5
2024/11/12 07:01:42.700   34.744630981  137.764303858    41.0199   1  27   0.0021   0.0020   0.0051  -0.0004   0.0001  -0.0022  -0.31    3.5
2024/11/12 07:01:42.800   34.744630975  137.764303866    41.0197   1  27   0.0021   0.0020   0.0051  -0.0004   0.0001  -0.0022  -0.21    3.5
2024/11/12 07:01:42.900   34.744630972  137.764303850    41.0198   1  27   0.0021   0.0020   0.0051  -0.0004   0.0001  -0.0022  -0.11    3.5
2024/11/12 07:01:43.000   34.744630975  137.764303870    41.0192   1  27   0.0021   0.0020   0.0051  -0.0004   0.0001  -0.0022  -0.01    3.5
2024/11/12 07:01:43.100   34.744630971  137.764303853    41.0210   1  27   0.0021   0.0020   0.0051  -0.0004   0.0001  -0.0022   0.09    3.5
2024/11/12 07:01:43.200   34.744630972  137.764303849    41.0195   1  27   0.0021   0.0020   0.0051  -0.0004   0.0001  -0.0022   0.19    3.5
2024/11/12 07:01:43.300   34.744630968  137.764303860    41.0209   1  27   0.0021   0.0020   0.0051  -0.0004   0.0001  -0.0022   0.29    3.5
2024/11/12 07:01:43.400   34.744630974  137.764303872    41.0223   1  27   0.0021   0.0020   0.0051  -0.0004   0.0001  -0.0022   0.39    3.5
2024/11/12 07:01:43.500   34.744630979  137.764303859    41.0198   1  27   0.0021   0.0020   0.0051  -0.0004   0.0001  -0.0022   0.49    3.5
2024/11/12 07:01:43.600   34.744630973  137.764303867    41.0175   1  27   0.0021   0.0020   0.0051  -0.0004   0.0001  -0.0022  -0.41    3.5
2024/11/12 07:01:43.700   34.744630988  137.764303872    41.0187   1  27   0.0021   0.0020   0.0051  -0.0004   0.0001  -0.0022  -0.31    3.5
2024/11/12 07:01:43.800   34.744630977  137.764303868    41.0192   1  27   0.0021   0.0020   0.0051  -0.0004   0.0001  -0.0022  -0.21    3.5
2024/11/12 07:01:43.900   34.744630972  137.764303866    41.0204   1  27   0.0021   0.0020   0.0051  -0.0004   0.0001  -0.0022  -0.11    3.5
2024/11/12 07:01:44.000   34.744630978  137.764303866    41.0203   1  27   0.0021   0.0020   0.0051  -0.0004   0.0001  -0.0022  -0.01    3.5
2024/11/12 07:01:44.100   34.744630982  137.764303859    41.0192   1  27   0.0021   0.0020   0.0051  -0.0004   0.0001  -0.0022   0.09    3.5
2024/11/12 07:01:44.200   34.744630986  137.764303874    41.0194   1  27   0.0021   0.0020   0.0051  -0.0004   0.0001  -0.0022   0.19    3.5
2024/11/12 07:01:44.300   34.744630974  137.764303875    41.0202   1  27   0.0021   0.0020   0.0051  -0.0004   0.0001  -0.0022   0.29    3.5
2024/11/12 07:01:44.400   34.744630980  137.764303861    41.0184   1  27   0.0021   0.0020   0.0051  -0.0004   0.0001  -0.0022   0.39    3.5
2024/11/12 07:01:44.500   34.744630981  137.764303871    41.0194   1  27   0.0021   0.0020   0.0051  -0.0004   0.0001  -0.0022   0.49    3.5
2024/11/12 07:01:44.600   34.744630984  137.764303868    41.0181   1  27   0.0021   0.0020   0.0051  -0.0004   0.0001  -0.0022  -0.41    3.5
2024/11/12 07:01:44.700   34.744630974  137.764303860    41.0210   1  27   0.0021   0.0020   0.0051  -0.0004   0.0001  -0.0022  -0.31    3.5
2024/11/12 07:01:44.800   34.744630975  137.764303857    41.0208   1  27   0.0021   0.0020   0.0051  -0.0004   0.0001  -0.0022  -0.21    3.5
2024/11/12 07:01:44.900   34.744630981  137.764303869    41.0205   1  27   0.0021   0.0020   0.0051  -0.0004   0.0001  -0.0022  -0.11    3.5
2024/11/12 07:01:45.000   34.744630984  137.764303866    41.0209   1  27   0.0021   0.0020   0.0051  -0.0004   0.0001  -0.0022  -0.01    3.5
2024/11/12 07:01:45.100   34.744630982  137.764303868    41.0226   1  27   0.0021   0.0020   0.0051  -0.0004   0.0001  -0.0022   0.09    3.5
2024/11/12 07:01:45.200   34.744630975  137.764303852    41.0228   1  27   0.0021   0.0020   0.0051  -0.0004   0.0001  -0.0022   0.19    3.5
2024/11/12 07:01:45.300   34.744630977  137.764303864    41.0233   1  27   0.0021   0.0020   0.0051  -0.0004   0.0001  -0.0022   0.29    3.5
2024/11/12 07:01:45.400   34.744630980  137.764303866    41.0232   1  27   0.0021   0.0020   0.0051  -0.0004   0.0001  -0.0022   0.39    3.5
2024/11/12 07:01:45.500   34.744630965  137.764303856    41.0254   1  27   0.0021   0.0020   0.0051  -0.0004   0.0001  -0.0022   0.49    3.5
2024/11/12 07:01:45.600   34.744630979  137.764303871    41.0181   1  27   0.0021   0.0020   0.0051  -0.0004   0.0001  -0.0022  -0.41    3.5
2024/11/12 07:01:45.700   34.744630975  137.764303869    41.0187   1  27   0.0021   0.0020   0.0051  -0.0004   0.0001  -0.0022  -0.31    3.5
2024/11/12 07:01:45.800   34.744630973  137.764303872    41.0176   1  27   0.0021   0.0020   0.0051  -0.0004   0.0001  -0.0022  -0.21    3.5
2024/11/12 07:01:45.900   34.744630978  137.764303863    41.0194   1  27   0.0021   0.0020   0.0051  -0.0004   0.0001  -0.0022  -0.11    3.5
2024/11/12 07:01:46.000   34.744630970  137.764303863    41.0219   1  27   0.0021   0.0020   0.0051  -0.0004   0.0001  -0.0022  -0.01    3.5
2024/11/12 07:01:46.100   34.744630977  137.764303873    41.0200   1  27   0.0021   0.0020   0.0051  -0.0004   0.0001  -0.0022   0.09    3.5
2024/11/12 07:01:46.200   34.744630977  137.764303869    41.0210   1  27   0.0021   0.0020   0.0051  -0.0004   0.0001  -0.0022   0.19    3.5
2024/11/12 07:01:46.300   34.744630976  137.764303868    41.0212   1  27   0.0021   0.0020   0.0051  -0.0004   0.0001  -0.0022   0.29    3.5
2024/11/12 07:01:46.400   34.744630973  137.764303866    41.0219   1  27   0.0021   0.0020   0.0051  -0.0004   0.0001  -0.0022   0.39    3.5
2024/11/12 07:01:46.500   34.744630978  137.764303870    41.0204   1  27   0.0021   0.0020   0.0051  -0.0004   0.0001  -0.0022   0.49    3.5
2024/11/12 07:01:46.600   34.744630988  137.764303872    41.0161   1  27   0.0021   0.0020   0.0051  -0.0004   0.0001  -0.0022  -0.41    3.5
2024/11/12 07:01:46.700   34.744630970  137.764303866    41.0184   1  27   0.0021   0.0020   0.0051  -0.0004   0.0001  -0.0022  -0.31    3.5
2024/11/12 07:01:46.800   34.744630978  137.764303869    41.0168   1  27   0.0021   0.0020   0.0051  -0.0004   0.0001  -0.0022  -0.21    3.5
2024/11/12 07:01:46.900   34.744630977  137.764303856    41.0188   1  27   0.0021   0.0020   0.0051  -0.0004   0.0001  -0.0022  -0.11    3.5
2024/11/12 07:01:47.000   34.744630975  137.764303867    41.0192   1  27   0.0021   0.0020   0.0051  -0.0004   0.0001  -0.0022  -0.01    3.5
2024/11/12 07:01:47.100   34.744630981  137.764303865    41.0197   1  27   0.0021   0.0020   0.0051  -0.0004   0.0001  -0.0022   0.09    3.5
2024/11/12 07:01:47.200   34.744630972  137.764303864    41.0201   1  27   0.0021   0.0020   0.0051  -0.0004   0.0001  -0.0022   0.19    3.5
2024/11/12 07:01:47.300   34.744630979  137.764303862    41.0201   1  27   0.0021   0.0020   0.0051  -0.0004   0.0001  -0.0022   0.29    3.5
2024/11/12 07:01:47.400   34.744630982  137.764303873    41.0195   1  27   0.0021   0.0020   0.0051  -0.0004   0.0001  -0.0022   0.39    3.5
2024/11/12 07:01:47.500   34.744630972  137.764303874    41.0194   1  27   0.0021   0.0020   0.0051  -0.0004   0.0001  -0.0022   0.49    3.5
2024/11/12 07:01:47.600   34.744630980  137.764303866    41.0168   1  27   0.0021   0.0020   0.0051  -0.0004   0.0001  -0.0022  -0.41    3.5
2024/11/12 07:01:47.700   34.744630985  137.764303852    41.0179   1  27   0.0021   0.0020   0.0051  -0.0004   0.0001  -0.0022  -0.31    3.5
2024/11/12 07:01:47.800   34.744630979  137.764303868    41.0173   1  27   0.0021   0.0020   0.0051  -0.0004   0.0001  -0.0022  -0.21    3.5
2024/11/12 07:01:47.900   34.744630979  137.764303867    41.0187   1  27   0.0021   0.0020   0.0051  -0.0004   0.0001  -0.0022  -0.11    3.5
2024/11/12 07:01:48.000   34.744630975  137.764303868    41.0206   1  27   0.0021   0.0020   0.0051  -0.0004   0.0001  -0.0022  -0.01    3.5
2024/11/12 07:01:48.100   34.744630969  137.764303867    41.0205   1  27   0.0021   0.0020   0.0051  -0.0004   0.0001  -0.0022   0.09    3.5
2024/11/12 07:01:48.200   34.744630962  137.764303870    41.0229   1  27   0.0021   0.0020   0.0051  -0.0004   0.0001  -0.0022   0.19    3.5
2024/11/12 07:01:48.300   34.744630957  137.764303877    41.0209   1  27   0.0021   0.0020   0.0051  -0.0004   0.0001  -0.0022   0.29    3.5
2024/11/12 07:01:48.400   34.744630965  137.764303872    41.0243   1  27   0.0021   0.0020   0.0051  -0.0004   0.0001  -0.0022   0.39    3.5
2024/11/12 07:01:48.500   34.744630966  137.764303868    41.0228   1  27   0.0021   0.0020   0.0051  -0.0004   0.0001  -0.0022   0.49    3.5
2024/11/12 07:01:48.600   34.744630963  137.764303857    41.0236   1  27   0.0021   0.0020   0.0051  -0.0004   0.0001  -0.0022  -0.41    3.5
2024/11/12 07:01:48.700   34.744630978  137.764303865    41.0224   1  27   0.0021   0.0020   0.0051  -0.0004   0.0001  -0.0022  -0.31    3.5
2024/11/12 07:01:48.800   34.744630982  137.764303858    41.0222   1  27   0.0021   0.0020   0.0051  -0.0004   0.0001  -0.0022  -0.21    3.5
2024/11/12 07:01:48.900   34.744630970  137.764303856    41.0231   1  27   0.0021   0.0020   0.0051  -0.0004   0.0001  -0.0022  -0.11    3.5
2024/11/12 07:01:49.000   34.744630981  137.764303869    41.0214   1  27   0.0021   0.0020   0.0051  -0.0004   0.0001  -0.0022  -0.01    3.5
2024/11/12 07:01:49.100   34.744630979  137.764303867    41.0220   1  27   0.0021   0.0020   0.0051  -0.0004   0.0001  -0.0022   0.09    3.5
2024/11/12 07:01:49.200   34.744630977  137.764303860    41.0239   1  27   0.0021   0.0020   0.0051  -0.0004   0.0001  -0.0022   0.19    3.5
2024/11/12 07:01:49.300   34.744630977  137.764303866    41.0222   1  27   0.0021   0.0020   0.0051  -0.0004   0.0001  -0.0022   0.29    3.5
2024/11/12 07:01:49.400   34.744630984  137.764303863    41.0225   1  27   0.0021   0.0020   0.0051  -0.0004   0.0001  -0.0022   0.39    3.5
2024/11/12 07:01:49.500   34.744630973  137.764303867    41.0217   1  27   0.0021   0.0020   0.0051  -0.0004   0.0001  -0.0022   0.49    3.5
2024/11/12 07:01:49.600   34.744630991  137.764303873    41.0157   1  27   0.0021   0.0020   0.0051  -0.0004   0.0001  -0.0022  -0.41    3.5
2024/11/12 07:01:49.700   34.744630979  137.764303865    41.0173   1  27   0.0021   0.0020   0.0051  -0.0004   0.0001  -0.0022  -0.31    3.5
2024/11/12 07:01:49.800   34.744630984  137.764303870    41.0157   1  27   0.0021   0.0020   0.0051  -0.0004   0.0001  -0.0022  -0.21    3.5
2024/11/12 07:01:49.900   34.744630984  137.764303881    41.0165   1  27   0.0021   0.0020   0.0051  -0.0004   0.0001  -0.0022  -0.11    3.5
2024/11/12 07:01:50.000   34.744630976  137.764303863    41.0171   1  27   0.0021   0.0020   0.0051  -0.0004   0.0001  -0.0022  -0.01    3.5
2024/11/12 07:01:50.100   34.744630986  137.764303876    41.0181   1  27   0.0021   0.0020   0.0051  -0.0004   0.0001  -0.0022   0.09    3.5
2024/11/12 07:01:50.200   34.744630973  137.764303877    41.0175   1  27   0.0021   0.0020   0.0051  -0.0004   0.0001  -0.0022   0.19    3.5
2024/11/12 07:01:50.300   34.744630978  137.764303874    41.0166   1  27   0.0021   0.0020   0.0051  -0.0004   0.0001  -0.0022   0.29    3.5
2024/11/12 07:01:50.400   34.744630980  137.764303868    41.0182   1  27   0.0021   0.0020   0.0051  -0.0004   0.0001  -0.0022   0.39    3.5
2024/11/12 07:01:50.500   34.744630967  137.764303874    41.0200   1  27   0.0021   0.0020   0.0051  -0.0004   0.0001  -0.0022   0.49    3.5
2024/11/12 07:01:50.600   34.744630985  137.764303876    41.0178   1  27   0.0021   0.0020   0.0051  -0.0004   0.0001  -0.0022  -0.41    3.5
2024/11/12 07:01:50.700   34.744630980  137.764303866    41.0200   1  27   0.0021   0.0020   0.0051  -0.0004   0.0001  -0.0022  -0.31    3.5
2024/11/12 07:01:50.800   34.744630978  137.764303862    41.0210   1  27   0.0021   0.0020   0.0051  -0.0004   0.0001  -0.0022  -0.21    3.5
2024/11/12 07:01:50.900   34.744630974  137.764303876    41.0201   1  27   0.0021   0.0020   0.0051  -0.0004   0.0001  -0.0022  -0.11    3.5
2024/11/12 07:01:51.000   34.744630979  137.764303868    41.0202   1  27   0.0021   0.0020   0.0051  -0.0004   0.0001  -0.0022  -0.01    3.5
2024/11/12 07:01:51.100   34.744630983  137.764303869    41.0198   1  27   0.0021   0.0020   0.0051  -0.0004   0.0001  -0.0022   0.09    3.5
2024/11/12 07:01:51.200   34.744630969  137.764303874    41.0216   1  27   0.0021   0.0020   0.0051  -0.0004   0.0001  -0.0022   0.19    3.5
2024/11/12 07:01:51.300   34.744630975  137.764303880    41.0229   1  27   0.0021   0.0020   0.0051  -0.0004   0.0001  -0.0022   0.29    3.5
2024/11/12 07:01:51.400   34.744630974  137.764303867    41.0224   1  27   0.0021   0.0020   0.0051  -0.0004   0.0001  -0.0022   0.39    3.5
2024/11/12 07:01:51.500   34.744630964  137.764303859    41.0239   1  27   0.0021   0.0020   0.0051  -0.0004   0.0001  -0.0022   0.49    3.5
2024/11/12 07:01:51.600   34.744630974  137.764303867    41.0201   1  27   0.0021   0.0020   0.0051  -0.0004   0.0001  -0.0022  -0.41    3.5
2024/11/12 07:01:51.700   34.744630972  137.764303869    41.0200   1  27   0.0021   0.0020   0.0051  -0.0004   0.0001  -0.0022  -0.31    3.5
2024/11/12 07:01:51.800   34.744630981  137.764303872    41.0190   1  27   0.0021   0.0020   0.0051  -0.0004   0.0001  -0.0022  -0.21    3.5
2024/11/12 07:01:51.900   34.744630981  137.764303872    41.0173   1  27   0.0021   0.0020   0.0051  -0.0004   0.0001  -0.0022  -0.11    3.5
2024/11/12 07:01:52.000   34.744630975  137.764303862    41.0192   1  27   0.0021   0.0020   0.0051  -0.0004   0.0001  -0.0022  -0.01    3.5
2024/11/12 07:01:52.100   34.744630982  137.764303871    41.0202   1  27   0.0021   0.0020   0.0051  -0.0004   0.0001  -0.0022   0.09    3.5
2024/11/12 07:01:52.200   34.744630975  137.764303861    41.0211   1  27   0.0021   0.0020   0.0051  -0.0004   0.0001  -0.0022   0.19    3.5
2024/11/12 07:01:52.300   34.744630972  137.764303867    41.0206   1  27   0.0021   0.0020   0.0051  -0.0004   0.0001  -0.0022   0.29    3.5
2024/11/12 07:01:52.400   34.744630974  137.764303871    41.0218   1  27   0.0021   0.0020   0.0051  -0.0004   0.0001  -0.0022   0.39    3.5
2024/11/12 07:01:52.500   34.744630973  137.764303873    41.0228   1  27   0.0021   0.0020   0.0051  -0.0004   0.0001  -0.0022   0.49    3.5
2024/11/12 07:01:52.600   34.744630971  137.764303851    41.0232   1  27   0.0021   0.0020   0.0051  -0.0004   0.0001  -0.0022  -0.41    3.5
2024/11/12 07:01:52.700   34.744630973  137.764303869    41.0220   1  27   0.0021   0.0020   0.0051  -0.0004   0.0001  -0.0022  -0.31    3.5
2024/11/12 07:01:52.800   34.744630972  137.764303864    41.0214   1  27   0.0021   0.0020   0.0051  -0.0004   0.0001  -0.0022  -0.21    3.5
2024/11/12 07:01:52.900   34.744630978  137.764303865    41.0208   1  27   0.0021   0.0020   0.0051  -0.0004   0.0001  -0.0022  -0.11    3.5
2024/11/12 07:01:53.000   34.744630983  137.764303869    41.0202   1  27   0.0021   0.0020   0.0051  -0.0004   0.0001  -0.0022  -0.01    3.5
2024/11/12 07:01:53.100   34.744630971  137.764303866    41.0223   1  27   0.0021   0.0020   0.0051  -0.0004   0.0001  -0.0022   0.09    3.5
2024/11/12 07:01:53.200   34.744630981  137.764303869    41.0226   1  27   0.0021   0.0020   0.0051  -0.0004   0.0001  -0.0022   0.19    3.5
2024/11/12 07:01:53.300   34.744630974  137.764303865    41.0225   1  27   0.0021   0.0020   0.0051  -0.0004   0.0001  -0.0022   0.29    3.5
2024/11/12 07:01:53.400   34.744630978  137.764303865    41.0224   1  27   0.0021   0.0020   0.0051  -0.0004   0.0001  -0.0022   0.39    3.5
2024/11/12 07:01:53.500   34.744630980  137.764303869    41.0222   1  27   0.0021   0.0020   0.0051  -0.0004   0.0001  -0.0022   0.49    3.5
2024/11/12 07:01:53.600   34.744630964  137.764303869    41.0210   1  27   0.0021   0.0020   0.0051  -0.0004   0.0001  -0.0022  -0.41    3.5
2024/11/12 07:01:53.700   34.744630982  137.764303881    41.0195   1  27   0.0021   0.0020   0.0051  -0.0004   0.0001  -0.0022  -0.31    3.5
2024/11/12 07:01:53.800   34.744630970  137.764303870    41.0208   1  27   0.0021   0.0020   0.0051  -0.0004   0.0001  -0.0022  -0.21    3.5
2024/11/12 07:01:53.900   34.744630968  137.764303866    41.0208   1  27   0.0021   0.0020   0.0051  -0.0004   0.0001  -0.0022  -0.11    3.6
2024/11/12 07:01:54.000   34.744630974  137.764303880    41.0221   1  27   0.0021   0.0020   0.0051  -0.0004   0.0001  -0.0022  -0.01    3.6
2024/11/12 07:01:54.100   34.744630957  137.764303866    41.0246   1  27   0.0021   0.0020   0.0051  -0.0004   0.0001  -0.0022   0.09    3.6
2024/11/12 07:01:54.200   34.744630960  137.764303861    41.0237   1  27   0.0021   0.0020   0.0051  -0.0004   0.0001  -0.0022   0.19    3.6
2024/11/12 07:01:54.300   34.744630972  137.764303879    41.0235   1  27   0.0021   0.0020   0.0051  -0.0004   0.0001  -0.0022   0.29    3.6
2024/11/12 07:01:54.400   34.744630967  137.764303871    41.0227   1  27   0.0021   0.0020   0.0051  -0.0004   0.0001  -0.0022   0.39    3.6
2024/11/12 07:01:54.500   34.744630962  137.764303863    41.0249   1  27   0.0021   0.0020   0.0051  -0.0004   0.0001  -0.0022   0.49    3.6
2024/11/12 07:01:54.600   34.744630987  137.764303879    41.0179   1  27   0.0021   0.0020   0.0051  -0.0004   0.0001  -0.0022  -0.41    3.6
2024/11/12 07:01:54.700   34.744630982  137.764303875    41.0192   1  27   0.0021   0.0020   0.0051  -0.0004   0.0001  -0.0022  -0.31    3.6
2024/11/12 07:01:54.800   34.744630984  137.764303876    41.0181   1  27   0.0021   0.0020   0.0051  -0.0004   0.0001  -0.0022  -0.21    3.6
2024/11/12 07:01:54.900   34.744630983  137.764303875    41.0179   1  27   0.0021   0.0020   0.0051  -0.0004   0.0001  -0.0022  -0.11    3.6
2024/11/12 07:01:55.000   34.744630973  137.764303883    41.0198   1  27   0.0021   0.0020   0.0051  -0.0004   0.0001  -0.0022  -0.01    3.6
2024/11/12 07:01:55.100   34.744630988  137.764303891    41.0203   1  27   0.0021   0.0020   0.0051  -0.0004   0.0001  -0.0022   0.09    3.6
2024/11/12 07:01:55.200   34.744630968  137.764303867    41.0217   1  27   0.0021   0.0020   0.0051  -0.0004   0.0001  -0.0022   0.19    3.6
2024/11/12 07:01:55.300   34.744630975  137.764303875    41.0213   1  27   0.0021   0.0020   0.0051  -0.0004   0.0001  -0.0022   0.29    3.6
2024/11/12 07:01:55.400   34.744630977  137.764303879    41.0205   1  27   0.0021   0.0020   0.0051  -0.0004   0.0001  -0.0022   0.39    3.6
2024/11/12 07:01:55.500   34.744630976  137.764303871    41.0207   1  27   0.0021   0.0020   0.0051  -0.0004   0.0001  -0.0022   0.49    3.6
2024/11/12 07:01:55.600   34.744630980  137.764303873    41.0180   1  27   0.0021   0.0020   0.0051  -0.0004   0.0001  -0.0022  -0.41    3.6
2024/11/12 07:01:55.700   34.744630971  137.764303876    41.0205   1  27   0.0021   0.0020   0.0051  -0.0004   0.0001  -0.0022  -0.31    3.6
2024/11/12 07:01:55.800   34.744630969  137.764303862    41.0200   1  27   0.0021   0.0020   0.0051  -0.0004   0.0001  -0.0022  -0.21    3.6
2024/11/12 07:01:55.900   34.744630978  137.764303876    41.0176   1  27   0.0021   0.0020   0.0051  -0.0004   0.0001  -0.0022  -0.11    3.6
2024/11/12 07:01:56.000   34.744630968  137.764303871    41.0207   1  27   0.0021   0.0020   0.0051  -0.0004   0.0001  -0.0022  -0.01    3.6
2024/11/12 07:01:56.100   34.744630966  137.764303866    41.0229   1  27   0.0021   0.0020   0.0051  -0.0004   0.0001  -0.0022   0.09    3.6
2024/11/12 07:01:56.200   34.744630961  137.764303861    41.0237   1  27   0.0021   0.0020   0.0051  -0.0004   0.0001  -0.0022   0.19    3.6
2024/11/12 07:01:56.300   34.744630966  137.764303884    41.0212   1  27   0.0021   0.0020   0.0051  -0.0004   0.0001  -0.0022   0.29    3.6
2024/11/12 07:01:56.400   34.744630963  137.764303884    41.0222   1  27   0.0021   0.0020   0.0051  -0.0004   0.0001  -0.0022   0.39    3.6
2024/11/12 07:01:56.500   34.744630965  137.764303877    41.0221   1  27   0.0021   0.0020   0.0051  -0.0004   0.0001  -0.0022   0.49    3.6
2024/11/12 07:01:56.600   34.744630986  137.764303862    41.0196   1  27   0.0021   0.0020   0.0051  -0.0004   0.0001  -0.0022  -0.41    3.6
2024/11/12 07:01:56.700   34.744630986  137.764303862    41.0189   1  27   0.0021   0.0020   0.0051  -0.0004   0.0001  -0.0022  -0.31    3.6
2024/11/12 07:01:56.800   34.744630980  137.764303873    41.0182   1  27   0.0021   0.0020   0.0051  -0.0004   0.0001  -0.0022  -0.21    3.6
2024/11/12 07:01:56.900   34.744630979  137.764303875    41.0188   1  27   0.0021   0.0020   0.0051  -0.0004   0.0001  -0.0022  -0.11    3.6
2024/11/12 07:01:57.000   34.744630988  137.764303876    41.0187   1  27   0.0021   0.0020   0.0051  -0.0004   0.0001  -0.0022  -0.01    3.6
2024/11/12 07:01:57.100   34.744630970  137.764303880    41.0205   1  27   0.0021   0.0020   0.0051  -0.0004   0.0001  -0.0022   0.09    3.6
2024/11/12 07:01:57.200   34.744630976  137.764303871    41.0214   1  27   0.0021   0.0020   0.0051  -0.0004   0.0001  -0.0022   0.19    3.6
2024/11/12 07:01:57.300   34.744630964  137.764303866    41.0230   1  27   0.0021   0.0020   0.0051  -0.0004   0.0001  -0.0022   0.29    3.6
2024/11/12 07:01:57.400   34.744630962  137.764303885    41.0223   1  27   0.0021   0.0020   0.0051  -0.0004   0.0001  -0.0022   0.39    3.6
2024/11/12 07:01:57.500   34.744630984  137.764303875    41.0205   1  27   0.0021   0.0020   0.0051  -0.0004   0.0001  -0.0022   0.49    3.6
2024/11/12 07:01:57.600   34.744630978  137.764303869    41.0199   1  27   0.0021   0.0020   0.0051  -0.0004   0.0001  -0.0022  -0.41    3.6
2024/11/12 07:01:57.700   34.744630975  137.764303877    41.0196   1  27   0.0021   0.0020   0.0051  -0.0004   0.0001  -0.0022  -0.31    3.6
2024/11/12 07:01:57.800   34.744630977  137.764303872    41.0197   1  27   0.0021   0.0020   0.0051  -0.0004   0.0001  -0.0022  -0.21    3.6
2024/11/12 07:01:57.900   34.744630972  137.764303873    41.0225   1  27   0.0021   0.0020   0.0051  -0.0004   0.0001  -0.0022  -0.11    3.6
2024/11/12 07:01:58.000   34.744630969  137.764303870    41.0202   1  27   0.0021   0.0020   0.0051  -0.0004   0.0001  -0.0022  -0.01    3.6
2024/11/12 07:01:58.100   34.744630969  137.764303867    41.0204   1  27   0.0021   0.0020   0.0051  -0.0004   0.0001  -0.0022   0.09    3.6
2024/11/12 07:01:58.200   34.744630973  137.764303877    41.0208   1  27   0.0021   0.0020   0.0051  -0.0004   0.0001  -0.0022   0.19    3.6
2024/11/12 07:01:58.300   34.744630962  137.764303869    41.0215   1  27   0.0021   0.0020   0.0051  -0.0004   0.0001  -0.0022   0.29    3.6
2024/11/12 07:01:58.400   34.744630966  137.764303874    41.0227   1  27   0.0021   0.0020   0.0051  -0.0004   0.0001  -0.0022   0.39    3.6
2024/11/12 07:01:58.500   34.744630977  137.764303877    41.0224   1  27   0.0021   0.0020   0.0051  -0.0004   0.0001  -0.0022   0.49    3.6
2024/11/12 07:01:58.600   34.744630960  137.764303881    41.0211   1  27   0.0021   0.0020   0.0051  -0.0004   0.0001  -0.0022  -0.41    3.6
2024/11/12 07:01:58.700   34.744630962  137.764303882    41.0219   1  27   0.0021   0.0020   0.0051  -0.0004   0.0001  -0.0022  -0.31    3.6
2024/11/12 07:01:58.800   34.744630968  137.764303881    41.0204   1  27   0.0021   0.0020   0.0051  -0.0004   0.0001  -0.0022  -0.21    3.6
2024/11/12 07:01:58.900   34.744630965  137.764303880    41.0215   1  27   0.0021   0.0020   0.0051  -0.0004   0.0001  -0.0022  -0.11    3.6
2024/11/12 07:01:59.000   34.744630961  137.764303866    41.0218   1  27   0.0021   0.0020   0.0051  -0.0004   0.0001  -0.0022  -0.01    3.6
2024/11/12 07:01:59.100   34.744630970  137.764303880    41.0239   1  27   0.0021   0.0020   0.0051  -0.0004   0.0001  -0.0022   0.09    3.6
2024/11/12 07:01:59.200   34.744630964  137.764303878    41.0233   1  27   0.0021   0.0020   0.0051  -0.0004   0.0001  -0.0022   0.19    3.6
