% program   : RTKPOST demo5 b34j
% inp file  : C:\Users\cs21014\Documents\Kitani\241112hyod\src\01\GNSS_MT\gnss0\ubx\241112_14.obs
% inp file  : C:\Users\cs21014\Documents\Kitani\241112hyod\src\rtk_base\COM4___9600_241112_050705.obs
% inp file  : C:\Users\cs21014\Documents\Kitani\241112hyod\src\rtk_base\COM4___9600_241112_050705.nav
% obs start : 2024/11/12 05:04:18.0 GPST (week2340 191058.0s)
% obs end   : 2024/11/12 05:18:12.1 GPST (week2340 191892.1s)
% pos mode  : Kinematic
% freqs     : L1+L2/E5b+L5
% solution  : Combined-Phase Reset
% elev mask : 15.0 deg
% dynamics  : on
% tidecorr  : on
% ionos opt : Broadcast
% tropo opt : Saastamoinen
% ephemeris : Broadcast
% navi sys  : GPS GLONASS Galileo QZSS BDS NavIC
% amb res   : Fix and Hold
% amb glo   : Fix and Hold
% val thres : 3.0
% antenna1  :                       ( 0.0000  0.0000  0.0000)
% antenna2  :                       ( 0.0000  0.0000  0.0000)
% ref pos   : 34.744454383  137.764618776    40.7897
%
% (lat/lon/height=WGS84/ellipsoidal,Q=1:fix,2:float,3:sbas,4:dgps,5:single,6:ppp,ns=# of satellites)
%  GPST                  latitude(deg) longitude(deg)  height(m)   Q  ns   sdn(m)   sde(m)   sdu(m)  sdne(m)  sdeu(m)  sdun(m) age(s)  ratio
2024/11/12 05:14:18.000   34.744651213  137.764312246    41.0482   1  25   0.0036   0.0040   0.0080   0.0024  -0.0040  -0.0040  -0.00    4.1
2024/11/12 05:14:18.100   34.744651208  137.764312227    41.0489   1  25   0.0036   0.0040   0.0080   0.0024  -0.0040  -0.0040   0.10    4.0
2024/11/12 05:14:18.200   34.744651202  137.764312214    41.0523   1  25   0.0036   0.0040   0.0080   0.0024  -0.0040  -0.0040   0.20    4.0
2024/11/12 05:14:18.300   34.744651208  137.764312248    41.0478   1  25   0.0036   0.0040   0.0080   0.0024  -0.0040  -0.0040   0.30    4.0
2024/11/12 05:14:18.400   34.744651206  137.764312226    41.0504   1  25   0.0036   0.0040   0.0080   0.0024  -0.0040  -0.0040   0.40    4.0
2024/11/12 05:14:18.500   34.744651194  137.764312214    41.0551   1  25   0.0036   0.0040   0.0080   0.0024  -0.0040  -0.0040   0.50    4.0
2024/11/12 05:14:18.600   34.744651208  137.764312201    41.0544   1  25   0.0036   0.0040   0.0080   0.0024  -0.0040  -0.0040  -0.40    4.0
2024/11/12 05:14:18.700   34.744651197  137.764312201    41.0560   1  25   0.0036   0.0040   0.0080   0.0024  -0.0040  -0.0040  -0.30    4.0
2024/11/12 05:14:18.800   34.744651215  137.764312206    41.0540   1  25   0.0036   0.0040   0.0080   0.0024  -0.0040  -0.0040  -0.20    4.0
2024/11/12 05:14:18.900   34.744651212  137.764312226    41.0521   1  25   0.0036   0.0040   0.0080   0.0024  -0.0040  -0.0040  -0.10    4.0
2024/11/12 05:14:19.000   34.744651198  137.764312214    41.0532   1  25   0.0036   0.0040   0.0080   0.0024  -0.0040  -0.0040  -0.00    4.0
2024/11/12 05:14:19.100   34.744651210  137.764312224    41.0512   1  25   0.0036   0.0040   0.0080   0.0024  -0.0040  -0.0040   0.10    4.0
2024/11/12 05:14:19.200   34.744651198  137.764312210    41.0521   1  25   0.0036   0.0040   0.0080   0.0024  -0.0040  -0.0040   0.20    4.0
2024/11/12 05:14:19.300   34.744651260  137.764312230    41.0273   2  25   0.0030   0.0039   0.0061   0.0026  -0.0036  -0.0035   0.30    3.7
2024/11/12 05:14:19.400   34.744651203  137.764312213    41.0534   1  25   0.0036   0.0040   0.0080   0.0024  -0.0040  -0.0040   0.40    4.0
2024/11/12 05:14:19.500   34.744651195  137.764312213    41.0537   1  25   0.0036   0.0040   0.0080   0.0024  -0.0040  -0.0040   0.50    4.0
2024/11/12 05:14:19.600   34.744651213  137.764312222    41.0523   1  25   0.0036   0.0040   0.0080   0.0024  -0.0040  -0.0040  -0.40    3.9
2024/11/12 05:14:19.700   34.744651205  137.764312208    41.0553   1  25   0.0036   0.0040   0.0080   0.0024  -0.0040  -0.0040  -0.30    3.9
2024/11/12 05:14:19.800   34.744651199  137.764312199    41.0550   1  25   0.0036   0.0040   0.0080   0.0024  -0.0040  -0.0040  -0.20    3.9
2024/11/12 05:14:19.900   34.744651208  137.764312214    41.0536   1  25   0.0036   0.0040   0.0080   0.0024  -0.0040  -0.0040  -0.10    3.9
2024/11/12 05:14:20.000   34.744651195  137.764312204    41.0546   1  25   0.0036   0.0040   0.0080   0.0024  -0.0040  -0.0040  -0.00    3.9
2024/11/12 05:14:20.100   34.744651193  137.764312208    41.0549   1  25   0.0036   0.0040   0.0080   0.0024  -0.0040  -0.0040   0.10    3.9
2024/11/12 05:14:20.200   34.744651190  137.764312211    41.0552   1  25   0.0036   0.0040   0.0080   0.0024  -0.0040  -0.0040   0.20    3.9
2024/11/12 05:14:20.300   34.744651196  137.764312213    41.0547   1  25   0.0036   0.0040   0.0080   0.0024  -0.0040  -0.0040   0.30    3.9
2024/11/12 05:14:20.400   34.744651193  137.764312211    41.0556   1  25   0.0036   0.0040   0.0080   0.0024  -0.0040  -0.0040   0.40    3.9
2024/11/12 05:14:20.500   34.744651186  137.764312221    41.0550   1  25   0.0036   0.0040   0.0080   0.0024  -0.0040  -0.0040   0.50    3.9
2024/11/12 05:14:20.600   34.744651218  137.764312239    41.0526   1  25   0.0036   0.0040   0.0080   0.0024  -0.0040  -0.0040  -0.40    3.9
2024/11/12 05:14:20.700   34.744651219  137.764312253    41.0499   1  25   0.0036   0.0040   0.0080   0.0024  -0.0040  -0.0040  -0.30    3.9
2024/11/12 05:14:20.800   34.744651224  137.764312229    41.0524   1  25   0.0036   0.0040   0.0080   0.0024  -0.0040  -0.0040  -0.20    3.9
2024/11/12 05:14:20.900   34.744651209  137.764312220    41.0539   1  25   0.0036   0.0040   0.0080   0.0024  -0.0040  -0.0040  -0.10    3.9
2024/11/12 05:14:21.000   34.744651203  137.764312241    41.0519   1  25   0.0036   0.0040   0.0080   0.0024  -0.0040  -0.0040  -0.00    3.9
2024/11/12 05:14:21.100   34.744651203  137.764312228    41.0529   1  25   0.0036   0.0040   0.0080   0.0024  -0.0040  -0.0040   0.10    3.8
2024/11/12 05:14:21.200   34.744651206  137.764312224    41.0535   1  25   0.0036   0.0040   0.0080   0.0024  -0.0040  -0.0040   0.20    3.8
2024/11/12 05:14:21.300   34.744651190  137.764312216    41.0558   1  25   0.0036   0.0040   0.0080   0.0024  -0.0040  -0.0040   0.30    3.8
2024/11/12 05:14:21.400   34.744651201  137.764312224    41.0545   1  25   0.0036   0.0040   0.0080   0.0024  -0.0040  -0.0040   0.40    3.8
2024/11/12 05:14:21.500   34.744651194  137.764312235    41.0535   1  25   0.0036   0.0040   0.0080   0.0024  -0.0040  -0.0040   0.50    3.8
2024/11/12 05:14:21.600   34.744651211  137.764312200    41.0534   1  25   0.0036   0.0040   0.0080   0.0024  -0.0040  -0.0040  -0.40    3.8
2024/11/12 05:14:21.700   34.744651211  137.764312249    41.0492   1  25   0.0036   0.0040   0.0080   0.0024  -0.0040  -0.0040  -0.30    3.8
2024/11/12 05:14:21.800   34.744651209  137.764312230    41.0499   1  25   0.0036   0.0040   0.0080   0.0024  -0.0040  -0.0040  -0.20    3.8
2024/11/12 05:14:21.900   34.744651201  137.764312221    41.0526   1  25   0.0036   0.0040   0.0080   0.0024  -0.0040  -0.0040  -0.10    3.8
2024/11/12 05:14:22.000   34.744651195  137.764312218    41.0531   1  25   0.0036   0.0040   0.0080   0.0024  -0.0040  -0.0040  -0.00    3.8
2024/11/12 05:14:22.100   34.744651198  137.764312210    41.0523   1  25   0.0036   0.0040   0.0080   0.0024  -0.0040  -0.0040   0.10    3.8
2024/11/12 05:14:22.200   34.744651194  137.764312213    41.0548   1  25   0.0036   0.0040   0.0080   0.0024  -0.0040  -0.0040   0.20    3.8
2024/11/12 05:14:22.300   34.744651208  137.764312216    41.0543   1  25   0.0036   0.0040   0.0080   0.0024  -0.0040  -0.0040   0.30    3.8
2024/11/12 05:14:22.400   34.744651193  137.764312219    41.0539   1  25   0.0036   0.0040   0.0080   0.0024  -0.0040  -0.0040   0.40    3.8
2024/11/12 05:14:22.500   34.744651190  137.764312195    41.0571   1  25   0.0036   0.0040   0.0080   0.0024  -0.0040  -0.0040   0.50    3.8
2024/11/12 05:14:22.600   34.744651206  137.764312208    41.0567   1  25   0.0036   0.0040   0.0080   0.0024  -0.0040  -0.0040  -0.40    3.7
2024/11/12 05:14:22.700   34.744651208  137.764312216    41.0558   1  25   0.0036   0.0040   0.0080   0.0024  -0.0040  -0.0040  -0.30    3.7
2024/11/12 05:14:22.800   34.744651197  137.764312205    41.0538   1  25   0.0036   0.0040   0.0080   0.0024  -0.0040  -0.0040  -0.20    3.7
2024/11/12 05:14:22.900   34.744651209  137.764312205    41.0532   1  25   0.0036   0.0040   0.0080   0.0024  -0.0040  -0.0040  -0.10    3.7
2024/11/12 05:14:23.000   34.744651214  137.764312214    41.0514   1  25   0.0036   0.0040   0.0080   0.0024  -0.0040  -0.0040  -0.00    3.7
2024/11/12 05:14:23.100   34.744651197  137.764312199    41.0535   1  25   0.0036   0.0040   0.0080   0.0024  -0.0040  -0.0040   0.10    3.7
2024/11/12 05:14:23.200   34.744651205  137.764312218    41.0528   1  25   0.0036   0.0040   0.0080   0.0024  -0.0040  -0.0040   0.20    3.7
2024/11/12 05:14:23.300   34.744651207  137.764312197    41.0544   1  25   0.0036   0.0040   0.0080   0.0024  -0.0040  -0.0040   0.30    3.7
2024/11/12 05:14:23.400   34.744651190  137.764312211    41.0554   1  25   0.0036   0.0040   0.0080   0.0024  -0.0040  -0.0040   0.40    3.7
2024/11/12 05:14:23.500   34.744651195  137.764312218    41.0534   1  25   0.0036   0.0040   0.0080   0.0024  -0.0040  -0.0040   0.50    3.7
2024/11/12 05:14:23.600   34.744651198  137.764312201    41.0542   1  25   0.0036   0.0040   0.0080   0.0024  -0.0040  -0.0040  -0.40    3.7
2024/11/12 05:14:23.700   34.744651206  137.764312212    41.0531   1  25   0.0036   0.0040   0.0080   0.0024  -0.0040  -0.0040  -0.30    3.7
2024/11/12 05:14:23.800   34.744651201  137.764312224    41.0514   1  25   0.0036   0.0040   0.0080   0.0024  -0.0040  -0.0040  -0.20    3.7
2024/11/12 05:14:23.900   34.744651194  137.764312195    41.0554   1  25   0.0036   0.0040   0.0080   0.0024  -0.0040  -0.0040  -0.10    3.7
2024/11/12 05:14:24.000   34.744651194  137.764312193    41.0566   1  25   0.0036   0.0040   0.0080   0.0024  -0.0040  -0.0040  -0.00    3.6
2024/11/12 05:14:24.100   34.744651192  137.764312197    41.0564   1  25   0.0036   0.0040   0.0080   0.0024  -0.0040  -0.0040   0.10    3.6
2024/11/12 05:14:24.200   34.744651186  137.764312215    41.0556   1  25   0.0036   0.0040   0.0080   0.0024  -0.0040  -0.0040   0.20    3.6
2024/11/12 05:14:24.300   34.744651183  137.764312198    41.0558   1  25   0.0036   0.0040   0.0080   0.0024  -0.0040  -0.0040   0.30    3.6
2024/11/12 05:14:24.400   34.744651189  137.764312200    41.0561   1  25   0.0036   0.0040   0.0080   0.0024  -0.0040  -0.0040   0.40    3.6
2024/11/12 05:14:24.500   34.744651186  137.764312205    41.0556   1  25   0.0036   0.0040   0.0080   0.0024  -0.0040  -0.0040   0.50    3.6
2024/11/12 05:14:24.600   34.744651207  137.764312229    41.0504   1  25   0.0036   0.0040   0.0080   0.0024  -0.0040  -0.0040  -0.40    3.6
2024/11/12 05:14:24.700   34.744651203  137.764312234    41.0531   1  25   0.0036   0.0040   0.0080   0.0024  -0.0040  -0.0040  -0.30    3.6
2024/11/12 05:14:24.800   34.744651203  137.764312224    41.0535   1  25   0.0036   0.0040   0.0080   0.0024  -0.0040  -0.0040  -0.20    3.6
2024/11/12 05:14:24.900   34.744651199  137.764312236    41.0529   1  25   0.0036   0.0040   0.0080   0.0024  -0.0040  -0.0040  -0.10    3.6
2024/11/12 05:14:25.000   34.744651198  137.764312229    41.0524   1  25   0.0036   0.0040   0.0080   0.0024  -0.0040  -0.0040  -0.00    3.6
2024/11/12 05:14:25.100   34.744651198  137.764312226    41.0531   1  25   0.0036   0.0040   0.0080   0.0024  -0.0040  -0.0040   0.10    3.6
2024/11/12 05:14:25.200   34.744651204  137.764312225    41.0519   1  25   0.0036   0.0040   0.0080   0.0024  -0.0040  -0.0040   0.20    3.6
2024/11/12 05:14:25.300   34.744651193  137.764312222    41.0534   1  25   0.0036   0.0040   0.0080   0.0024  -0.0040  -0.0040   0.30    3.6
2024/11/12 05:14:25.400   34.744651193  137.764312215    41.0541   1  25   0.0036   0.0040   0.0080   0.0024  -0.0040  -0.0040   0.40    3.5
2024/11/12 05:14:25.500   34.744651197  137.764312228    41.0513   1  25   0.0036   0.0040   0.0080   0.0024  -0.0040  -0.0040   0.50    3.5
2024/11/12 05:14:25.600   34.744651195  137.764312208    41.0514   1  25   0.0036   0.0040   0.0080   0.0024  -0.0040  -0.0040  -0.40    3.5
2024/11/12 05:14:25.700   34.744651196  137.764312206    41.0527   1  25   0.0036   0.0040   0.0080   0.0024  -0.0040  -0.0040  -0.30    3.5
2024/11/12 05:14:25.800   34.744651195  137.764312198    41.0544   1  25   0.0036   0.0040   0.0080   0.0024  -0.0040  -0.0040  -0.20    3.5
2024/11/12 05:14:25.900   34.744651190  137.764312213    41.0550   1  25   0.0036   0.0040   0.0080   0.0024  -0.0040  -0.0040  -0.10    3.5
2024/11/12 05:14:26.000   34.744651195  137.764312196    41.0559   1  25   0.0036   0.0040   0.0080   0.0024  -0.0040  -0.0040  -0.00    3.5
2024/11/12 05:14:26.100   34.744651196  137.764312200    41.0548   1  25   0.0036   0.0040   0.0080   0.0024  -0.0040  -0.0040   0.10    3.5
2024/11/12 05:14:26.200   34.744651204  137.764312205    41.0536   1  25   0.0036   0.0040   0.0080   0.0024  -0.0040  -0.0040   0.20    3.5
2024/11/12 05:14:26.300   34.744651203  137.764312201    41.0536   1  25   0.0036   0.0040   0.0080   0.0024  -0.0040  -0.0040   0.30    3.5
2024/11/12 05:14:26.400   34.744651194  137.764312212    41.0531   1  25   0.0036   0.0040   0.0080   0.0024  -0.0040  -0.0040   0.40    3.5
2024/11/12 05:14:26.500   34.744651195  137.764312199    41.0546   1  25   0.0036   0.0040   0.0080   0.0024  -0.0040  -0.0040   0.50    3.5
2024/11/12 05:14:26.600   34.744651202  137.764312209    41.0545   1  25   0.0036   0.0040   0.0080   0.0024  -0.0040  -0.0040  -0.40    3.5
2024/11/12 05:14:26.700   34.744651191  137.764312214    41.0560   1  25   0.0036   0.0040   0.0080   0.0024  -0.0040  -0.0040  -0.30    3.5
2024/11/12 05:14:26.800   34.744651199  137.764312234    41.0529   1  25   0.0036   0.0040   0.0080   0.0024  -0.0040  -0.0040  -0.20    3.4
2024/11/12 05:14:26.900   34.744651201  137.764312214    41.0524   1  25   0.0036   0.0040   0.0080   0.0024  -0.0040  -0.0040  -0.10    3.4
2024/11/12 05:14:27.000   34.744651192  137.764312240    41.0521   1  25   0.0036   0.0040   0.0080   0.0024  -0.0040  -0.0040  -0.00    3.4
2024/11/12 05:14:27.100   34.744651188  137.764312217    41.0541   1  25   0.0036   0.0040   0.0080   0.0024  -0.0040  -0.0040   0.10    3.4
2024/11/12 05:14:27.200   34.744651202  137.764312217    41.0545   1  25   0.0036   0.0040   0.0080   0.0024  -0.0040  -0.0040   0.20    3.4
2024/11/12 05:14:27.300   34.744651189  137.764312216    41.0550   1  25   0.0036   0.0040   0.0080   0.0024  -0.0040  -0.0040   0.30    3.4
2024/11/12 05:14:27.400   34.744651184  137.764312208    41.0547   1  25   0.0036   0.0040   0.0080   0.0024  -0.0040  -0.0040   0.40    3.4
2024/11/12 05:14:27.500   34.744651186  137.764312217    41.0545   1  25   0.0036   0.0040   0.0080   0.0024  -0.0040  -0.0040   0.50    3.4
2024/11/12 05:14:27.600   34.744651201  137.764312208    41.0522   1  25   0.0036   0.0040   0.0080   0.0024  -0.0040  -0.0040  -0.40    3.4
2024/11/12 05:14:27.700   34.744651200  137.764312189    41.0537   1  25   0.0036   0.0040   0.0080   0.0024  -0.0040  -0.0040  -0.30    3.4
2024/11/12 05:14:27.800   34.744651193  137.764312205    41.0540   1  25   0.0036   0.0040   0.0080   0.0024  -0.0040  -0.0040  -0.20    3.4
2024/11/12 05:14:27.900   34.744651201  137.764312224    41.0513   1  25   0.0036   0.0040   0.0080   0.0024  -0.0040  -0.0040  -0.10    3.4
2024/11/12 05:14:28.000   34.744651199  137.764312216    41.0530   1  25   0.0036   0.0040   0.0080   0.0024  -0.0040  -0.0040  -0.00    3.4
2024/11/12 05:14:28.100   34.744651186  137.764312194    41.0542   1  25   0.0036   0.0040   0.0080   0.0024  -0.0040  -0.0040   0.10    3.3
2024/11/12 05:14:28.200   34.744651201  137.764312193    41.0536   1  25   0.0036   0.0040   0.0080   0.0024  -0.0040  -0.0040   0.20    3.3
2024/11/12 05:14:28.300   34.744651190  137.764312205    41.0543   1  25   0.0036   0.0040   0.0080   0.0024  -0.0040  -0.0040   0.30    3.3
2024/11/12 05:14:28.400   34.744651175  137.764312203    41.0548   1  25   0.0036   0.0040   0.0080   0.0024  -0.0040  -0.0040   0.40    3.3
2024/11/12 05:14:28.500   34.744651194  137.764312211    41.0506   1  25   0.0036   0.0041   0.0080   0.0024  -0.0040  -0.0040   0.50    3.3
2024/11/12 05:14:28.600   34.744651216  137.764312253    41.0497   1  25   0.0036   0.0040   0.0080   0.0024  -0.0040  -0.0040  -0.40    3.3
2024/11/12 05:14:28.700   34.744651216  137.764312231    41.0525   1  25   0.0036   0.0040   0.0080   0.0024  -0.0040  -0.0040  -0.30    3.3
2024/11/12 05:14:28.800   34.744651207  137.764312225    41.0545   1  25   0.0036   0.0040   0.0080   0.0024  -0.0040  -0.0040  -0.20    3.3
2024/11/12 05:14:28.900   34.744651200  137.764312229    41.0538   1  25   0.0036   0.0040   0.0080   0.0024  -0.0040  -0.0040  -0.10    3.3
2024/11/12 05:14:29.000   34.744651215  137.764312228    41.0557   1  25   0.0036   0.0040   0.0080   0.0024  -0.0040  -0.0040  -0.00    3.3
2024/11/12 05:14:29.100   34.744651194  137.764312247    41.0569   1  25   0.0036   0.0040   0.0080   0.0024  -0.0040  -0.0040   0.10    3.3
2024/11/12 05:14:29.200   34.744651197  137.764312242    41.0552   1  25   0.0036   0.0041   0.0080   0.0024  -0.0040  -0.0040   0.20    3.3
2024/11/12 05:14:29.300   34.744651185  137.764312236    41.0572   1  25   0.0036   0.0041   0.0080   0.0025  -0.0040  -0.0040   0.30    3.3
2024/11/12 05:14:29.400   34.744651191  137.764312229    41.0568   1  25   0.0037   0.0041   0.0080   0.0025  -0.0040  -0.0040   0.40    3.2
2024/11/12 05:14:29.500   34.744651188  137.764312261    41.0586   1  25   0.0037   0.0041   0.0080   0.0025  -0.0040  -0.0040   0.50    3.2
2024/11/12 05:14:29.600   34.744651210  137.764312260    41.0567   1  25   0.0037   0.0041   0.0080   0.0025  -0.0040  -0.0040  -0.40    3.2
2024/11/12 05:14:29.700   34.744651208  137.764312224    41.0529   1  25   0.0037   0.0041   0.0080   0.0025  -0.0040  -0.0040  -0.30    3.2
2024/11/12 05:14:29.800   34.744651204  137.764312257    41.0532   1  25   0.0037   0.0041   0.0080   0.0025  -0.0040  -0.0040  -0.20    3.2
2024/11/12 05:14:29.900   34.744651199  137.764312223    41.0516   1  25   0.0037   0.0042   0.0080   0.0026  -0.0040  -0.0040  -0.10    3.2
2024/11/12 05:14:30.000   34.744651194  137.764312224    41.0524   1  25   0.0038   0.0043   0.0080   0.0027  -0.0040  -0.0040  -0.00    3.2
2024/11/12 05:14:30.100   34.744651198  137.764312178    41.0610   1  25   0.0037   0.0042   0.0080   0.0026  -0.0040  -0.0040   0.10    3.2
2024/11/12 05:14:30.200   34.744651228  137.764312291    41.0539   1  24   0.0037   0.0042   0.0080   0.0026  -0.0040  -0.0039   0.20    3.2
2024/11/12 05:14:30.300   34.744651260  137.764312254    41.0570   1  24   0.0039   0.0044   0.0080   0.0028  -0.0039  -0.0039   0.30    3.2
2024/11/12 05:14:30.400   34.744651264  137.764312259    41.0599   1  24   0.0040   0.0044   0.0080   0.0029  -0.0039  -0.0039   0.40    5.5
2024/11/12 05:14:30.500   34.744651430  137.764312495    41.0614   1  25   0.0037   0.0041   0.0080   0.0025  -0.0040  -0.0039   0.50    5.6
2024/11/12 05:14:30.600   34.744651385  137.764312430    41.0649   1  24   0.0037   0.0041   0.0080   0.0025  -0.0039  -0.0039  -0.40    5.6
2024/11/12 05:14:30.700   34.744651312  137.764312313    41.0676   1  24   0.0037   0.0040   0.0080   0.0025  -0.0039  -0.0039  -0.30    5.6
2024/11/12 05:14:30.800   34.744651270  137.764312260    41.0680   1  24   0.0037   0.0040   0.0080   0.0025  -0.0039  -0.0039  -0.20    5.6
2024/11/12 05:14:30.900   34.744651242  137.764312243    41.0680   1  25   0.0037   0.0040   0.0080   0.0024  -0.0040  -0.0040  -0.10    5.6
2024/11/12 05:14:31.000   34.744651229  137.764312231    41.0655   1  25   0.0037   0.0040   0.0080   0.0024  -0.0039  -0.0039  -0.00    5.6
2024/11/12 05:14:31.100   34.744651209  137.764312206    41.0607   1  24   0.0037   0.0041   0.0080   0.0025  -0.0039  -0.0039   0.10    5.5
2024/11/12 05:14:31.200   34.744651215  137.764312233    41.0567   1  24   0.0037   0.0041   0.0080   0.0025  -0.0039  -0.0039   0.20    5.5
2024/11/12 05:14:31.300   34.744651198  137.764312243    41.0534   1  24   0.0037   0.0041   0.0081   0.0024  -0.0040  -0.0039   0.30   10.1
2024/11/12 05:14:31.400   34.744651207  137.764312229    41.0560   1  24   0.0036   0.0040   0.0081   0.0024  -0.0040  -0.0040   0.40    9.1
2024/11/12 05:14:31.500   34.744651210  137.764312230    41.0551   1  24   0.0036   0.0040   0.0081   0.0024  -0.0040  -0.0040   0.50    9.0
2024/11/12 05:14:31.600   34.744651239  137.764312268    41.0511   1  25   0.0036   0.0040   0.0080   0.0024  -0.0040  -0.0040  -0.40    5.3
2024/11/12 05:14:31.700   34.744651226  137.764312234    41.0534   1  25   0.0036   0.0040   0.0080   0.0024  -0.0040  -0.0040  -0.30    5.2
2024/11/12 05:14:31.800   34.744651215  137.764312237    41.0569   1  25   0.0036   0.0040   0.0080   0.0024  -0.0040  -0.0040  -0.20    5.2
2024/11/12 05:14:31.900   34.744651215  137.764312247    41.0553   1  25   0.0036   0.0040   0.0080   0.0024  -0.0040  -0.0040  -0.10    5.2
2024/11/12 05:14:32.000   34.744651210  137.764312250    41.0581   1  25   0.0036   0.0040   0.0080   0.0024  -0.0040  -0.0040  -0.00    5.2
2024/11/12 05:14:32.100   34.744651223  137.764312263    41.0572   1  25   0.0037   0.0040   0.0080   0.0024  -0.0040  -0.0040   0.10    5.2
2024/11/12 05:14:32.200   34.744651227  137.764312251    41.0578   1  25   0.0037   0.0040   0.0080   0.0024  -0.0040  -0.0039   0.20    5.2
2024/11/12 05:14:32.300   34.744651224  137.764312241    41.0586   1  25   0.0036   0.0040   0.0080   0.0024  -0.0040  -0.0040   0.30    5.3
2024/11/12 05:14:32.400   34.744651231  137.764312232    41.0584   1  25   0.0036   0.0040   0.0080   0.0024  -0.0040  -0.0040   0.40    5.0
2024/11/12 05:14:32.500   34.744651226  137.764312225    41.0580   1  25   0.0036   0.0040   0.0080   0.0024  -0.0040  -0.0040   0.50    5.0
2024/11/12 05:14:32.600   34.744651235  137.764312230    41.0560   1  25   0.0036   0.0040   0.0080   0.0024  -0.0040  -0.0040  -0.40    5.0
2024/11/12 05:14:32.700   34.744651237  137.764312241    41.0559   1  25   0.0036   0.0040   0.0080   0.0024  -0.0040  -0.0040  -0.30    5.0
2024/11/12 05:14:32.800   34.744651240  137.764312263    41.0519   1  25   0.0036   0.0040   0.0080   0.0024  -0.0040  -0.0040  -0.20    5.0
2024/11/12 05:14:32.900   34.744651243  137.764312277    41.0511   1  25   0.0036   0.0040   0.0080   0.0024  -0.0040  -0.0040  -0.10    5.0
2024/11/12 05:14:33.000   34.744651233  137.764312249    41.0555   1  25   0.0036   0.0040   0.0080   0.0024  -0.0040  -0.0040  -0.00    5.0
2024/11/12 05:14:33.100   34.744651230  137.764312268    41.0526   1  25   0.0036   0.0040   0.0080   0.0024  -0.0040  -0.0040   0.10    5.0
2024/11/12 05:14:33.200   34.744651226  137.764312250    41.0553   1  25   0.0036   0.0040   0.0080   0.0024  -0.0040  -0.0040   0.20    5.0
2024/11/12 05:14:33.300   34.744651234  137.764312241    41.0569   1  25   0.0036   0.0040   0.0080   0.0024  -0.0040  -0.0040   0.30    5.0
2024/11/12 05:14:33.400   34.744651217  137.764312248    41.0579   1  25   0.0036   0.0040   0.0080   0.0024  -0.0040  -0.0040   0.40    5.0
2024/11/12 05:14:33.500   34.744651202  137.764312227    41.0596   1  25   0.0036   0.0040   0.0080   0.0024  -0.0040  -0.0040   0.50    5.0
2024/11/12 05:14:33.600   34.744651223  137.764312241    41.0575   1  25   0.0036   0.0040   0.0080   0.0024  -0.0040  -0.0040  -0.40    5.0
2024/11/12 05:14:33.700   34.744651214  137.764312230    41.0596   1  25   0.0036   0.0040   0.0080   0.0024  -0.0040  -0.0040  -0.30    5.0
2024/11/12 05:14:33.800   34.744651224  137.764312244    41.0587   1  25   0.0036   0.0040   0.0080   0.0024  -0.0040  -0.0040  -0.20    4.9
2024/11/12 05:14:33.900   34.744651218  137.764312241    41.0589   1  25   0.0036   0.0040   0.0080   0.0024  -0.0040  -0.0040  -0.10    4.9
2024/11/12 05:14:34.000   34.744651210  137.764312237    41.0600   1  25   0.0036   0.0040   0.0080   0.0024  -0.0040  -0.0040  -0.00    4.9
2024/11/12 05:14:34.100   34.744651211  137.764312229    41.0601   1  25   0.0036   0.0040   0.0080   0.0024  -0.0040  -0.0040   0.10    4.9
2024/11/12 05:14:34.200   34.744651213  137.764312230    41.0577   1  25   0.0036   0.0040   0.0080   0.0024  -0.0040  -0.0040   0.20    4.9
2024/11/12 05:14:34.300   34.744651210  137.764312243    41.0573   1  25   0.0036   0.0040   0.0080   0.0024  -0.0040  -0.0040   0.30    4.9
2024/11/12 05:14:34.400   34.744651208  137.764312222    41.0608   1  25   0.0036   0.0040   0.0080   0.0024  -0.0040  -0.0040   0.40    4.9
2024/11/12 05:14:34.500   34.744651218  137.764312246    41.0575   1  25   0.0036   0.0040   0.0080   0.0024  -0.0040  -0.0040   0.50    4.9
2024/11/12 05:14:34.600   34.744651229  137.764312234    41.0558   1  25   0.0036   0.0040   0.0080   0.0024  -0.0040  -0.0040  -0.40    4.9
2024/11/12 05:14:34.700   34.744651228  137.764312226    41.0574   1  25   0.0036   0.0040   0.0080   0.0024  -0.0040  -0.0040  -0.30    4.9
2024/11/12 05:14:34.800   34.744651220  137.764312226    41.0581   1  25   0.0036   0.0040   0.0080   0.0024  -0.0040  -0.0040  -0.20    4.9
2024/11/12 05:14:34.900   34.744651222  137.764312244    41.0562   1  25   0.0036   0.0040   0.0080   0.0024  -0.0040  -0.0040  -0.10    4.9
2024/11/12 05:14:35.000   34.744651225  137.764312240    41.0579   1  25   0.0036   0.0040   0.0080   0.0024  -0.0040  -0.0040  -0.00    4.9
2024/11/12 05:14:35.100   34.744651220  137.764312228    41.0575   1  25   0.0036   0.0040   0.0080   0.0024  -0.0040  -0.0040   0.10    4.9
2024/11/12 05:14:35.200   34.744651218  137.764312252    41.0577   1  25   0.0036   0.0040   0.0080   0.0024  -0.0040  -0.0040   0.20    4.9
2024/11/12 05:14:35.300   34.744651216  137.764312243    41.0582   1  25   0.0036   0.0040   0.0080   0.0024  -0.0040  -0.0040   0.30    4.9
2024/11/12 05:14:35.400   34.744651215  137.764312237    41.0578   1  25   0.0036   0.0040   0.0080   0.0024  -0.0040  -0.0040   0.40    4.9
2024/11/12 05:14:35.500   34.744651213  137.764312241    41.0577   1  25   0.0036   0.0040   0.0080   0.0024  -0.0040  -0.0040   0.50    4.9
2024/11/12 05:14:35.600   34.744651241  137.764312250    41.0523   1  25   0.0036   0.0040   0.0080   0.0024  -0.0040  -0.0040  -0.40    4.9
2024/11/12 05:14:35.700   34.744651238  137.764312260    41.0540   1  25   0.0036   0.0040   0.0080   0.0024  -0.0040  -0.0040  -0.30    4.9
2024/11/12 05:14:35.800   34.744651240  137.764312251    41.0550   1  25   0.0036   0.0040   0.0080   0.0024  -0.0040  -0.0040  -0.20    4.9
2024/11/12 05:14:35.900   34.744651231  137.764312250    41.0542   1  25   0.0036   0.0040   0.0080   0.0024  -0.0040  -0.0040  -0.10    4.9
2024/11/12 05:14:36.000   34.744651228  137.764312262    41.0550   1  25   0.0036   0.0041   0.0080   0.0024  -0.0040  -0.0040  -0.00    4.9
2024/11/12 05:14:36.100   34.744651225  137.764312246    41.0567   1  25   0.0036   0.0041   0.0080   0.0024  -0.0040  -0.0040   0.10    4.9
2024/11/12 05:14:36.200   34.744651223  137.764312246    41.0568   1  25   0.0036   0.0041   0.0080   0.0025  -0.0040  -0.0040   0.20    4.9
2024/11/12 05:14:36.300   34.744651222  137.764312244    41.0568   1  25   0.0036   0.0041   0.0080   0.0025  -0.0040  -0.0040   0.30    4.9
2024/11/12 05:14:36.400   34.744651227  137.764312270    41.0520   1  25   0.0037   0.0042   0.0080   0.0026  -0.0040  -0.0040   0.40    4.9
2024/11/12 05:14:36.500   34.744651222  137.764312238    41.0583   1  25   0.0037   0.0043   0.0080   0.0027  -0.0040  -0.0040   0.50    4.9
2024/11/12 05:14:36.600   34.744651228  137.764312246    41.0571   1  25   0.0037   0.0041   0.0080   0.0025  -0.0040  -0.0040  -0.40    4.9
2024/11/12 05:14:36.700   34.744651239  137.764312272    41.0537   1  25   0.0036   0.0040   0.0080   0.0024  -0.0040  -0.0040  -0.30    4.9
2024/11/12 05:14:36.800   34.744651227  137.764312265    41.0535   1  25   0.0036   0.0040   0.0080   0.0024  -0.0040  -0.0040  -0.20    4.9
2024/11/12 05:14:36.900   34.744651222  137.764312223    41.0584   1  25   0.0036   0.0040   0.0080   0.0024  -0.0040  -0.0040  -0.10    4.9
2024/11/12 05:14:37.000   34.744651217  137.764312238    41.0572   1  25   0.0036   0.0040   0.0080   0.0024  -0.0040  -0.0040  -0.00    4.9
2024/11/12 05:14:37.100   34.744651228  137.764312255    41.0559   1  25   0.0036   0.0040   0.0080   0.0024  -0.0040  -0.0040   0.10    4.9
2024/11/12 05:14:37.200   34.744651222  137.764312241    41.0571   1  25   0.0036   0.0040   0.0080   0.0024  -0.0040  -0.0040   0.20    4.9
2024/11/12 05:14:37.300   34.744651209  137.764312219    41.0584   1  25   0.0036   0.0040   0.0080   0.0024  -0.0040  -0.0040   0.30    4.9
2024/11/12 05:14:37.400   34.744651212  137.764312228    41.0580   1  25   0.0036   0.0040   0.0080   0.0024  -0.0040  -0.0040   0.40    4.9
2024/11/12 05:14:37.500   34.744651220  137.764312256    41.0579   1  25   0.0036   0.0040   0.0080   0.0024  -0.0040  -0.0040   0.50    4.9
2024/11/12 05:14:37.600   34.744651229  137.764312249    41.0536   1  25   0.0036   0.0040   0.0080   0.0024  -0.0040  -0.0040  -0.40    4.9
2024/11/12 05:14:37.700   34.744651215  137.764312223    41.0576   1  25   0.0036   0.0040   0.0080   0.0024  -0.0040  -0.0040  -0.30    4.9
2024/11/12 05:14:37.800   34.744651229  137.764312241    41.0577   1  25   0.0036   0.0040   0.0080   0.0024  -0.0040  -0.0040  -0.20    4.9
2024/11/12 05:14:37.900   34.744651223  137.764312216    41.0577   1  25   0.0036   0.0040   0.0080   0.0024  -0.0040  -0.0040  -0.10    4.9
2024/11/12 05:14:38.000   34.744651234  137.764312223    41.0549   1  25   0.0036   0.0040   0.0080   0.0024  -0.0040  -0.0040  -0.00    4.9
2024/11/12 05:14:38.100   34.744651221  137.764312222    41.0570   1  25   0.0036   0.0040   0.0080   0.0024  -0.0040  -0.0040   0.10    4.9
2024/11/12 05:14:38.200   34.744651231  137.764312215    41.0585   1  25   0.0036   0.0040   0.0080   0.0024  -0.0040  -0.0040   0.20    4.9
2024/11/12 05:14:38.300   34.744651220  137.764312192    41.0627   1  25   0.0036   0.0040   0.0080   0.0024  -0.0040  -0.0040   0.30    4.8
2024/11/12 05:14:38.400   34.744651211  137.764312192    41.0619   1  25   0.0036   0.0040   0.0080   0.0024  -0.0040  -0.0040   0.40    4.8
2024/11/12 05:14:38.500   34.744651215  137.764312195    41.0601   1  25   0.0036   0.0040   0.0080   0.0024  -0.0040  -0.0040   0.50    4.8
2024/11/12 05:14:38.600   34.744651240  137.764312217    41.0559   1  25   0.0036   0.0040   0.0080   0.0024  -0.0040  -0.0040  -0.40    4.8
2024/11/12 05:14:38.700   34.744651240  137.764312206    41.0563   1  25   0.0036   0.0040   0.0080   0.0024  -0.0040  -0.0040  -0.30    4.8
2024/11/12 05:14:38.800   34.744651230  137.764312195    41.0592   1  25   0.0036   0.0040   0.0080   0.0024  -0.0040  -0.0040  -0.20    4.8
2024/11/12 05:14:38.900   34.744651242  137.764312197    41.0566   1  25   0.0036   0.0040   0.0080   0.0024  -0.0040  -0.0040  -0.10    4.8
2024/11/12 05:14:39.000   34.744651243  137.764312183    41.0587   1  25   0.0036   0.0040   0.0080   0.0024  -0.0040  -0.0040  -0.00    4.8
2024/11/12 05:14:39.100   34.744651221  137.764312174    41.0609   1  25   0.0036   0.0040   0.0080   0.0024  -0.0040  -0.0040   0.10    4.8
2024/11/12 05:14:39.200   34.744651229  137.764312195    41.0587   1  25   0.0036   0.0040   0.0080   0.0024  -0.0040  -0.0040   0.20    4.8
2024/11/12 05:14:39.300   34.744651233  137.764312169    41.0603   1  25   0.0036   0.0040   0.0080   0.0024  -0.0040  -0.0040   0.30    4.8
2024/11/12 05:14:39.400   34.744651238  137.764312178    41.0590   1  25   0.0036   0.0040   0.0080   0.0024  -0.0040  -0.0040   0.40    4.8
2024/11/12 05:14:39.500   34.744651228  137.764312182    41.0583   1  25   0.0036   0.0040   0.0080   0.0024  -0.0040  -0.0040   0.50    4.8
2024/11/12 05:14:39.600   34.744651233  137.764312180    41.0600   1  25   0.0036   0.0040   0.0080   0.0024  -0.0040  -0.0040  -0.40    4.8
2024/11/12 05:14:39.700   34.744651227  137.764312182    41.0622   1  25   0.0036   0.0040   0.0080   0.0024  -0.0040  -0.0040  -0.30    4.8
2024/11/12 05:14:39.800   34.744651218  137.764312199    41.0611   1  25   0.0036   0.0040   0.0080   0.0024  -0.0040  -0.0040  -0.20    4.8
2024/11/12 05:14:39.900   34.744651219  137.764312151    41.0672   1  25   0.0036   0.0040   0.0080   0.0024  -0.0040  -0.0040  -0.10    4.8
2024/11/12 05:14:40.000   34.744651245  137.764312170    41.0692   1  25   0.0036   0.0040   0.0080   0.0024  -0.0040  -0.0040  -0.00    4.8
2024/11/12 05:14:40.100   34.744651210  137.764312178    41.0654   1  25   0.0036   0.0040   0.0080   0.0024  -0.0040  -0.0040   0.10    4.8
2024/11/12 05:14:40.200   34.744651211  137.764312159    41.0654   1  25   0.0036   0.0040   0.0080   0.0024  -0.0040  -0.0040   0.20    4.8
2024/11/12 05:14:40.300   34.744651221  137.764312142    41.0667   1  25   0.0036   0.0040   0.0080   0.0024  -0.0040  -0.0040   0.30    4.8
2024/11/12 05:14:40.400   34.744651193  137.764312157    41.0661   1  25   0.0036   0.0040   0.0080   0.0024  -0.0040  -0.0040   0.40    4.8
2024/11/12 05:14:40.500   34.744651183  137.764312147    41.0665   1  25   0.0036   0.0040   0.0080   0.0024  -0.0040  -0.0040   0.50    4.8
2024/11/12 05:14:40.600   34.744651216  137.764312173    41.0607   1  25   0.0036   0.0040   0.0080   0.0024  -0.0040  -0.0040  -0.40    4.8
2024/11/12 05:14:40.700   34.744651119  137.764312161    41.0603   1  25   0.0036   0.0040   0.0080   0.0024  -0.0040  -0.0040  -0.30    4.8
2024/11/12 05:14:40.800   34.744651045  137.764312140    41.0579   1  25   0.0036   0.0040   0.0080   0.0024  -0.0040  -0.0040  -0.20    4.8
2024/11/12 05:14:40.900   34.744650998  137.764312116    41.0561   1  25   0.0036   0.0040   0.0080   0.0024  -0.0040  -0.0040  -0.10    4.8
2024/11/12 05:14:41.000   34.744650955  137.764312166    41.0576   1  25   0.0036   0.0040   0.0080   0.0024  -0.0040  -0.0040  -0.00    4.8
2024/11/12 05:14:41.100   34.744650926  137.764312244    41.0572   1  25   0.0036   0.0040   0.0080   0.0024  -0.0040  -0.0040   0.10    4.8
2024/11/12 05:14:41.200   34.744650897  137.764312237    41.0602   1  25   0.0036   0.0040   0.0080   0.0024  -0.0040  -0.0040   0.20    4.8
2024/11/12 05:14:41.300   34.744650968  137.764312206    41.0611   1  25   0.0036   0.0040   0.0080   0.0024  -0.0040  -0.0040   0.30    4.8
2024/11/12 05:14:41.400   34.744651211  137.764312223    41.0604   1  25   0.0036   0.0040   0.0080   0.0024  -0.0040  -0.0040   0.40    4.8
2024/11/12 05:14:41.500   34.744651537  137.764312342    41.0572   1  25   0.0036   0.0040   0.0080   0.0024  -0.0040  -0.0040   0.50    4.8
2024/11/12 05:14:41.600   34.744651822  137.764312408    41.0572   1  25   0.0036   0.0040   0.0080   0.0024  -0.0040  -0.0040  -0.40    4.8
2024/11/12 05:14:41.700   34.744652125  137.764312398    41.0499   1  25   0.0036   0.0040   0.0080   0.0024  -0.0040  -0.0040  -0.30    4.8
2024/11/12 05:14:41.800   34.744652346  137.764312277    41.0478   1  25   0.0036   0.0040   0.0080   0.0024  -0.0040  -0.0040  -0.20    4.7
2024/11/12 05:14:41.900   34.744652502  137.764312219    41.0491   1  25   0.0036   0.0040   0.0080   0.0024  -0.0040  -0.0040  -0.10    4.7
2024/11/12 05:14:42.000   34.744652736  137.764312194    41.0441   1  25   0.0036   0.0040   0.0080   0.0024  -0.0040  -0.0040  -0.00    4.7
2024/11/12 05:14:42.100   34.744652930  137.764312107    41.0418   1  25   0.0036   0.0040   0.0080   0.0024  -0.0040  -0.0040   0.10    4.7
2024/11/12 05:14:42.200   34.744653132  137.764312054    41.0454   1  25   0.0036   0.0040   0.0080   0.0024  -0.0040  -0.0040   0.20    4.7
2024/11/12 05:14:42.300   34.744653314  137.764312054    41.0516   1  25   0.0036   0.0040   0.0080   0.0024  -0.0040  -0.0040   0.30    4.7
2024/11/12 05:14:42.400   34.744653414  137.764312015    41.0589   1  25   0.0036   0.0040   0.0080   0.0024  -0.0040  -0.0040   0.40    4.7
2024/11/12 05:14:42.500   34.744653506  137.764312015    41.0506   1  25   0.0036   0.0040   0.0080   0.0024  -0.0040  -0.0040   0.50    4.7
2024/11/12 05:14:42.600   34.744653582  137.764311965    41.0485   1  25   0.0036   0.0040   0.0080   0.0024  -0.0040  -0.0040  -0.40    4.7
2024/11/12 05:14:42.700   34.744653635  137.764311995    41.0464   1  25   0.0036   0.0040   0.0080   0.0024  -0.0040  -0.0040  -0.30    4.7
2024/11/12 05:14:42.800   34.744653674  137.764311982    41.0451   1  25   0.0036   0.0040   0.0080   0.0024  -0.0040  -0.0040  -0.20    4.7
2024/11/12 05:14:42.900   34.744653653  137.764311972    41.0472   1  25   0.0036   0.0040   0.0080   0.0024  -0.0040  -0.0040  -0.10    4.7
2024/11/12 05:14:43.000   34.744653650  137.764311976    41.0467   1  25   0.0036   0.0040   0.0080   0.0024  -0.0040  -0.0040  -0.00    4.7
2024/11/12 05:14:43.100   34.744653696  137.764311964    41.0478   1  25   0.0036   0.0040   0.0080   0.0024  -0.0040  -0.0040   0.10    4.7
2024/11/12 05:14:43.200   34.744653720  137.764312002    41.0471   1  25   0.0036   0.0040   0.0080   0.0024  -0.0040  -0.0040   0.20    4.7
2024/11/12 05:14:43.300   34.744653634  137.764312006    41.0500   1  25   0.0036   0.0040   0.0080   0.0024  -0.0040  -0.0040   0.30    4.7
2024/11/12 05:14:43.400   34.744653506  137.764311925    41.0517   1  25   0.0036   0.0040   0.0080   0.0024  -0.0040  -0.0040   0.40    4.7
2024/11/12 05:14:43.500   34.744653419  137.764311849    41.0425   1  25   0.0036   0.0040   0.0080   0.0024  -0.0040  -0.0040   0.50    4.7
2024/11/12 05:14:43.600   34.744653376  137.764311861    41.0359   1  25   0.0036   0.0040   0.0080   0.0024  -0.0040  -0.0040  -0.40    4.7
2024/11/12 05:14:43.700   34.744653323  137.764311957    41.0359   1  25   0.0036   0.0040   0.0080   0.0024  -0.0040  -0.0040  -0.30    4.7
2024/11/12 05:14:43.800   34.744653237  137.764312109    41.0385   1  25   0.0036   0.0040   0.0080   0.0024  -0.0040  -0.0040  -0.20    4.7
2024/11/12 05:14:43.900   34.744653140  137.764312250    41.0392   1  25   0.0036   0.0040   0.0080   0.0024  -0.0040  -0.0040  -0.10    4.7
2024/11/12 05:14:44.000   34.744653047  137.764312362    41.0397   1  25   0.0036   0.0040   0.0080   0.0024  -0.0040  -0.0040  -0.00    4.7
2024/11/12 05:14:44.100   34.744652947  137.764312434    41.0384   1  25   0.0036   0.0040   0.0080   0.0024  -0.0040  -0.0040   0.10    4.7
2024/11/12 05:14:44.200   34.744652898  137.764312470    41.0400   1  25   0.0036   0.0040   0.0080   0.0024  -0.0040  -0.0040   0.20    4.7
2024/11/12 05:14:44.300   34.744652863  137.764312502    41.0396   1  25   0.0036   0.0040   0.0080   0.0024  -0.0040  -0.0040   0.30    4.7
2024/11/12 05:14:44.400   34.744652834  137.764312501    41.0425   1  25   0.0036   0.0040   0.0080   0.0024  -0.0040  -0.0040   0.40    4.7
2024/11/12 05:14:44.500   34.744652837  137.764312488    41.0432   1  25   0.0036   0.0040   0.0080   0.0024  -0.0040  -0.0040   0.50    4.7
2024/11/12 05:14:44.600   34.744652860  137.764312469    41.0411   1  25   0.0036   0.0040   0.0080   0.0024  -0.0040  -0.0040  -0.40    4.7
2024/11/12 05:14:44.700   34.744652873  137.764312455    41.0439   1  25   0.0036   0.0040   0.0080   0.0024  -0.0040  -0.0040  -0.30    4.7
2024/11/12 05:14:44.800   34.744652891  137.764312429    41.0412   1  25   0.0036   0.0040   0.0080   0.0024  -0.0040  -0.0040  -0.20    4.7
2024/11/12 05:14:44.900   34.744652903  137.764312410    41.0410   1  25   0.0036   0.0040   0.0080   0.0024  -0.0040  -0.0040  -0.10    4.7
2024/11/12 05:14:45.000   34.744652913  137.764312400    41.0415   1  25   0.0036   0.0040   0.0080   0.0024  -0.0040  -0.0040  -0.00    4.7
2024/11/12 05:14:45.100   34.744652914  137.764312349    41.0430   1  25   0.0036   0.0040   0.0080   0.0024  -0.0040  -0.0040   0.10    4.7
2024/11/12 05:14:45.200   34.744652918  137.764312332    41.0420   1  25   0.0036   0.0040   0.0080   0.0024  -0.0040  -0.0040   0.20    4.7
2024/11/12 05:14:45.300   34.744652916  137.764312335    41.0429   1  25   0.0036   0.0040   0.0080   0.0024  -0.0040  -0.0040   0.30    4.7
2024/11/12 05:14:45.400   34.744652919  137.764312330    41.0406   1  25   0.0036   0.0040   0.0080   0.0024  -0.0040  -0.0040   0.40    4.7
2024/11/12 05:14:45.500   34.744652949  137.764312322    41.0429   1  25   0.0036   0.0040   0.0080   0.0024  -0.0040  -0.0040   0.50    4.7
2024/11/12 05:14:45.600   34.744653013  137.764312359    41.0350   1  25   0.0036   0.0040   0.0080   0.0024  -0.0040  -0.0040  -0.40    4.7
2024/11/12 05:14:45.700   34.744653070  137.764312327    41.0337   1  25   0.0036   0.0040   0.0080   0.0024  -0.0040  -0.0040  -0.30    4.7
2024/11/12 05:14:45.800   34.744653113  137.764312232    41.0410   1  25   0.0036   0.0040   0.0080   0.0024  -0.0040  -0.0040  -0.20    4.7
2024/11/12 05:14:45.900   34.744653193  137.764312177    41.0420   1  25   0.0036   0.0040   0.0080   0.0024  -0.0040  -0.0040  -0.10    4.7
2024/11/12 05:14:46.000   34.744653268  137.764312135    41.0411   1  25   0.0036   0.0040   0.0080   0.0024  -0.0040  -0.0040  -0.00    4.7
2024/11/12 05:14:46.100   34.744653314  137.764312107    41.0465   1  25   0.0036   0.0040   0.0080   0.0024  -0.0040  -0.0040   0.10    4.7
2024/11/12 05:14:46.200   34.744653378  137.764312088    41.0482   1  25   0.0036   0.0040   0.0080   0.0024  -0.0040  -0.0040   0.20    4.7
2024/11/12 05:14:46.300   34.744653422  137.764312073    41.0480   1  25   0.0036   0.0040   0.0080   0.0024  -0.0040  -0.0040   0.30    4.7
2024/11/12 05:14:46.400   34.744653456  137.764312045    41.0501   1  25   0.0036   0.0040   0.0080   0.0024  -0.0040  -0.0040   0.40    4.7
2024/11/12 05:14:46.500   34.744653486  137.764312072    41.0462   1  25   0.0036   0.0040   0.0080   0.0024  -0.0040  -0.0040   0.50    4.7
2024/11/12 05:14:46.600   34.744653501  137.764312090    41.0412   1  25   0.0036   0.0040   0.0080   0.0024  -0.0040  -0.0040  -0.40    4.7
2024/11/12 05:14:46.700   34.744653514  137.764312099    41.0418   1  25   0.0036   0.0040   0.0080   0.0024  -0.0040  -0.0040  -0.30    4.7
2024/11/12 05:14:46.800   34.744653502  137.764312088    41.0442   1  25   0.0036   0.0040   0.0080   0.0024  -0.0040  -0.0040  -0.20    4.7
2024/11/12 05:14:46.900   34.744653505  137.764312100    41.0461   1  25   0.0036   0.0040   0.0080   0.0024  -0.0040  -0.0040  -0.10    4.7
2024/11/12 05:14:47.000   34.744653494  137.764312082    41.0473   1  25   0.0036   0.0040   0.0080   0.0024  -0.0040  -0.0040  -0.00    4.7
2024/11/12 05:14:47.100   34.744653509  137.764312105    41.0463   1  25   0.0036   0.0040   0.0080   0.0024  -0.0040  -0.0040   0.10    4.7
2024/11/12 05:14:47.200   34.744653491  137.764312077    41.0498   1  25   0.0036   0.0040   0.0080   0.0024  -0.0040  -0.0040   0.20    4.7
2024/11/12 05:14:47.300   34.744653463  137.764312102    41.0475   1  25   0.0036   0.0040   0.0080   0.0024  -0.0040  -0.0040   0.30    4.7
2024/11/12 05:14:47.400   34.744653445  137.764312087    41.0509   1  25   0.0036   0.0040   0.0080   0.0024  -0.0040  -0.0040   0.40    4.7
2024/11/12 05:14:47.500   34.744653417  137.764312102    41.0506   1  25   0.0036   0.0040   0.0080   0.0024  -0.0040  -0.0040   0.50    4.7
2024/11/12 05:14:47.600   34.744653422  137.764312122    41.0443   1  25   0.0036   0.0040   0.0080   0.0024  -0.0040  -0.0040  -0.40    4.7
2024/11/12 05:14:47.700   34.744653410  137.764312112    41.0452   1  25   0.0036   0.0040   0.0080   0.0024  -0.0040  -0.0040  -0.30    4.7
2024/11/12 05:14:47.800   34.744653390  137.764312127    41.0460   1  25   0.0036   0.0040   0.0080   0.0024  -0.0040  -0.0040  -0.20    4.7
2024/11/12 05:14:47.900   34.744653397  137.764312102    41.0468   1  25   0.0036   0.0040   0.0080   0.0024  -0.0040  -0.0040  -0.10    4.7
2024/11/12 05:14:48.000   34.744653386  137.764312111    41.0475   1  25   0.0036   0.0040   0.0080   0.0024  -0.0040  -0.0040  -0.00    4.6
2024/11/12 05:14:48.100   34.744653358  137.764312118    41.0501   1  25   0.0036   0.0040   0.0080   0.0024  -0.0040  -0.0040   0.10    4.6
2024/11/12 05:14:48.200   34.744653318  137.764312150    41.0482   1  25   0.0036   0.0040   0.0080   0.0024  -0.0040  -0.0040   0.20    4.6
2024/11/12 05:14:48.300   34.744653273  137.764312167    41.0475   1  25   0.0036   0.0040   0.0080   0.0024  -0.0040  -0.0040   0.30    4.6
2024/11/12 05:14:48.400   34.744653241  137.764312223    41.0423   1  25   0.0036   0.0040   0.0080   0.0024  -0.0040  -0.0040   0.40    4.6
2024/11/12 05:14:48.500   34.744653227  137.764312216    41.0426   1  25   0.0036   0.0040   0.0080   0.0024  -0.0040  -0.0040   0.50    4.6
2024/11/12 05:14:48.600   34.744653246  137.764312227    41.0394   1  25   0.0036   0.0040   0.0080   0.0024  -0.0040  -0.0040  -0.40    4.6
2024/11/12 05:14:48.700   34.744653244  137.764312196    41.0430   1  25   0.0036   0.0040   0.0080   0.0024  -0.0040  -0.0040  -0.30    4.6
2024/11/12 05:14:48.800   34.744653247  137.764312208    41.0428   1  25   0.0036   0.0040   0.0080   0.0024  -0.0040  -0.0040  -0.20    4.6
2024/11/12 05:14:48.900   34.744653241  137.764312204    41.0412   1  25   0.0036   0.0040   0.0080   0.0024  -0.0040  -0.0040  -0.10    4.6
2024/11/12 05:14:49.000   34.744653220  137.764312209    41.0410   1  25   0.0036   0.0040   0.0080   0.0024  -0.0040  -0.0040  -0.00    4.6
2024/11/12 05:14:49.100   34.744653195  137.764312212    41.0398   1  25   0.0036   0.0040   0.0080   0.0024  -0.0040  -0.0040   0.10    4.6
2024/11/12 05:14:49.200   34.744653187  137.764312219    41.0389   1  25   0.0036   0.0040   0.0080   0.0024  -0.0040  -0.0040   0.20    4.6
2024/11/12 05:14:49.300   34.744653165  137.764312237    41.0400   1  25   0.0036   0.0040   0.0080   0.0024  -0.0040  -0.0040   0.30    4.6
2024/11/12 05:14:49.400   34.744653153  137.764312247    41.0416   1  25   0.0036   0.0040   0.0080   0.0024  -0.0040  -0.0040   0.40    4.6
2024/11/12 05:14:49.500   34.744653152  137.764312231    41.0401   1  25   0.0036   0.0040   0.0080   0.0024  -0.0040  -0.0040   0.50    4.6
2024/11/12 05:14:49.600   34.744653166  137.764312247    41.0363   1  25   0.0036   0.0040   0.0080   0.0024  -0.0040  -0.0040  -0.40    4.6
2024/11/12 05:14:49.700   34.744653158  137.764312261    41.0361   1  25   0.0036   0.0040   0.0080   0.0024  -0.0040  -0.0040  -0.30    4.6
2024/11/12 05:14:49.800   34.744653142  137.764312253    41.0363   1  25   0.0036   0.0040   0.0080   0.0024  -0.0040  -0.0040  -0.20    4.6
2024/11/12 05:14:49.900   34.744653148  137.764312252    41.0358   1  25   0.0036   0.0040   0.0080   0.0024  -0.0040  -0.0040  -0.10    4.6
2024/11/12 05:14:50.000   34.744653146  137.764312260    41.0361   1  25   0.0036   0.0040   0.0080   0.0024  -0.0040  -0.0040  -0.00    4.6
2024/11/12 05:14:50.100   34.744653142  137.764312256    41.0371   1  25   0.0036   0.0040   0.0080   0.0024  -0.0040  -0.0040   0.10    4.6
2024/11/12 05:14:50.200   34.744653147  137.764312250    41.0356   1  25   0.0036   0.0040   0.0080   0.0024  -0.0040  -0.0040   0.20    4.6
2024/11/12 05:14:50.300   34.744653148  137.764312264    41.0339   1  25   0.0036   0.0040   0.0080   0.0024  -0.0040  -0.0040   0.30    4.6
2024/11/12 05:14:50.400   34.744653126  137.764312242    41.0375   1  25   0.0036   0.0040   0.0080   0.0024  -0.0040  -0.0040   0.40    4.6
2024/11/12 05:14:50.500   34.744653111  137.764312240    41.0369   1  25   0.0036   0.0040   0.0080   0.0024  -0.0040  -0.0040   0.50    4.5
2024/11/12 05:14:50.600   34.744653114  137.764312266    41.0388   1  25   0.0036   0.0040   0.0080   0.0024  -0.0040  -0.0040  -0.40    4.5
2024/11/12 05:14:50.700   34.744653091  137.764312254    41.0380   1  25   0.0036   0.0040   0.0080   0.0024  -0.0040  -0.0040  -0.30    4.5
2024/11/12 05:14:50.800   34.744653075  137.764312259    41.0401   1  25   0.0036   0.0040   0.0080   0.0024  -0.0040  -0.0040  -0.20    4.5
2024/11/12 05:14:50.900   34.744653059  137.764312282    41.0399   1  25   0.0036   0.0040   0.0080   0.0024  -0.0040  -0.0040  -0.10    4.5
2024/11/12 05:14:51.000   34.744653063  137.764312246    41.0412   1  25   0.0036   0.0040   0.0080   0.0024  -0.0040  -0.0040  -0.00    4.5
2024/11/12 05:14:51.100   34.744653067  137.764312244    41.0415   1  25   0.0036   0.0040   0.0080   0.0024  -0.0040  -0.0040   0.10    4.5
2024/11/12 05:14:51.200   34.744653070  137.764312265    41.0398   1  25   0.0036   0.0040   0.0080   0.0024  -0.0040  -0.0040   0.20    4.5
2024/11/12 05:14:51.300   34.744653082  137.764312247    41.0414   1  25   0.0036   0.0040   0.0080   0.0024  -0.0040  -0.0040   0.30    4.5
2024/11/12 05:14:51.400   34.744653097  137.764312222    41.0429   1  25   0.0036   0.0040   0.0080   0.0024  -0.0040  -0.0040   0.40    4.5
2024/11/12 05:14:51.500   34.744653130  137.764312233    41.0429   1  25   0.0036   0.0040   0.0081   0.0024  -0.0040  -0.0040   0.50    4.5
2024/11/12 05:14:51.600   34.744653167  137.764312245    41.0395   1  25   0.0036   0.0040   0.0081   0.0024  -0.0040  -0.0040  -0.40    4.5
2024/11/12 05:14:51.700   34.744653196  137.764312247    41.0399   1  25   0.0036   0.0040   0.0080   0.0024  -0.0040  -0.0040  -0.30    4.5
2024/11/12 05:14:51.800   34.744653198  137.764312221    41.0425   1  25   0.0036   0.0040   0.0080   0.0024  -0.0040  -0.0040  -0.20    4.5
2024/11/12 05:14:51.900   34.744653191  137.764312218    41.0430   1  25   0.0036   0.0040   0.0081   0.0024  -0.0040  -0.0040  -0.10    4.5
2024/11/12 05:14:52.000   34.744653177  137.764312232    41.0388   1  25   0.0036   0.0040   0.0081   0.0024  -0.0040  -0.0041  -0.00    4.5
2024/11/12 05:14:52.100   34.744653172  137.764312232    41.0401   1  25   0.0036   0.0040   0.0081   0.0024  -0.0040  -0.0041   0.10    4.5
2024/11/12 05:14:52.200   34.744653150  137.764312255    41.0396   1  25   0.0036   0.0040   0.0082   0.0024  -0.0040  -0.0041   0.20    4.5
2024/11/12 05:14:52.300   34.744653125  137.764312242    41.0429   1  25   0.0037   0.0040   0.0083   0.0024  -0.0041  -0.0042   0.30    4.5
2024/11/12 05:14:52.400   34.744653106  137.764312238    41.0436   1  25   0.0037   0.0040   0.0084   0.0025  -0.0041  -0.0043   0.40    4.5
2024/11/12 05:14:52.500   34.744653094  137.764312239    41.0434   1  25   0.0038   0.0041   0.0085   0.0025  -0.0042  -0.0043   0.50    4.5
2024/11/12 05:14:52.600   34.744653099  137.764312265    41.0380   1  24   0.0038   0.0040   0.0084   0.0025  -0.0042  -0.0043  -0.40    4.5
2024/11/12 05:14:52.700   34.744653107  137.764312225    41.0383   1  24   0.0037   0.0040   0.0084   0.0025  -0.0042  -0.0043  -0.30    4.5
2024/11/12 05:14:52.800   34.744653099  137.764312289    41.0332   1  24   0.0037   0.0040   0.0084   0.0025  -0.0042  -0.0043  -0.20    4.5
2024/11/12 05:14:52.900   34.744653090  137.764312263    41.0333   1  24   0.0037   0.0040   0.0084   0.0025  -0.0041  -0.0043  -0.10    4.5
2024/11/12 05:14:53.000   34.744653100  137.764312259    41.0344   1  24   0.0037   0.0040   0.0084   0.0025  -0.0041  -0.0043  -0.00    4.4
2024/11/12 05:14:53.100   34.744653074  137.764312235    41.0383   1  24   0.0037   0.0040   0.0084   0.0025  -0.0041  -0.0043   0.10    4.4
2024/11/12 05:14:53.200   34.744653068  137.764312249    41.0384   1  24   0.0037   0.0040   0.0084   0.0025  -0.0042  -0.0043   0.20    4.4
2024/11/12 05:14:53.300   34.744653068  137.764312246    41.0432   1  24   0.0037   0.0040   0.0084   0.0025  -0.0042  -0.0043   0.30    4.4
2024/11/12 05:14:53.400   34.744653055  137.764312298    41.0420   1  24   0.0038   0.0040   0.0084   0.0025  -0.0042  -0.0043   0.40    4.4
2024/11/12 05:14:53.500   34.744653076  137.764312224    41.0449   1  24   0.0038   0.0041   0.0085   0.0025  -0.0042  -0.0043   0.50    4.4
2024/11/12 05:14:53.600   34.744653070  137.764312252    41.0385   1  24   0.0038   0.0040   0.0084   0.0025  -0.0042  -0.0043  -0.40    4.4
2024/11/12 05:14:53.700   34.744653039  137.764312222    41.0477   1  24   0.0037   0.0040   0.0084   0.0025  -0.0042  -0.0043  -0.30    4.4
2024/11/12 05:14:53.800   34.744653036  137.764312224    41.0474   1  24   0.0037   0.0040   0.0084   0.0025  -0.0042  -0.0043  -0.20    4.4
2024/11/12 05:14:53.900   34.744653060  137.764312235    41.0441   1  24   0.0037   0.0040   0.0085   0.0025  -0.0042  -0.0043  -0.10    4.4
2024/11/12 05:14:54.000   34.744653067  137.764312246    41.0425   1  24   0.0037   0.0044   0.0087   0.0025  -0.0046  -0.0044  -0.00    4.7
2024/11/12 05:14:54.100   34.744653067  137.764312216    41.0438   1  24   0.0037   0.0040   0.0084   0.0025  -0.0041  -0.0043   0.10    4.4
2024/11/12 05:14:54.200   34.744653054  137.764312309    41.0363   1  24   0.0037   0.0040   0.0084   0.0025  -0.0042  -0.0043   0.20    4.4
2024/11/12 05:14:54.300   34.744653057  137.764312251    41.0425   1  24   0.0037   0.0040   0.0084   0.0025  -0.0042  -0.0043   0.30    4.4
2024/11/12 05:14:54.400   34.744653028  137.764312224    41.0466   1  24   0.0038   0.0040   0.0084   0.0025  -0.0042  -0.0043   0.40    4.4
2024/11/12 05:14:54.500   34.744653026  137.764312215    41.0459   1  24   0.0038   0.0041   0.0085   0.0025  -0.0042  -0.0043   0.50    4.4
2024/11/12 05:14:54.600   34.744653066  137.764312263    41.0383   1  24   0.0038   0.0040   0.0084   0.0025  -0.0042  -0.0043  -0.40    4.4
2024/11/12 05:14:54.700   34.744653062  137.764312253    41.0402   1  24   0.0037   0.0040   0.0084   0.0025  -0.0042  -0.0043  -0.30    4.4
2024/11/12 05:14:54.800   34.744653084  137.764312271    41.0386   1  24   0.0037   0.0040   0.0084   0.0025  -0.0042  -0.0043  -0.20    4.4
2024/11/12 05:14:54.900   34.744653085  137.764312278    41.0349   1  24   0.0037   0.0040   0.0084   0.0025  -0.0041  -0.0043  -0.10    4.4
2024/11/12 05:14:55.000   34.744653079  137.764312261    41.0381   1  24   0.0037   0.0040   0.0084   0.0025  -0.0041  -0.0043  -0.00    4.4
2024/11/12 05:14:55.100   34.744653097  137.764312238    41.0388   1  24   0.0037   0.0040   0.0084   0.0025  -0.0041  -0.0043   0.10    4.4
2024/11/12 05:14:55.200   34.744653082  137.764312249    41.0367   1  24   0.0037   0.0040   0.0084   0.0025  -0.0042  -0.0043   0.20    4.4
2024/11/12 05:14:55.300   34.744653088  137.764312262    41.0378   1  24   0.0037   0.0040   0.0084   0.0025  -0.0042  -0.0043   0.30    4.4
2024/11/12 05:14:55.400   34.744653084  137.764312236    41.0408   1  24   0.0038   0.0040   0.0084   0.0025  -0.0042  -0.0043   0.40    4.4
2024/11/12 05:14:55.500   34.744653065  137.764312243    41.0407   1  24   0.0038   0.0041   0.0085   0.0025  -0.0042  -0.0043   0.50    4.4
2024/11/12 05:14:55.600   34.744653088  137.764312254    41.0402   1  24   0.0038   0.0040   0.0084   0.0025  -0.0042  -0.0043  -0.40    4.4
2024/11/12 05:14:55.700   34.744653094  137.764312278    41.0390   1  24   0.0037   0.0040   0.0084   0.0025  -0.0042  -0.0043  -0.30    4.3
2024/11/12 05:14:55.800   34.744653084  137.764312259    41.0387   1  24   0.0037   0.0040   0.0084   0.0025  -0.0042  -0.0043  -0.20    4.3
2024/11/12 05:14:55.900   34.744653068  137.764312254    41.0408   1  24   0.0037   0.0040   0.0084   0.0025  -0.0041  -0.0043  -0.10    4.3
2024/11/12 05:14:56.000   34.744653069  137.764312250    41.0413   1  24   0.0037   0.0040   0.0084   0.0025  -0.0041  -0.0043  -0.00    4.3
2024/11/12 05:14:56.100   34.744653071  137.764312270    41.0386   1  24   0.0037   0.0040   0.0084   0.0025  -0.0041  -0.0043   0.10    4.3
2024/11/12 05:14:56.200   34.744653054  137.764312254    41.0433   1  24   0.0037   0.0040   0.0084   0.0025  -0.0042  -0.0043   0.20    4.3
2024/11/12 05:14:56.300   34.744653072  137.764312249    41.0408   1  24   0.0037   0.0040   0.0084   0.0025  -0.0042  -0.0043   0.30    4.3
2024/11/12 05:14:56.400   34.744653066  137.764312245    41.0396   1  24   0.0038   0.0040   0.0084   0.0025  -0.0042  -0.0043   0.40    4.3
2024/11/12 05:14:56.500   34.744653079  137.764312258    41.0381   1  24   0.0038   0.0041   0.0085   0.0025  -0.0042  -0.0043   0.50    4.3
2024/11/12 05:14:56.600   34.744653097  137.764312229    41.0372   1  24   0.0038   0.0040   0.0084   0.0025  -0.0042  -0.0043  -0.40    4.3
2024/11/12 05:14:56.700   34.744653106  137.764312266    41.0351   1  24   0.0037   0.0040   0.0084   0.0025  -0.0042  -0.0043  -0.30    4.3
2024/11/12 05:14:56.800   34.744653112  137.764312286    41.0314   1  24   0.0037   0.0040   0.0084   0.0025  -0.0041  -0.0043  -0.20    4.3
2024/11/12 05:14:56.900   34.744653096  137.764312244    41.0348   1  24   0.0037   0.0040   0.0084   0.0025  -0.0041  -0.0043  -0.10    4.3
2024/11/12 05:14:57.000   34.744653100  137.764312252    41.0371   1  24   0.0037   0.0040   0.0084   0.0025  -0.0041  -0.0043  -0.00    4.3
2024/11/12 05:14:57.100   34.744653092  137.764312228    41.0397   1  24   0.0037   0.0040   0.0083   0.0025  -0.0041  -0.0043   0.10    4.3
2024/11/12 05:14:57.200   34.744653082  137.764312211    41.0386   1  25   0.0037   0.0040   0.0080   0.0024  -0.0039  -0.0041   0.20    4.3
2024/11/12 05:14:57.300   34.744653097  137.764312277    41.0357   1  25   0.0037   0.0040   0.0080   0.0024  -0.0039  -0.0041   0.30    4.3
2024/11/12 05:14:57.400   34.744653082  137.764312261    41.0406   1  25   0.0037   0.0040   0.0080   0.0024  -0.0039  -0.0041   0.40    4.3
2024/11/12 05:14:57.500   34.744653100  137.764312264    41.0399   1  25   0.0037   0.0040   0.0080   0.0024  -0.0039  -0.0041   0.50    4.3
2024/11/12 05:14:57.600   34.744653100  137.764312254    41.0408   1  25   0.0037   0.0040   0.0080   0.0024  -0.0039  -0.0041  -0.40    4.3
2024/11/12 05:14:57.700   34.744653069  137.764312256    41.0439   1  25   0.0037   0.0040   0.0080   0.0024  -0.0039  -0.0041  -0.30    4.3
2024/11/12 05:14:57.800   34.744653105  137.764312236    41.0435   1  25   0.0037   0.0040   0.0080   0.0024  -0.0039  -0.0041  -0.20    4.3
2024/11/12 05:14:57.900   34.744653103  137.764312233    41.0426   1  25   0.0037   0.0040   0.0080   0.0023  -0.0039  -0.0041  -0.10    4.3
2024/11/12 05:14:58.000   34.744653106  137.764312224    41.0426   1  25   0.0037   0.0040   0.0080   0.0023  -0.0039  -0.0041  -0.00    4.3
2024/11/12 05:14:58.100   34.744653122  137.764312229    41.0408   1  25   0.0037   0.0040   0.0080   0.0023  -0.0039  -0.0041   0.10    4.2
2024/11/12 05:14:58.200   34.744653125  137.764312233    41.0396   1  25   0.0037   0.0040   0.0080   0.0024  -0.0039  -0.0041   0.20    4.2
2024/11/12 05:14:58.300   34.744653095  137.764312222    41.0427   1  25   0.0037   0.0040   0.0080   0.0024  -0.0039  -0.0041   0.30    4.2
2024/11/12 05:14:58.400   34.744653090  137.764312258    41.0388   1  25   0.0037   0.0040   0.0080   0.0024  -0.0039  -0.0041   0.40    4.2
2024/11/12 05:14:58.500   34.744653060  137.764312269    41.0350   1  25   0.0037   0.0040   0.0080   0.0024  -0.0039  -0.0041   0.50    4.2
2024/11/12 05:14:58.600   34.744653045  137.764312257    41.0371   1  25   0.0037   0.0040   0.0080   0.0024  -0.0039  -0.0041  -0.40    4.2
2024/11/12 05:14:58.700   34.744653031  137.764312258    41.0354   1  25   0.0037   0.0040   0.0080   0.0024  -0.0039  -0.0041  -0.30    4.2
2024/11/12 05:14:58.800   34.744653049  137.764312273    41.0337   1  25   0.0037   0.0040   0.0080   0.0024  -0.0039  -0.0041  -0.20    4.2
2024/11/12 05:14:58.900   34.744653045  137.764312251    41.0383   1  25   0.0037   0.0040   0.0080   0.0023  -0.0039  -0.0041  -0.10    4.2
2024/11/12 05:14:59.000   34.744653042  137.764312223    41.0453   1  25   0.0037   0.0040   0.0080   0.0023  -0.0039  -0.0041  -0.00    4.2
2024/11/12 05:14:59.100   34.744653061  137.764312257    41.0434   1  25   0.0037   0.0040   0.0080   0.0023  -0.0039  -0.0041   0.10    4.2
2024/11/12 05:14:59.200   34.744653074  137.764312239    41.0452   1  25   0.0037   0.0040   0.0080   0.0023  -0.0039  -0.0041   0.20    4.2
