% program   : RTKPOST demo5 b34j
% inp file  : C:\Users\cs21014\Documents\Kitani\241112hyod\src\03\GNSS_MT\gnss0\ubx\241112_14.obs
% inp file  : C:\Users\cs21014\Documents\Kitani\241112hyod\src\rtk_base\COM4___9600_241112_050705.obs
% inp file  : C:\Users\cs21014\Documents\Kitani\241112hyod\src\rtk_base\COM4___9600_241112_050705.nav
% obs start : 2024/11/12 05:34:17.2 GPST (week2340 192857.2s)
% obs end   : 2024/11/12 05:47:00.4 GPST (week2340 193620.4s)
% pos mode  : Kinematic
% freqs     : L1+L2/E5b+L5
% solution  : Combined-Phase Reset
% elev mask : 15.0 deg
% dynamics  : on
% tidecorr  : on
% ionos opt : Broadcast
% tropo opt : Saastamoinen
% ephemeris : Broadcast
% navi sys  : GPS GLONASS Galileo QZSS BDS NavIC
% amb res   : Fix and Hold
% amb glo   : Fix and Hold
% val thres : 3.0
% antenna1  :                       ( 0.0000  0.0000  0.0000)
% antenna2  :                       ( 0.0000  0.0000  0.0000)
% ref pos   : 34.744454383  137.764618776    40.7897
%
% (lat/lon/height=WGS84/ellipsoidal,Q=1:fix,2:float,3:sbas,4:dgps,5:single,6:ppp,ns=# of satellites)
%  GPST                  latitude(deg) longitude(deg)  height(m)   Q  ns   sdn(m)   sde(m)   sdu(m)  sdne(m)  sdeu(m)  sdun(m) age(s)  ratio
2024/11/12 05:34:17.209   34.744645928  137.764305910    41.0239   1  19   0.0050   0.0059   0.0101   0.0010  -0.0032  -0.0048   0.19    6.1
2024/11/12 05:34:17.309   34.744645940  137.764305931    41.0230   1  19   0.0050   0.0059   0.0101   0.0010  -0.0032  -0.0048   0.29    6.1
2024/11/12 05:34:17.409   34.744645943  137.764305924    41.0241   1  19   0.0050   0.0060   0.0101   0.0010  -0.0032  -0.0048   0.39    6.1
2024/11/12 05:34:17.509   34.744645932  137.764305939    41.0238   1  19   0.0050   0.0060   0.0101   0.0010  -0.0032  -0.0048   0.49    6.1
2024/11/12 05:34:17.609   34.744645935  137.764305903    41.0255   1  19   0.0050   0.0060   0.0101   0.0010  -0.0032  -0.0048  -0.41    6.1
2024/11/12 05:34:17.709   34.744645920  137.764305896    41.0268   1  19   0.0050   0.0060   0.0101   0.0010  -0.0032  -0.0048  -0.31    6.0
2024/11/12 05:34:17.809   34.744645923  137.764305896    41.0270   1  19   0.0050   0.0061   0.0102   0.0010  -0.0032  -0.0048  -0.21    6.0
2024/11/12 05:34:17.909   34.744645923  137.764305898    41.0288   1  19   0.0050   0.0061   0.0102   0.0010  -0.0032  -0.0048  -0.11    6.0
2024/11/12 05:34:18.009   34.744645912  137.764305893    41.0290   1  19   0.0050   0.0061   0.0102   0.0010  -0.0032  -0.0049  -0.01    6.0
2024/11/12 05:34:18.109   34.744645926  137.764305896    41.0267   1  19   0.0050   0.0062   0.0102   0.0010  -0.0033  -0.0049   0.09    6.0
2024/11/12 05:34:18.209   34.744645917  137.764305907    41.0273   1  19   0.0050   0.0062   0.0102   0.0011  -0.0033  -0.0049   0.19    5.9
2024/11/12 05:34:18.309   34.744645909  137.764305895    41.0309   1  19   0.0051   0.0063   0.0102   0.0011  -0.0033  -0.0049   0.29    5.9
2024/11/12 05:34:18.400   34.744645895  137.764305869    41.0338   1  19   0.0051   0.0063   0.0103   0.0011  -0.0034  -0.0050   0.38    5.9
2024/11/12 05:34:18.500   34.744645902  137.764305880    41.0337   1  19   0.0051   0.0064   0.0104   0.0012  -0.0034  -0.0050   0.48    5.9
2024/11/12 05:34:18.600   34.744645932  137.764305877    41.0319   1  19   0.0051   0.0065   0.0104   0.0012  -0.0034  -0.0050  -0.42    5.9
2024/11/12 05:34:18.700   34.744645933  137.764305894    41.0327   1  19   0.0052   0.0065   0.0104   0.0012  -0.0034  -0.0051  -0.32    5.9
2024/11/12 05:34:18.800   34.744645927  137.764305904    41.0318   1  19   0.0052   0.0066   0.0104   0.0012  -0.0034  -0.0051  -0.22    5.8
2024/11/12 05:34:18.900   34.744645925  137.764305914    41.0325   1  19   0.0052   0.0061   0.0100   0.0012  -0.0033  -0.0050  -0.12    5.8
2024/11/12 05:34:19.000   34.744645924  137.764305895    41.0345   1  19   0.0052   0.0063   0.0101   0.0016  -0.0038  -0.0050  -0.02    5.8
2024/11/12 05:34:19.100   34.744645932  137.764305898    41.0292   1  21   0.0047   0.0062   0.0101   0.0027  -0.0049  -0.0045   0.08    5.6
2024/11/12 05:34:19.200   34.744645925  137.764305901    41.0313   1  21   0.0048   0.0067   0.0107   0.0030  -0.0054  -0.0049   0.18    5.6
2024/11/12 05:34:19.300   34.744645928  137.764305916    41.0272   1  21   0.0051   0.0077   0.0113   0.0035  -0.0061  -0.0053   0.28    5.6
2024/11/12 05:34:19.400   34.744645941  137.764305904    41.0271   1  21   0.0054   0.0092   0.0112   0.0040  -0.0065  -0.0054   0.38    5.6
2024/11/12 05:34:19.500   34.744645952  137.764306000    41.0240   1  21   0.0042   0.0050   0.0090   0.0019  -0.0037  -0.0036   0.48    4.4
2024/11/12 05:34:19.600   34.744645932  137.764306058    41.0311   1  21   0.0037   0.0039   0.0081   0.0014  -0.0029  -0.0029  -0.42    3.2
2024/11/12 05:34:19.700   34.744645927  137.764306025    41.0356   1  21   0.0037   0.0039   0.0080   0.0013  -0.0030  -0.0029  -0.32    3.2
2024/11/12 05:34:19.800   34.744645923  137.764306016    41.0340   1  21   0.0037   0.0039   0.0080   0.0013  -0.0030  -0.0029  -0.22    3.2
2024/11/12 05:34:19.900   34.744645922  137.764306020    41.0333   1  21   0.0037   0.0039   0.0080   0.0013  -0.0030  -0.0029  -0.12    3.2
2024/11/12 05:34:20.000   34.744645919  137.764306022    41.0336   1  21   0.0037   0.0039   0.0080   0.0013  -0.0030  -0.0029  -0.02    3.1
2024/11/12 05:34:20.100   34.744645927  137.764306024    41.0332   1  21   0.0037   0.0039   0.0080   0.0013  -0.0030  -0.0029   0.08    3.1
2024/11/12 05:34:20.200   34.744645933  137.764306025    41.0306   1  21   0.0037   0.0039   0.0080   0.0013  -0.0030  -0.0029   0.18    3.1
2024/11/12 05:34:20.300   34.744645932  137.764306027    41.0333   1  21   0.0037   0.0039   0.0080   0.0013  -0.0030  -0.0029   0.28    3.1
2024/11/12 05:34:20.400   34.744645913  137.764306040    41.0311   1  21   0.0037   0.0039   0.0080   0.0013  -0.0030  -0.0029   0.38    3.1
2024/11/12 05:34:20.500   34.744645933  137.764306031    41.0327   1  21   0.0037   0.0039   0.0080   0.0013  -0.0030  -0.0029   0.48    3.1
2024/11/12 05:34:20.600   34.744645927  137.764306031    41.0340   1  21   0.0037   0.0039   0.0080   0.0013  -0.0030  -0.0029  -0.42    3.1
2024/11/12 05:34:20.700   34.744645926  137.764306011    41.0352   1  21   0.0037   0.0039   0.0080   0.0013  -0.0030  -0.0029  -0.32    3.1
2024/11/12 05:34:20.800   34.744645927  137.764306031    41.0328   1  21   0.0037   0.0039   0.0080   0.0013  -0.0030  -0.0029  -0.22    3.1
2024/11/12 05:34:20.900   34.744645925  137.764306019    41.0342   1  21   0.0037   0.0039   0.0080   0.0013  -0.0030  -0.0029  -0.12    3.1
2024/11/12 05:34:21.000   34.744645940  137.764306023    41.0316   1  21   0.0037   0.0039   0.0080   0.0013  -0.0030  -0.0029  -0.02    3.1
2024/11/12 05:34:21.100   34.744645926  137.764306037    41.0345   1  21   0.0026   0.0027   0.0056   0.0009  -0.0021  -0.0020   0.08    7.4
2024/11/12 05:34:21.200   34.744645908  137.764306029    41.0342   1  21   0.0026   0.0027   0.0057   0.0009  -0.0021  -0.0021   0.18    7.5
2024/11/12 05:34:21.300   34.744645921  137.764306024    41.0340   1  21   0.0026   0.0027   0.0057   0.0009  -0.0021  -0.0021   0.28    7.5
2024/11/12 05:34:21.400   34.744645918  137.764306032    41.0346   1  21   0.0026   0.0027   0.0057   0.0009  -0.0021  -0.0021   0.38    7.4
2024/11/12 05:34:21.500   34.744645908  137.764306031    41.0343   1  21   0.0026   0.0027   0.0057   0.0009  -0.0021  -0.0021   0.48    7.3
2024/11/12 05:34:21.600   34.744645953  137.764306035    41.0296   1  21   0.0026   0.0027   0.0056   0.0009  -0.0021  -0.0021  -0.42    7.3
2024/11/12 05:34:21.700   34.744645917  137.764306021    41.0297   1  21   0.0026   0.0027   0.0056   0.0009  -0.0021  -0.0021  -0.32    7.2
2024/11/12 05:34:21.800   34.744645926  137.764306041    41.0282   1  21   0.0026   0.0027   0.0056   0.0009  -0.0021  -0.0020  -0.22    7.2
2024/11/12 05:34:21.900   34.744645933  137.764306030    41.0294   1  21   0.0026   0.0027   0.0056   0.0009  -0.0021  -0.0020  -0.12    7.1
2024/11/12 05:34:22.000   34.744645933  137.764306018    41.0290   1  21   0.0026   0.0027   0.0056   0.0009  -0.0021  -0.0020  -0.02    7.1
2024/11/12 05:34:22.100   34.744645927  137.764306039    41.0290   1  21   0.0026   0.0027   0.0056   0.0009  -0.0021  -0.0020   0.08    7.0
2024/11/12 05:34:22.200   34.744645912  137.764306029    41.0282   1  21   0.0026   0.0027   0.0056   0.0009  -0.0021  -0.0020   0.18    7.0
2024/11/12 05:34:22.300   34.744645927  137.764306031    41.0280   1  21   0.0026   0.0027   0.0056   0.0009  -0.0021  -0.0020   0.28    6.9
2024/11/12 05:34:22.400   34.744645934  137.764306051    41.0252   1  21   0.0026   0.0027   0.0056   0.0009  -0.0021  -0.0021   0.38    6.9
2024/11/12 05:34:22.500   34.744645916  137.764306042    41.0275   1  21   0.0026   0.0027   0.0056   0.0009  -0.0021  -0.0021   0.48    6.8
2024/11/12 05:34:22.600   34.744645926  137.764306037    41.0287   1  21   0.0026   0.0027   0.0056   0.0009  -0.0021  -0.0021  -0.42    6.8
2024/11/12 05:34:22.700   34.744645926  137.764306042    41.0281   1  21   0.0026   0.0027   0.0056   0.0009  -0.0021  -0.0020  -0.32    6.8
2024/11/12 05:34:22.800   34.744645905  137.764306044    41.0294   1  21   0.0026   0.0027   0.0056   0.0009  -0.0021  -0.0020  -0.22    6.7
2024/11/12 05:34:22.900   34.744645916  137.764306052    41.0302   1  21   0.0026   0.0027   0.0056   0.0009  -0.0021  -0.0020  -0.12    6.7
2024/11/12 05:34:23.000   34.744645932  137.764306045    41.0299   1  21   0.0026   0.0027   0.0056   0.0009  -0.0021  -0.0020  -0.02    6.7
2024/11/12 05:34:23.100   34.744645913  137.764306038    41.0320   1  21   0.0026   0.0027   0.0056   0.0009  -0.0021  -0.0020   0.08    6.8
2024/11/12 05:34:23.200   34.744645906  137.764306021    41.0341   1  21   0.0026   0.0027   0.0056   0.0009  -0.0021  -0.0020   0.18    6.8
2024/11/12 05:34:23.300   34.744645927  137.764306047    41.0306   1  21   0.0026   0.0027   0.0056   0.0009  -0.0021  -0.0020   0.28    6.8
2024/11/12 05:34:23.400   34.744645927  137.764306051    41.0300   1  21   0.0026   0.0027   0.0056   0.0009  -0.0021  -0.0021   0.38    6.8
2024/11/12 05:34:23.500   34.744645937  137.764306047    41.0308   1  21   0.0026   0.0027   0.0056   0.0009  -0.0021  -0.0021   0.48    6.8
2024/11/12 05:34:23.600   34.744645939  137.764306032    41.0288   1  21   0.0026   0.0027   0.0056   0.0009  -0.0021  -0.0021  -0.42    6.8
2024/11/12 05:34:23.700   34.744645919  137.764306010    41.0310   1  21   0.0026   0.0027   0.0056   0.0009  -0.0021  -0.0020  -0.32    6.7
2024/11/12 05:34:23.800   34.744645932  137.764306040    41.0288   1  21   0.0026   0.0027   0.0056   0.0009  -0.0021  -0.0020  -0.22    6.7
2024/11/12 05:34:23.900   34.744645917  137.764306022    41.0288   1  21   0.0026   0.0027   0.0056   0.0009  -0.0021  -0.0020  -0.12    6.7
2024/11/12 05:34:24.000   34.744645921  137.764306038    41.0317   1  21   0.0026   0.0027   0.0056   0.0009  -0.0021  -0.0020  -0.02    6.7
2024/11/12 05:34:24.100   34.744645924  137.764306023    41.0287   1  21   0.0026   0.0027   0.0056   0.0009  -0.0021  -0.0020   0.08    6.6
2024/11/12 05:34:24.200   34.744645922  137.764306046    41.0276   1  21   0.0026   0.0027   0.0056   0.0009  -0.0021  -0.0020   0.18    6.6
2024/11/12 05:34:24.300   34.744645912  137.764306026    41.0303   1  21   0.0026   0.0027   0.0056   0.0009  -0.0021  -0.0020   0.28    6.6
2024/11/12 05:34:24.400   34.744645922  137.764306010    41.0314   1  21   0.0026   0.0027   0.0056   0.0009  -0.0021  -0.0021   0.38    6.6
2024/11/12 05:34:24.500   34.744645900  137.764306026    41.0331   1  21   0.0026   0.0027   0.0056   0.0009  -0.0021  -0.0021   0.48    6.5
2024/11/12 05:34:24.600   34.744645914  137.764306033    41.0335   1  21   0.0026   0.0027   0.0056   0.0009  -0.0021  -0.0021  -0.42    6.5
2024/11/12 05:34:24.700   34.744645914  137.764306029    41.0330   1  21   0.0026   0.0027   0.0056   0.0009  -0.0021  -0.0020  -0.32    6.5
2024/11/12 05:34:24.800   34.744645911  137.764306033    41.0319   1  21   0.0026   0.0027   0.0056   0.0009  -0.0021  -0.0020  -0.22    6.5
2024/11/12 05:34:24.900   34.744645916  137.764306037    41.0331   1  21   0.0026   0.0027   0.0056   0.0009  -0.0021  -0.0020  -0.12    6.5
2024/11/12 05:34:25.000   34.744645905  137.764306023    41.0325   1  21   0.0026   0.0027   0.0056   0.0009  -0.0021  -0.0020  -0.02    6.5
2024/11/12 05:34:25.100   34.744645921  137.764306048    41.0321   1  21   0.0026   0.0027   0.0056   0.0009  -0.0021  -0.0020   0.08    6.5
2024/11/12 05:34:25.200   34.744645912  137.764306040    41.0324   1  21   0.0026   0.0027   0.0056   0.0009  -0.0021  -0.0020   0.18    6.4
2024/11/12 05:34:25.300   34.744645891  137.764306027    41.0331   1  21   0.0026   0.0027   0.0056   0.0009  -0.0021  -0.0020   0.28    6.4
2024/11/12 05:34:25.400   34.744645916  137.764306052    41.0302   1  21   0.0026   0.0027   0.0056   0.0009  -0.0021  -0.0021   0.38    6.4
2024/11/12 05:34:25.500   34.744645911  137.764306045    41.0329   1  21   0.0026   0.0027   0.0056   0.0009  -0.0021  -0.0021   0.48    6.4
2024/11/12 05:34:25.600   34.744645906  137.764306058    41.0337   1  21   0.0026   0.0027   0.0056   0.0009  -0.0021  -0.0021  -0.42    6.4
2024/11/12 05:34:25.700   34.744645917  137.764306056    41.0326   1  21   0.0026   0.0027   0.0056   0.0009  -0.0021  -0.0020  -0.32    6.4
2024/11/12 05:34:25.800   34.744645907  137.764306060    41.0309   1  21   0.0026   0.0027   0.0056   0.0009  -0.0021  -0.0020  -0.22    6.4
2024/11/12 05:34:25.900   34.744645914  137.764306068    41.0331   1  21   0.0026   0.0027   0.0056   0.0009  -0.0021  -0.0020  -0.12    6.4
2024/11/12 05:34:26.000   34.744645911  137.764306058    41.0322   1  21   0.0026   0.0027   0.0056   0.0009  -0.0021  -0.0020  -0.02    6.4
2024/11/12 05:34:26.100   34.744645902  137.764306055    41.0314   1  21   0.0026   0.0027   0.0056   0.0009  -0.0021  -0.0020   0.08    6.4
2024/11/12 05:34:26.200   34.744645906  137.764306051    41.0331   1  21   0.0026   0.0027   0.0056   0.0009  -0.0021  -0.0020   0.18    6.3
2024/11/12 05:34:26.300   34.744645919  137.764306055    41.0327   1  21   0.0026   0.0027   0.0056   0.0009  -0.0021  -0.0020   0.28    6.3
2024/11/12 05:34:26.400   34.744645916  137.764306065    41.0278   1  21   0.0026   0.0027   0.0056   0.0009  -0.0021  -0.0020   0.38    6.3
2024/11/12 05:34:26.500   34.744645903  137.764306056    41.0310   1  21   0.0026   0.0027   0.0056   0.0009  -0.0021  -0.0021   0.48    6.3
2024/11/12 05:34:26.600   34.744645922  137.764306034    41.0303   1  21   0.0026   0.0027   0.0056   0.0009  -0.0021  -0.0021  -0.42    6.3
2024/11/12 05:34:26.700   34.744645934  137.764306030    41.0290   1  21   0.0026   0.0027   0.0056   0.0009  -0.0021  -0.0020  -0.32    6.3
2024/11/12 05:34:26.800   34.744645932  137.764306046    41.0313   1  21   0.0026   0.0027   0.0056   0.0009  -0.0021  -0.0020  -0.22    6.3
2024/11/12 05:34:26.900   34.744645910  137.764306002    41.0351   1  21   0.0026   0.0027   0.0056   0.0009  -0.0021  -0.0020  -0.12    6.3
2024/11/12 05:34:27.000   34.744645920  137.764306025    41.0317   1  21   0.0026   0.0027   0.0056   0.0009  -0.0021  -0.0020  -0.02    6.3
2024/11/12 05:34:27.100   34.744645929  137.764306040    41.0306   1  21   0.0026   0.0027   0.0056   0.0009  -0.0021  -0.0020   0.08    6.3
2024/11/12 05:34:27.200   34.744645931  137.764306035    41.0321   1  21   0.0026   0.0027   0.0056   0.0009  -0.0021  -0.0020   0.18    6.3
2024/11/12 05:34:27.300   34.744645931  137.764306026    41.0324   1  21   0.0026   0.0027   0.0056   0.0009  -0.0021  -0.0020   0.28    6.3
2024/11/12 05:34:27.400   34.744645932  137.764306029    41.0301   1  21   0.0026   0.0027   0.0056   0.0010  -0.0021  -0.0021   0.38    6.3
2024/11/12 05:34:27.500   34.744645911  137.764306022    41.0331   1  21   0.0026   0.0027   0.0056   0.0010  -0.0021  -0.0021   0.48    6.2
2024/11/12 05:34:27.600   34.744645922  137.764306038    41.0322   1  21   0.0025   0.0027   0.0056   0.0010  -0.0021  -0.0021  -0.42    6.2
2024/11/12 05:34:27.700   34.744645917  137.764306049    41.0313   1  21   0.0025   0.0027   0.0056   0.0010  -0.0021  -0.0021  -0.32    6.2
2024/11/12 05:34:27.800   34.744645914  137.764306050    41.0311   1  21   0.0025   0.0027   0.0056   0.0010  -0.0021  -0.0021  -0.22    6.2
2024/11/12 05:34:27.900   34.744645916  137.764306014    41.0330   1  21   0.0025   0.0027   0.0056   0.0010  -0.0021  -0.0021  -0.12    6.2
2024/11/12 05:34:28.000   34.744645926  137.764306056    41.0305   1  21   0.0025   0.0027   0.0056   0.0010  -0.0021  -0.0021  -0.02    6.2
2024/11/12 05:34:28.100   34.744645918  137.764306032    41.0311   1  21   0.0025   0.0027   0.0056   0.0010  -0.0021  -0.0021   0.08    6.2
2024/11/12 05:34:28.200   34.744645916  137.764306048    41.0300   1  21   0.0025   0.0027   0.0056   0.0010  -0.0021  -0.0021   0.18    6.2
2024/11/12 05:34:28.300   34.744645931  137.764306073    41.0266   1  21   0.0025   0.0027   0.0056   0.0010  -0.0021  -0.0021   0.28    6.2
2024/11/12 05:34:28.400   34.744645921  137.764306033    41.0315   1  21   0.0025   0.0027   0.0056   0.0010  -0.0021  -0.0021   0.38    6.2
2024/11/12 05:34:28.500   34.744645920  137.764306034    41.0309   1  21   0.0025   0.0027   0.0056   0.0010  -0.0021  -0.0021   0.48    6.2
2024/11/12 05:34:28.600   34.744645923  137.764306050    41.0298   1  21   0.0025   0.0027   0.0056   0.0010  -0.0021  -0.0021  -0.42    6.2
2024/11/12 05:34:28.700   34.744645934  137.764306042    41.0314   1  21   0.0025   0.0027   0.0056   0.0010  -0.0021  -0.0021  -0.32    6.2
2024/11/12 05:34:28.800   34.744645920  137.764306033    41.0305   1  21   0.0025   0.0027   0.0056   0.0010  -0.0021  -0.0021  -0.22    6.2
2024/11/12 05:34:28.900   34.744645912  137.764306034    41.0298   1  21   0.0025   0.0027   0.0056   0.0010  -0.0020  -0.0021  -0.12    6.2
2024/11/12 05:34:29.000   34.744645925  137.764306059    41.0274   1  21   0.0025   0.0027   0.0056   0.0010  -0.0020  -0.0021  -0.02    6.2
2024/11/12 05:34:29.100   34.744645924  137.764306053    41.0288   1  21   0.0025   0.0027   0.0056   0.0010  -0.0020  -0.0021   0.08    6.2
2024/11/12 05:34:29.200   34.744645930  137.764306046    41.0297   1  21   0.0025   0.0027   0.0056   0.0010  -0.0020  -0.0021   0.18    6.2
2024/11/12 05:34:29.300   34.744645907  137.764306031    41.0321   1  21   0.0025   0.0027   0.0056   0.0010  -0.0021  -0.0021   0.28    6.2
2024/11/12 05:34:29.400   34.744645919  137.764306034    41.0293   1  21   0.0025   0.0027   0.0056   0.0010  -0.0021  -0.0021   0.38    6.3
2024/11/12 05:34:29.500   34.744645925  137.764306046    41.0301   1  21   0.0025   0.0027   0.0056   0.0010  -0.0021  -0.0021   0.48    6.3
2024/11/12 05:34:29.600   34.744645920  137.764306044    41.0342   1  21   0.0025   0.0027   0.0056   0.0010  -0.0021  -0.0021  -0.42    6.3
2024/11/12 05:34:29.700   34.744645915  137.764306034    41.0327   1  21   0.0025   0.0027   0.0056   0.0010  -0.0021  -0.0021  -0.32    6.3
2024/11/12 05:34:29.800   34.744645921  137.764306036    41.0332   1  21   0.0025   0.0027   0.0056   0.0010  -0.0020  -0.0021  -0.22    6.3
2024/11/12 05:34:29.900   34.744645925  137.764306061    41.0336   1  21   0.0025   0.0027   0.0056   0.0010  -0.0020  -0.0021  -0.12    6.3
2024/11/12 05:34:30.000   34.744645925  137.764306037    41.0314   1  21   0.0025   0.0027   0.0056   0.0010  -0.0020  -0.0021  -0.02    6.3
2024/11/12 05:34:30.100   34.744645931  137.764306050    41.0316   1  21   0.0025   0.0027   0.0056   0.0010  -0.0020  -0.0021   0.08    6.3
2024/11/12 05:34:30.200   34.744645916  137.764306043    41.0307   1  21   0.0025   0.0027   0.0056   0.0010  -0.0020  -0.0021   0.18    6.3
2024/11/12 05:34:30.300   34.744645919  137.764306043    41.0286   1  21   0.0025   0.0027   0.0056   0.0010  -0.0021  -0.0021   0.28    6.3
2024/11/12 05:34:30.400   34.744645936  137.764306052    41.0310   1  21   0.0025   0.0027   0.0056   0.0010  -0.0021  -0.0021   0.38    6.3
2024/11/12 05:34:30.500   34.744645918  137.764306038    41.0323   1  21   0.0025   0.0027   0.0056   0.0010  -0.0021  -0.0021   0.48    6.3
2024/11/12 05:34:30.600   34.744645903  137.764306041    41.0366   1  21   0.0025   0.0027   0.0056   0.0010  -0.0021  -0.0021  -0.42    6.3
2024/11/12 05:34:30.700   34.744645909  137.764306037    41.0361   1  21   0.0025   0.0027   0.0056   0.0010  -0.0021  -0.0021  -0.32    6.3
2024/11/12 05:34:30.800   34.744645918  137.764306032    41.0335   1  21   0.0025   0.0027   0.0056   0.0010  -0.0020  -0.0021  -0.22    3.2
2024/11/12 05:34:30.900   34.744645914  137.764306031    41.0337   1  21   0.0025   0.0027   0.0056   0.0010  -0.0020  -0.0021  -0.12    3.2
2024/11/12 05:34:31.000   34.744645920  137.764306050    41.0317   1  21   0.0025   0.0027   0.0056   0.0010  -0.0020  -0.0021  -0.02    3.3
2024/11/12 05:34:31.100   34.744645926  137.764306042    41.0337   1  21   0.0025   0.0027   0.0056   0.0010  -0.0020  -0.0021   0.08    3.3
2024/11/12 05:34:31.200   34.744645917  137.764306028    41.0320   1  21   0.0025   0.0027   0.0056   0.0010  -0.0020  -0.0021   0.18    3.4
2024/11/12 05:34:31.300   34.744645913  137.764306026    41.0349   1  21   0.0025   0.0027   0.0056   0.0010  -0.0020  -0.0021   0.28    3.4
2024/11/12 05:34:31.400   34.744645920  137.764306019    41.0357   1  21   0.0025   0.0027   0.0056   0.0010  -0.0021  -0.0021   0.38    3.4
2024/11/12 05:34:31.500   34.744645919  137.764306029    41.0323   1  21   0.0025   0.0027   0.0056   0.0010  -0.0021  -0.0021   0.48    3.5
2024/11/12 05:34:31.600   34.744645939  137.764306038    41.0288   1  21   0.0025   0.0027   0.0056   0.0010  -0.0021  -0.0021  -0.42    3.5
2024/11/12 05:34:31.700   34.744645925  137.764306020    41.0299   1  21   0.0025   0.0027   0.0056   0.0010  -0.0021  -0.0021  -0.32    3.6
2024/11/12 05:34:31.800   34.744645924  137.764306069    41.0274   1  21   0.0025   0.0027   0.0056   0.0010  -0.0020  -0.0021  -0.22    3.6
2024/11/12 05:34:31.900   34.744645946  137.764306037    41.0273   1  21   0.0025   0.0027   0.0056   0.0010  -0.0020  -0.0021  -0.12    3.7
2024/11/12 05:34:32.000   34.744645940  137.764306028    41.0302   1  21   0.0025   0.0027   0.0056   0.0010  -0.0020  -0.0021  -0.02    3.7
2024/11/12 05:34:32.100   34.744645923  137.764306037    41.0288   1  21   0.0025   0.0027   0.0056   0.0010  -0.0020  -0.0021   0.08    3.7
2024/11/12 05:34:32.200   34.744645921  137.764306047    41.0295   1  21   0.0025   0.0027   0.0056   0.0010  -0.0020  -0.0021   0.18    3.8
2024/11/12 05:34:32.300   34.744645916  137.764306030    41.0326   1  21   0.0025   0.0027   0.0056   0.0010  -0.0020  -0.0021   0.28    3.8
2024/11/12 05:34:32.400   34.744645915  137.764306017    41.0317   1  21   0.0025   0.0027   0.0056   0.0010  -0.0021  -0.0021   0.38    3.9
2024/11/12 05:34:32.500   34.744645937  137.764306042    41.0311   1  21   0.0025   0.0027   0.0056   0.0010  -0.0021  -0.0021   0.48    3.9
2024/11/12 05:34:32.600   34.744645925  137.764306016    41.0352   1  21   0.0025   0.0027   0.0056   0.0010  -0.0021  -0.0021  -0.42    3.9
2024/11/12 05:34:32.700   34.744645915  137.764306040    41.0321   1  21   0.0025   0.0027   0.0056   0.0010  -0.0021  -0.0021  -0.32    4.0
2024/11/12 05:34:32.800   34.744645925  137.764306046    41.0305   1  21   0.0025   0.0027   0.0056   0.0010  -0.0020  -0.0021  -0.22    4.0
2024/11/12 05:34:32.900   34.744645928  137.764306037    41.0314   1  21   0.0025   0.0027   0.0056   0.0010  -0.0020  -0.0021  -0.12    4.0
2024/11/12 05:34:33.000   34.744645933  137.764306036    41.0296   1  21   0.0025   0.0027   0.0056   0.0010  -0.0020  -0.0021  -0.02    4.1
2024/11/12 05:34:33.100   34.744645918  137.764306028    41.0332   1  21   0.0025   0.0027   0.0056   0.0010  -0.0020  -0.0021   0.08    4.1
2024/11/12 05:34:33.200   34.744645924  137.764306049    41.0309   1  21   0.0025   0.0027   0.0056   0.0010  -0.0021  -0.0021   0.18    4.1
2024/11/12 05:34:33.300   34.744645920  137.764306038    41.0314   1  23   0.0025   0.0027   0.0055   0.0010  -0.0021  -0.0022   0.28    4.2
2024/11/12 05:34:33.400   34.744645914  137.764306041    41.0339   1  25   0.0024   0.0026   0.0055   0.0010  -0.0021  -0.0023   0.38    4.2
2024/11/12 05:34:33.500   34.744645929  137.764306035    41.0333   1  25   0.0024   0.0026   0.0055   0.0011  -0.0021  -0.0023   0.48    4.2
2024/11/12 05:34:33.600   34.744645915  137.764306037    41.0332   1  25   0.0024   0.0026   0.0055   0.0011  -0.0021  -0.0023  -0.42    4.3
2024/11/12 05:34:33.700   34.744645930  137.764306049    41.0332   1  25   0.0024   0.0026   0.0054   0.0011  -0.0021  -0.0023  -0.32    4.3
2024/11/12 05:34:33.800   34.744645912  137.764306035    41.0331   1  25   0.0024   0.0026   0.0054   0.0011  -0.0021  -0.0023  -0.22    4.3
2024/11/12 05:34:33.900   34.744645904  137.764306053    41.0298   1  25   0.0024   0.0026   0.0054   0.0011  -0.0021  -0.0023  -0.12    4.4
2024/11/12 05:34:34.000   34.744645916  137.764306060    41.0319   1  25   0.0024   0.0026   0.0054   0.0011  -0.0021  -0.0023  -0.02    4.4
2024/11/12 05:34:34.100   34.744645904  137.764306040    41.0321   1  25   0.0024   0.0026   0.0054   0.0011  -0.0021  -0.0023   0.08    4.4
2024/11/12 05:34:34.200   34.744645919  137.764305979    41.0358   1  25   0.0024   0.0026   0.0054   0.0011  -0.0021  -0.0023   0.18    4.4
2024/11/12 05:34:34.300   34.744645923  137.764305994    41.0344   1  25   0.0024   0.0026   0.0054   0.0011  -0.0021  -0.0023   0.28    4.5
2024/11/12 05:34:34.400   34.744645900  137.764305991    41.0354   1  25   0.0024   0.0026   0.0054   0.0011  -0.0021  -0.0023   0.38    4.5
2024/11/12 05:34:34.500   34.744645908  137.764305985    41.0370   1  25   0.0024   0.0026   0.0054   0.0011  -0.0021  -0.0023   0.48    4.5
2024/11/12 05:34:34.600   34.744645924  137.764305970    41.0353   1  25   0.0024   0.0026   0.0054   0.0011  -0.0021  -0.0023  -0.42    4.6
2024/11/12 05:34:34.700   34.744645918  137.764305970    41.0367   1  25   0.0024   0.0026   0.0054   0.0011  -0.0021  -0.0023  -0.32    4.6
2024/11/12 05:34:34.800   34.744645913  137.764305978    41.0383   1  25   0.0024   0.0026   0.0054   0.0011  -0.0021  -0.0023  -0.22    3.1
2024/11/12 05:34:34.900   34.744645908  137.764305973    41.0389   1  25   0.0024   0.0026   0.0054   0.0011  -0.0021  -0.0023  -0.12    3.2
2024/11/12 05:34:35.000   34.744645912  137.764305970    41.0382   1  25   0.0024   0.0026   0.0054   0.0011  -0.0021  -0.0023  -0.02    3.4
2024/11/12 05:34:35.100   34.744645916  137.764305976    41.0363   1  25   0.0024   0.0026   0.0054   0.0011  -0.0021  -0.0023   0.08    3.5
2024/11/12 05:34:35.200   34.744645907  137.764305974    41.0375   1  25   0.0024   0.0026   0.0054   0.0011  -0.0021  -0.0023   0.18    3.6
2024/11/12 05:34:35.300   34.744645920  137.764305968    41.0361   1  25   0.0024   0.0026   0.0054   0.0011  -0.0021  -0.0023   0.28    3.7
2024/11/12 05:34:35.400   34.744645909  137.764305967    41.0387   1  25   0.0024   0.0026   0.0054   0.0011  -0.0021  -0.0023   0.38    3.9
2024/11/12 05:34:35.500   34.744645907  137.764305983    41.0372   1  25   0.0024   0.0026   0.0054   0.0011  -0.0021  -0.0023   0.48    4.0
2024/11/12 05:34:35.600   34.744645924  137.764305978    41.0362   1  25   0.0024   0.0026   0.0054   0.0011  -0.0021  -0.0023  -0.42    4.1
2024/11/12 05:34:35.700   34.744645918  137.764305988    41.0357   1  25   0.0024   0.0026   0.0054   0.0011  -0.0021  -0.0023  -0.32    4.2
2024/11/12 05:34:35.800   34.744645916  137.764305989    41.0356   1  25   0.0024   0.0026   0.0054   0.0011  -0.0021  -0.0023  -0.22    4.3
2024/11/12 05:34:35.900   34.744645929  137.764305995    41.0341   1  25   0.0024   0.0026   0.0054   0.0011  -0.0021  -0.0023  -0.12    4.4
2024/11/12 05:34:36.000   34.744645928  137.764305985    41.0358   1  25   0.0024   0.0026   0.0054   0.0011  -0.0021  -0.0023  -0.02    4.5
2024/11/12 05:34:36.100   34.744645929  137.764306003    41.0355   1  25   0.0024   0.0026   0.0054   0.0011  -0.0021  -0.0023   0.08    4.7
2024/11/12 05:34:36.200   34.744645923  137.764305993    41.0354   1  25   0.0024   0.0026   0.0054   0.0011  -0.0021  -0.0023   0.18    4.8
2024/11/12 05:34:36.300   34.744645929  137.764305998    41.0341   1  25   0.0024   0.0026   0.0054   0.0011  -0.0021  -0.0023   0.28    4.9
2024/11/12 05:34:36.400   34.744645925  137.764305991    41.0364   1  25   0.0024   0.0026   0.0054   0.0011  -0.0021  -0.0023   0.38    5.0
2024/11/12 05:34:36.500   34.744645926  137.764306017    41.0315   1  25   0.0024   0.0026   0.0054   0.0011  -0.0021  -0.0023   0.48    3.0
2024/11/12 05:34:36.600   34.744645912  137.764306003    41.0391   1  25   0.0023   0.0026   0.0053   0.0012  -0.0021  -0.0023  -0.42    3.1
2024/11/12 05:34:36.700   34.744645901  137.764305978    41.0428   1  25   0.0023   0.0025   0.0052   0.0012  -0.0021  -0.0022  -0.32    3.1
2024/11/12 05:34:36.800   34.744645912  137.764306016    41.0374   1  25   0.0023   0.0025   0.0052   0.0012  -0.0021  -0.0022  -0.22    3.2
2024/11/12 05:34:36.900   34.744645901  137.764305992    41.0410   1  25   0.0023   0.0025   0.0051   0.0012  -0.0020  -0.0022  -0.12    3.3
2024/11/12 05:34:37.000   34.744645901  137.764306000    41.0406   1  25   0.0023   0.0025   0.0051   0.0012  -0.0020  -0.0021  -0.02    3.3
2024/11/12 05:34:37.100   34.744645905  137.764305992    41.0394   1  25   0.0022   0.0025   0.0051   0.0012  -0.0020  -0.0021   0.08    3.4
2024/11/12 05:34:37.200   34.744645907  137.764305991    41.0401   1  25   0.0022   0.0025   0.0050   0.0012  -0.0020  -0.0021   0.18    3.4
2024/11/12 05:34:37.300   34.744645902  137.764306002    41.0402   1  25   0.0022   0.0025   0.0050   0.0012  -0.0020  -0.0021   0.28    3.5
2024/11/12 05:34:37.400   34.744645915  137.764306001    41.0372   1  25   0.0022   0.0025   0.0050   0.0012  -0.0020  -0.0021   0.38    3.5
2024/11/12 05:34:37.500   34.744645909  137.764306006    41.0365   1  25   0.0022   0.0025   0.0050   0.0012  -0.0020  -0.0021   0.48    3.5
2024/11/12 05:34:37.600   34.744645915  137.764305997    41.0353   1  25   0.0022   0.0025   0.0050   0.0012  -0.0020  -0.0021  -0.42    3.6
2024/11/12 05:34:37.700   34.744645904  137.764305979    41.0375   1  25   0.0022   0.0025   0.0050   0.0012  -0.0020  -0.0021  -0.32    3.6
2024/11/12 05:34:37.800   34.744645921  137.764305993    41.0362   1  25   0.0022   0.0025   0.0050   0.0012  -0.0020  -0.0021  -0.22    3.7
2024/11/12 05:34:37.900   34.744645897  137.764305976    41.0389   1  25   0.0022   0.0025   0.0050   0.0012  -0.0020  -0.0021  -0.12    3.7
2024/11/12 05:34:38.000   34.744645905  137.764305991    41.0383   1  25   0.0022   0.0025   0.0050   0.0012  -0.0020  -0.0021  -0.02    3.8
2024/11/12 05:34:38.100   34.744645911  137.764305987    41.0376   1  25   0.0022   0.0025   0.0050   0.0012  -0.0020  -0.0021   0.08    3.8
2024/11/12 05:34:38.200   34.744645897  137.764305986    41.0387   1  25   0.0022   0.0025   0.0050   0.0012  -0.0020  -0.0021   0.18    3.8
2024/11/12 05:34:38.300   34.744645901  137.764305973    41.0404   1  25   0.0022   0.0025   0.0050   0.0012  -0.0020  -0.0021   0.28    3.9
2024/11/12 05:34:38.400   34.744645910  137.764305993    41.0381   1  25   0.0022   0.0025   0.0050   0.0012  -0.0020  -0.0021   0.38    3.9
2024/11/12 05:34:38.500   34.744645904  137.764305992    41.0365   1  25   0.0022   0.0025   0.0050   0.0012  -0.0020  -0.0021   0.48    4.0
2024/11/12 05:34:38.600   34.744645917  137.764306009    41.0355   1  25   0.0022   0.0025   0.0050   0.0012  -0.0020  -0.0021  -0.42    4.0
2024/11/12 05:34:38.700   34.744645910  137.764305994    41.0376   1  25   0.0022   0.0025   0.0050   0.0012  -0.0020  -0.0021  -0.32    4.0
2024/11/12 05:34:38.800   34.744645905  137.764305987    41.0379   1  25   0.0022   0.0025   0.0050   0.0012  -0.0020  -0.0021  -0.22    4.1
2024/11/12 05:34:38.900   34.744645904  137.764305993    41.0378   1  25   0.0022   0.0025   0.0050   0.0012  -0.0020  -0.0021  -0.12    4.1
2024/11/12 05:34:39.000   34.744645915  137.764306016    41.0359   1  25   0.0022   0.0025   0.0050   0.0012  -0.0020  -0.0021  -0.02    3.0
2024/11/12 05:34:39.100   34.744645907  137.764306013    41.0361   1  25   0.0022   0.0025   0.0050   0.0012  -0.0020  -0.0021   0.08    3.1
2024/11/12 05:34:39.200   34.744645902  137.764305990    41.0376   1  25   0.0022   0.0025   0.0050   0.0012  -0.0020  -0.0021   0.18    3.2
2024/11/12 05:34:39.300   34.744645910  137.764306010    41.0342   1  25   0.0022   0.0025   0.0050   0.0012  -0.0020  -0.0021   0.28    3.3
2024/11/12 05:34:39.400   34.744645897  137.764305990    41.0391   1  25   0.0022   0.0025   0.0050   0.0012  -0.0020  -0.0021   0.38    3.5
2024/11/12 05:34:39.500   34.744645902  137.764305991    41.0412   1  25   0.0022   0.0025   0.0050   0.0012  -0.0020  -0.0021   0.48    3.6
2024/11/12 05:34:39.600   34.744645902  137.764305980    41.0404   1  25   0.0022   0.0025   0.0050   0.0012  -0.0020  -0.0021  -0.42    3.7
2024/11/12 05:34:39.700   34.744645896  137.764305978    41.0422   1  25   0.0022   0.0025   0.0050   0.0012  -0.0020  -0.0021  -0.32    3.8
2024/11/12 05:34:39.800   34.744645896  137.764305981    41.0407   1  25   0.0022   0.0025   0.0050   0.0012  -0.0020  -0.0021  -0.22    3.8
2024/11/12 05:34:39.900   34.744645910  137.764305997    41.0390   1  25   0.0022   0.0025   0.0050   0.0012  -0.0020  -0.0021  -0.12    3.9
2024/11/12 05:34:40.000   34.744645902  137.764305981    41.0410   1  25   0.0022   0.0025   0.0050   0.0012  -0.0020  -0.0021  -0.02    4.0
2024/11/12 05:34:40.100   34.744645895  137.764305966    41.0430   1  25   0.0022   0.0025   0.0050   0.0012  -0.0020  -0.0021   0.08    4.1
2024/11/12 05:34:40.200   34.744645897  137.764305990    41.0420   1  25   0.0022   0.0025   0.0050   0.0012  -0.0020  -0.0021   0.18    4.1
2024/11/12 05:34:40.300   34.744645898  137.764305982    41.0411   1  25   0.0022   0.0025   0.0050   0.0012  -0.0020  -0.0021   0.28    4.2
2024/11/12 05:34:40.400   34.744645906  137.764305983    41.0403   1  25   0.0022   0.0025   0.0050   0.0012  -0.0020  -0.0021   0.38    4.3
2024/11/12 05:34:40.500   34.744645896  137.764305981    41.0407   1  25   0.0022   0.0025   0.0050   0.0012  -0.0020  -0.0021   0.48    4.3
2024/11/12 05:34:40.600   34.744645911  137.764306012    41.0374   1  25   0.0022   0.0025   0.0050   0.0012  -0.0020  -0.0021  -0.42    4.4
2024/11/12 05:34:40.700   34.744645915  137.764306009    41.0391   1  25   0.0022   0.0025   0.0050   0.0012  -0.0020  -0.0021  -0.32    4.5
2024/11/12 05:34:40.800   34.744645916  137.764306013    41.0383   1  25   0.0022   0.0025   0.0050   0.0012  -0.0020  -0.0021  -0.22    4.5
2024/11/12 05:34:40.900   34.744645907  137.764306004    41.0393   1  25   0.0022   0.0025   0.0050   0.0012  -0.0020  -0.0021  -0.12    4.6
2024/11/12 05:34:41.000   34.744645904  137.764306000    41.0418   1  25   0.0022   0.0025   0.0050   0.0012  -0.0020  -0.0021  -0.02    3.0
2024/11/12 05:34:41.100   34.744645898  137.764305986    41.0432   1  25   0.0022   0.0025   0.0050   0.0012  -0.0020  -0.0021   0.08    3.0
2024/11/12 05:34:41.200   34.744645897  137.764306001    41.0428   1  25   0.0022   0.0025   0.0050   0.0012  -0.0020  -0.0021   0.18    3.0
2024/11/12 05:34:41.300   34.744645909  137.764306016    41.0407   1  25   0.0022   0.0025   0.0050   0.0012  -0.0020  -0.0021   0.28    3.1
2024/11/12 05:34:41.400   34.744645906  137.764306000    41.0412   1  25   0.0022   0.0025   0.0050   0.0012  -0.0020  -0.0021   0.38    3.1
2024/11/12 05:34:41.500   34.744645903  137.764306010    41.0409   1  25   0.0022   0.0025   0.0050   0.0012  -0.0020  -0.0021   0.48    3.1
2024/11/12 05:34:41.600   34.744645908  137.764305998    41.0375   1  25   0.0022   0.0025   0.0050   0.0012  -0.0020  -0.0021  -0.42    3.1
2024/11/12 05:34:41.700   34.744645903  137.764306008    41.0367   1  25   0.0022   0.0025   0.0050   0.0012  -0.0020  -0.0021  -0.32    3.1
2024/11/12 05:34:41.800   34.744645922  137.764306018    41.0342   1  25   0.0022   0.0025   0.0050   0.0012  -0.0020  -0.0021  -0.22    3.1
2024/11/12 05:34:41.900   34.744645908  137.764306009    41.0356   1  25   0.0022   0.0025   0.0050   0.0012  -0.0020  -0.0021  -0.12    3.2
2024/11/12 05:34:42.000   34.744645904  137.764306007    41.0372   1  25   0.0022   0.0025   0.0050   0.0012  -0.0020  -0.0021  -0.02    3.2
2024/11/12 05:34:42.100   34.744645912  137.764306002    41.0361   1  25   0.0022   0.0025   0.0050   0.0012  -0.0020  -0.0021   0.08    3.2
2024/11/12 05:34:42.200   34.744645911  137.764306012    41.0372   1  25   0.0022   0.0025   0.0050   0.0012  -0.0020  -0.0021   0.18    3.2
2024/11/12 05:34:42.300   34.744645903  137.764306003    41.0373   1  25   0.0022   0.0025   0.0050   0.0012  -0.0020  -0.0021   0.28    3.2
2024/11/12 05:34:42.400   34.744645906  137.764305998    41.0350   1  25   0.0022   0.0025   0.0050   0.0012  -0.0020  -0.0021   0.38    3.2
2024/11/12 05:34:42.500   34.744645912  137.764306018    41.0349   1  25   0.0022   0.0025   0.0050   0.0012  -0.0020  -0.0021   0.48    3.2
2024/11/12 05:34:42.600   34.744645906  137.764306002    41.0402   1  25   0.0022   0.0025   0.0050   0.0012  -0.0020  -0.0021  -0.42    3.3
2024/11/12 05:34:42.700   34.744645914  137.764306009    41.0416   1  25   0.0022   0.0025   0.0050   0.0012  -0.0020  -0.0021  -0.32    3.3
2024/11/12 05:34:42.800   34.744645907  137.764306004    41.0400   1  25   0.0022   0.0025   0.0050   0.0012  -0.0020  -0.0021  -0.22    3.3
2024/11/12 05:34:42.900   34.744645912  137.764306004    41.0406   1  25   0.0022   0.0025   0.0050   0.0012  -0.0020  -0.0021  -0.12    3.3
2024/11/12 05:34:43.000   34.744645906  137.764305995    41.0427   1  25   0.0022   0.0025   0.0050   0.0012  -0.0020  -0.0021  -0.02    3.3
2024/11/12 05:34:43.100   34.744645901  137.764306014    41.0409   1  25   0.0022   0.0025   0.0050   0.0012  -0.0020  -0.0021   0.08    3.3
2024/11/12 05:34:43.200   34.744645900  137.764306006    41.0424   1  25   0.0022   0.0025   0.0050   0.0012  -0.0020  -0.0021   0.18    3.4
2024/11/12 05:34:43.300   34.744645881  137.764305983    41.0490   1  25   0.0022   0.0025   0.0050   0.0012  -0.0020  -0.0021   0.28    3.4
2024/11/12 05:34:43.400   34.744645910  137.764305990    41.0453   1  25   0.0023   0.0025   0.0050   0.0012  -0.0020  -0.0021   0.38    3.4
2024/11/12 05:34:43.500   34.744645909  137.764305974    41.0463   1  25   0.0023   0.0025   0.0050   0.0012  -0.0020  -0.0021   0.48    3.4
2024/11/12 05:34:43.600   34.744645922  137.764305946    41.0448   1  25   0.0023   0.0025   0.0050   0.0012  -0.0020  -0.0021  -0.42    3.4
2024/11/12 05:34:43.700   34.744645924  137.764305952    41.0459   1  25   0.0023   0.0025   0.0050   0.0012  -0.0020  -0.0021  -0.32    3.4
2024/11/12 05:34:43.800   34.744645912  137.764305941    41.0436   1  25   0.0023   0.0025   0.0050   0.0012  -0.0020  -0.0021  -0.22    3.4
2024/11/12 05:34:43.900   34.744645898  137.764305988    41.0390   1  25   0.0023   0.0025   0.0050   0.0012  -0.0020  -0.0021  -0.12    3.4
2024/11/12 05:34:44.000   34.744645879  137.764305995    41.0342   1  25   0.0023   0.0025   0.0050   0.0012  -0.0020  -0.0021  -0.02    3.5
2024/11/12 05:34:44.100   34.744645903  137.764306005    41.0330   1  25   0.0023   0.0025   0.0050   0.0012  -0.0020  -0.0021   0.08    3.5
2024/11/12 05:34:44.200   34.744645919  137.764306003    41.0420   1  25   0.0023   0.0025   0.0050   0.0012  -0.0020  -0.0020   0.18    3.5
2024/11/12 05:34:44.300   34.744645943  137.764305963    41.0450   1  25   0.0023   0.0025   0.0051   0.0012  -0.0020  -0.0020   0.28    3.5
2024/11/12 05:34:44.400   34.744645958  137.764306006    41.0419   1  25   0.0023   0.0025   0.0051   0.0012  -0.0020  -0.0020   0.38    3.5
2024/11/12 05:34:44.500   34.744645937  137.764306030    41.0412   1  24   0.0023   0.0025   0.0051   0.0012  -0.0020  -0.0020   0.48    3.5
2024/11/12 05:34:44.600   34.744645907  137.764306022    41.0338   1  24   0.0023   0.0025   0.0051   0.0012  -0.0020  -0.0020  -0.42    3.5
2024/11/12 05:34:44.700   34.744645912  137.764306015    41.0321   1  24   0.0023   0.0026   0.0051   0.0012  -0.0020  -0.0020  -0.32    3.5
2024/11/12 05:34:44.800   34.744645900  137.764305991    41.0326   1  24   0.0023   0.0026   0.0051   0.0013  -0.0020  -0.0020  -0.22    3.6
2024/11/12 05:34:44.900   34.744645867  137.764305967    41.0360   1  24   0.0024   0.0026   0.0051   0.0013  -0.0020  -0.0019  -0.12    3.6
2024/11/12 05:34:45.000   34.744645875  137.764305993    41.0369   1  23   0.0024   0.0026   0.0051   0.0014  -0.0020  -0.0019  -0.02    3.6
2024/11/12 05:34:45.100   34.744645935  137.764306095    41.0549   1  22   0.0024   0.0027   0.0051   0.0014  -0.0019  -0.0019   0.08    3.7
2024/11/12 05:34:45.200   34.744645890  137.764306054    41.0600   1  21   0.0024   0.0027   0.0052   0.0014  -0.0019  -0.0019   0.18    3.6
2024/11/12 05:34:45.300   34.744645843  137.764305950    41.0582   1  21   0.0025   0.0028   0.0052   0.0015  -0.0019  -0.0018   0.28    3.9
2024/11/12 05:34:45.400   34.744645897  137.764306010    41.0622   1  21   0.0025   0.0027   0.0052   0.0015  -0.0019  -0.0018   0.38    3.9
2024/11/12 05:34:45.500   34.744645869  137.764306011    41.0633   1  22   0.0024   0.0026   0.0052   0.0014  -0.0019  -0.0019   0.48    4.0
2024/11/12 05:34:45.600   34.744645892  137.764306024    41.0611   1  22   0.0024   0.0026   0.0052   0.0013  -0.0019  -0.0019  -0.42    4.0
2024/11/12 05:34:45.700   34.744645899  137.764306047    41.0575   1  22   0.0024   0.0026   0.0052   0.0013  -0.0019  -0.0019  -0.32    4.0
2024/11/12 05:34:45.800   34.744645906  137.764306068    41.0586   1  22   0.0024   0.0026   0.0052   0.0013  -0.0020  -0.0018  -0.22    4.0
2024/11/12 05:34:45.900   34.744645890  137.764306031    41.0557   1  22   0.0024   0.0026   0.0052   0.0013  -0.0020  -0.0018  -0.12    4.0
2024/11/12 05:34:46.000   34.744645903  137.764306032    41.0533   1  22   0.0024   0.0026   0.0052   0.0013  -0.0020  -0.0018  -0.02    4.0
2024/11/12 05:34:46.100   34.744645911  137.764306075    41.0544   1  22   0.0024   0.0026   0.0052   0.0013  -0.0020  -0.0018   0.08    4.0
2024/11/12 05:34:46.200   34.744645906  137.764306074    41.0547   1  22   0.0024   0.0026   0.0052   0.0013  -0.0020  -0.0018   0.18    4.0
2024/11/12 05:34:46.300   34.744645900  137.764305997    41.0444   1  24   0.0023   0.0026   0.0052   0.0012  -0.0020  -0.0019   0.28    4.0
2024/11/12 05:34:46.400   34.744645909  137.764305971    41.0361   1  24   0.0024   0.0026   0.0052   0.0013  -0.0020  -0.0019   0.38    4.0
2024/11/12 05:34:46.500   34.744645937  137.764306015    41.0333   1  24   0.0024   0.0026   0.0052   0.0013  -0.0020  -0.0019   0.48    4.0
2024/11/12 05:34:46.600   34.744645915  137.764305959    41.0267   1  24   0.0023   0.0026   0.0052   0.0012  -0.0020  -0.0019  -0.42    4.0
2024/11/12 05:34:46.700   34.744645899  137.764305882    41.0224   1  25   0.0023   0.0026   0.0052   0.0012  -0.0020  -0.0019  -0.32    4.0
2024/11/12 05:34:46.800   34.744645889  137.764305838    41.0279   1  25   0.0023   0.0025   0.0052   0.0012  -0.0020  -0.0019  -0.22    4.0
2024/11/12 05:34:46.900   34.744645851  137.764305865    41.0341   1  25   0.0023   0.0025   0.0052   0.0012  -0.0020  -0.0019  -0.12    4.1
2024/11/12 05:34:47.000   34.744645835  137.764305870    41.0337   1  25   0.0023   0.0025   0.0051   0.0012  -0.0020  -0.0019  -0.02    4.1
2024/11/12 05:34:47.100   34.744645845  137.764305796    41.0400   1  25   0.0023   0.0026   0.0051   0.0012  -0.0020  -0.0019   0.08    4.1
2024/11/12 05:34:47.200   34.744645823  137.764305784    41.0399   1  25   0.0023   0.0026   0.0051   0.0012  -0.0020  -0.0019   0.18    4.1
2024/11/12 05:34:47.300   34.744645830  137.764305866    41.0313   1  25   0.0023   0.0026   0.0052   0.0012  -0.0020  -0.0019   0.28    4.1
2024/11/12 05:34:47.400   34.744645839  137.764305873    41.0315   1  25   0.0023   0.0026   0.0052   0.0012  -0.0020  -0.0019   0.38    4.1
2024/11/12 05:34:47.500   34.744645848  137.764305859    41.0335   1  25   0.0023   0.0026   0.0052   0.0012  -0.0021  -0.0019   0.48    4.1
2024/11/12 05:34:47.600   34.744645841  137.764305875    41.0330   1  25   0.0023   0.0026   0.0052   0.0012  -0.0021  -0.0019  -0.42    4.1
2024/11/12 05:34:47.700   34.744645849  137.764305873    41.0355   1  25   0.0023   0.0026   0.0052   0.0012  -0.0021  -0.0019  -0.32    4.1
2024/11/12 05:34:47.800   34.744645853  137.764305899    41.0405   1  25   0.0023   0.0026   0.0052   0.0012  -0.0021  -0.0019  -0.22    4.1
2024/11/12 05:34:47.900   34.744645896  137.764306013    41.0395   1  24   0.0024   0.0027   0.0052   0.0013  -0.0021  -0.0019  -0.12    4.1
2024/11/12 05:34:48.000   34.744645919  137.764306088    41.0312   1  25   0.0023   0.0026   0.0052   0.0012  -0.0021  -0.0019  -0.02    4.2
2024/11/12 05:34:48.100   34.744645897  137.764305972    41.0389   1  24   0.0024   0.0026   0.0052   0.0012  -0.0021  -0.0019   0.08    4.2
2024/11/12 05:34:48.200   34.744645920  137.764306002    41.0442   1  24   0.0024   0.0026   0.0052   0.0012  -0.0021  -0.0019   0.18    4.2
2024/11/12 05:34:48.300   34.744645910  137.764306050    41.0447   1  24   0.0024   0.0027   0.0053   0.0012  -0.0021  -0.0018   0.28    4.2
2024/11/12 05:34:48.400   34.744645850  137.764305891    41.0501   1  24   0.0024   0.0027   0.0053   0.0013  -0.0022  -0.0019   0.38    4.2
2024/11/12 05:34:48.500   34.744645826  137.764305893    41.0486   1  23   0.0024   0.0028   0.0053   0.0013  -0.0022  -0.0018   0.48    4.2
2024/11/12 05:34:48.600   34.744645836  137.764305973    41.0464   1  23   0.0024   0.0028   0.0053   0.0012  -0.0023  -0.0018  -0.42    4.6
2024/11/12 05:34:48.700   34.744645896  137.764305987    41.0437   1  23   0.0024   0.0027   0.0053   0.0012  -0.0023  -0.0018  -0.32    4.6
2024/11/12 05:34:48.800   34.744645843  137.764306042    41.0321   1  23   0.0025   0.0028   0.0053   0.0011  -0.0023  -0.0017  -0.22    4.6
2024/11/12 05:34:48.900   34.744645870  137.764306040    41.0351   1  23   0.0025   0.0028   0.0055   0.0009  -0.0025  -0.0015  -0.12    3.8
2024/11/12 05:34:49.000   34.744645922  137.764306001    41.0422   1  23   0.0024   0.0027   0.0053   0.0010  -0.0023  -0.0017  -0.02    3.8
2024/11/12 05:34:49.100   34.744645887  137.764306001    41.0348   1  24   0.0024   0.0026   0.0053   0.0011  -0.0022  -0.0019   0.08    3.8
2024/11/12 05:34:49.200   34.744645877  137.764306017    41.0376   1  24   0.0023   0.0026   0.0052   0.0011  -0.0022  -0.0019   0.18    3.8
2024/11/12 05:34:49.300   34.744645881  137.764306006    41.0344   1  25   0.0023   0.0026   0.0052   0.0011  -0.0021  -0.0019   0.28    3.8
2024/11/12 05:34:49.400   34.744645868  137.764306047    41.0305   1  25   0.0023   0.0026   0.0052   0.0011  -0.0021  -0.0019   0.38    3.9
2024/11/12 05:34:49.500   34.744645889  137.764306028    41.0323   1  25   0.0023   0.0026   0.0052   0.0011  -0.0021  -0.0020   0.48    3.9
2024/11/12 05:34:49.600   34.744645897  137.764306018    41.0333   1  25   0.0023   0.0026   0.0051   0.0011  -0.0021  -0.0020  -0.42    3.9
2024/11/12 05:34:49.700   34.744645900  137.764306016    41.0335   1  25   0.0023   0.0026   0.0051   0.0011  -0.0021  -0.0020  -0.32    3.9
2024/11/12 05:34:49.800   34.744645886  137.764306028    41.0346   1  25   0.0023   0.0025   0.0051   0.0011  -0.0021  -0.0020  -0.22    3.9
2024/11/12 05:34:49.900   34.744645891  137.764306009    41.0358   1  25   0.0023   0.0025   0.0051   0.0011  -0.0021  -0.0020  -0.12    3.9
2024/11/12 05:34:50.000   34.744645887  137.764305994    41.0371   1  25   0.0023   0.0025   0.0052   0.0012  -0.0021  -0.0019  -0.02    3.9
2024/11/12 05:34:50.100   34.744645883  137.764306000    41.0360   1  25   0.0023   0.0025   0.0052   0.0012  -0.0020  -0.0019   0.08    3.9
2024/11/12 05:34:50.200   34.744645898  137.764305999    41.0345   1  25   0.0024   0.0025   0.0052   0.0012  -0.0020  -0.0019   0.18    3.9
2024/11/12 05:34:50.300   34.744645894  137.764306004    41.0359   1  25   0.0023   0.0025   0.0051   0.0012  -0.0020  -0.0020   0.28    3.9
2024/11/12 05:34:50.400   34.744645886  137.764306015    41.0355   1  25   0.0023   0.0025   0.0051   0.0012  -0.0020  -0.0020   0.38    3.9
2024/11/12 05:34:50.500   34.744645896  137.764305994    41.0362   1  25   0.0023   0.0025   0.0051   0.0012  -0.0020  -0.0019   0.48    3.9
2024/11/12 05:34:50.600   34.744645881  137.764305997    41.0421   1  25   0.0023   0.0025   0.0051   0.0012  -0.0020  -0.0020  -0.42    3.9
2024/11/12 05:34:50.700   34.744645887  137.764306008    41.0415   1  25   0.0023   0.0025   0.0051   0.0012  -0.0020  -0.0020  -0.32    3.9
2024/11/12 05:34:50.800   34.744645880  137.764305990    41.0415   1  25   0.0023   0.0025   0.0051   0.0012  -0.0020  -0.0020  -0.22    3.9
2024/11/12 05:34:50.900   34.744645880  137.764305998    41.0407   1  25   0.0023   0.0025   0.0051   0.0012  -0.0020  -0.0020  -0.12    3.9
2024/11/12 05:34:51.000   34.744645885  137.764306004    41.0394   1  25   0.0023   0.0025   0.0051   0.0012  -0.0020  -0.0020  -0.02    3.9
2024/11/12 05:34:51.100   34.744645881  137.764305993    41.0409   1  25   0.0023   0.0025   0.0051   0.0012  -0.0020  -0.0020   0.08    3.9
2024/11/12 05:34:51.200   34.744645889  137.764305991    41.0418   1  25   0.0023   0.0025   0.0050   0.0012  -0.0020  -0.0020   0.18    3.9
2024/11/12 05:34:51.300   34.744645882  137.764305989    41.0421   1  26   0.0023   0.0024   0.0050   0.0012  -0.0019  -0.0020   0.28    3.9
2024/11/12 05:34:51.400   34.744645884  137.764305978    41.0424   1  26   0.0023   0.0024   0.0050   0.0012  -0.0019  -0.0020   0.38    4.0
2024/11/12 05:34:51.500   34.744645876  137.764305978    41.0434   1  26   0.0023   0.0024   0.0050   0.0012  -0.0019  -0.0021   0.48    4.0
2024/11/12 05:34:51.600   34.744645898  137.764305996    41.0372   1  26   0.0023   0.0024   0.0049   0.0012  -0.0018  -0.0021  -0.42    4.0
2024/11/12 05:34:51.700   34.744645889  137.764305987    41.0376   1  26   0.0022   0.0024   0.0049   0.0011  -0.0018  -0.0020  -0.32    4.0
2024/11/12 05:34:51.800   34.744645891  137.764305984    41.0376   1  26   0.0022   0.0024   0.0049   0.0011  -0.0018  -0.0020  -0.22    4.0
2024/11/12 05:34:51.900   34.744645891  137.764305994    41.0382   1  26   0.0022   0.0024   0.0049   0.0011  -0.0018  -0.0020  -0.12    4.0
2024/11/12 05:34:52.000   34.744645897  137.764306000    41.0347   1  26   0.0022   0.0024   0.0049   0.0011  -0.0018  -0.0020  -0.02    4.0
2024/11/12 05:34:52.100   34.744645890  137.764305991    41.0377   1  26   0.0022   0.0024   0.0049   0.0011  -0.0018  -0.0020   0.08    4.0
2024/11/12 05:34:52.200   34.744645879  137.764305978    41.0412   1  26   0.0022   0.0024   0.0049   0.0011  -0.0018  -0.0021   0.18    4.0
2024/11/12 05:34:52.300   34.744645887  137.764305988    41.0405   1  26   0.0022   0.0024   0.0049   0.0011  -0.0018  -0.0021   0.28    4.0
2024/11/12 05:34:52.400   34.744645889  137.764305997    41.0379   1  26   0.0022   0.0024   0.0049   0.0011  -0.0018  -0.0021   0.38    4.0
2024/11/12 05:34:52.500   34.744645889  137.764305990    41.0371   1  26   0.0022   0.0024   0.0049   0.0011  -0.0018  -0.0021   0.48    4.0
2024/11/12 05:34:52.600   34.744645901  137.764306008    41.0354   1  26   0.0022   0.0024   0.0049   0.0011  -0.0018  -0.0021  -0.42    4.0
2024/11/12 05:34:52.700   34.744645892  137.764305986    41.0368   1  26   0.0022   0.0024   0.0049   0.0011  -0.0018  -0.0021  -0.32    4.0
2024/11/12 05:34:52.800   34.744645902  137.764306002    41.0352   1  26   0.0022   0.0024   0.0049   0.0011  -0.0018  -0.0021  -0.22    4.0
2024/11/12 05:34:52.900   34.744645904  137.764306011    41.0356   1  26   0.0022   0.0024   0.0049   0.0011  -0.0018  -0.0021  -0.12    4.0
2024/11/12 05:34:53.000   34.744645894  137.764306002    41.0376   1  26   0.0022   0.0024   0.0049   0.0011  -0.0018  -0.0021  -0.02    4.0
2024/11/12 05:34:53.100   34.744645895  137.764305991    41.0363   1  26   0.0022   0.0024   0.0049   0.0011  -0.0018  -0.0021   0.08    4.0
2024/11/12 05:34:53.200   34.744645890  137.764305991    41.0386   1  26   0.0022   0.0024   0.0049   0.0011  -0.0018  -0.0021   0.18    4.0
2024/11/12 05:34:53.300   34.744645894  137.764305989    41.0377   1  26   0.0022   0.0024   0.0049   0.0011  -0.0018  -0.0021   0.28    4.0
2024/11/12 05:34:53.400   34.744645893  137.764306017    41.0319   1  26   0.0022   0.0024   0.0049   0.0012  -0.0018  -0.0021   0.38    3.1
2024/11/12 05:34:53.500   34.744645890  137.764306018    41.0333   1  26   0.0022   0.0024   0.0049   0.0012  -0.0018  -0.0021   0.48    3.1
2024/11/12 05:34:53.600   34.744645888  137.764306026    41.0373   1  26   0.0022   0.0024   0.0049   0.0012  -0.0018  -0.0021  -0.42    3.1
2024/11/12 05:34:53.700   34.744645900  137.764306037    41.0358   1  26   0.0022   0.0024   0.0049   0.0012  -0.0018  -0.0021  -0.32    3.2
2024/11/12 05:34:53.800   34.744645895  137.764306033    41.0353   1  26   0.0022   0.0024   0.0049   0.0012  -0.0017  -0.0021  -0.22    3.2
2024/11/12 05:34:53.900   34.744645895  137.764306035    41.0351   1  26   0.0022   0.0024   0.0048   0.0012  -0.0017  -0.0021  -0.12    3.2
2024/11/12 05:34:54.000   34.744645896  137.764306032    41.0345   1  26   0.0022   0.0024   0.0048   0.0012  -0.0017  -0.0021  -0.02    3.3
2024/11/12 05:34:54.100   34.744645893  137.764306033    41.0361   1  26   0.0022   0.0024   0.0048   0.0012  -0.0017  -0.0021   0.08    3.3
2024/11/12 05:34:54.200   34.744645884  137.764306015    41.0373   1  26   0.0022   0.0024   0.0048   0.0012  -0.0017  -0.0021   0.18    3.3
2024/11/12 05:34:54.300   34.744645885  137.764306024    41.0354   1  26   0.0022   0.0024   0.0049   0.0012  -0.0017  -0.0021   0.28    3.4
2024/11/12 05:34:54.400   34.744645882  137.764306021    41.0354   1  26   0.0022   0.0024   0.0049   0.0012  -0.0018  -0.0021   0.38    3.4
2024/11/12 05:34:54.500   34.744645887  137.764306014    41.0364   1  26   0.0022   0.0024   0.0049   0.0012  -0.0018  -0.0021   0.48    3.4
2024/11/12 05:34:54.600   34.744645897  137.764306028    41.0322   1  26   0.0022   0.0024   0.0049   0.0012  -0.0018  -0.0021  -0.42    3.5
2024/11/12 05:34:54.700   34.744645899  137.764306035    41.0307   1  26   0.0022   0.0024   0.0049   0.0012  -0.0017  -0.0021  -0.32    3.5
2024/11/12 05:34:54.800   34.744645903  137.764306024    41.0316   1  26   0.0022   0.0024   0.0048   0.0012  -0.0017  -0.0021  -0.22    3.5
2024/11/12 05:34:54.900   34.744645897  137.764306021    41.0321   1  26   0.0022   0.0024   0.0048   0.0012  -0.0017  -0.0021  -0.12    3.6
2024/11/12 05:34:55.000   34.744645896  137.764306032    41.0317   1  26   0.0022   0.0024   0.0048   0.0012  -0.0017  -0.0021  -0.02    3.6
2024/11/12 05:34:55.100   34.744645896  137.764306041    41.0311   1  26   0.0022   0.0024   0.0048   0.0012  -0.0017  -0.0021   0.08    3.6
2024/11/12 05:34:55.200   34.744645893  137.764306031    41.0318   1  26   0.0022   0.0024   0.0048   0.0012  -0.0017  -0.0021   0.18    3.7
2024/11/12 05:34:55.300   34.744645893  137.764306023    41.0323   1  26   0.0022   0.0024   0.0049   0.0012  -0.0017  -0.0021   0.28    3.7
2024/11/12 05:34:55.400   34.744645889  137.764306034    41.0325   1  26   0.0022   0.0024   0.0049   0.0012  -0.0017  -0.0021   0.38    3.7
2024/11/12 05:34:55.500   34.744645880  137.764306025    41.0345   1  26   0.0022   0.0024   0.0049   0.0012  -0.0018  -0.0021   0.48    3.7
2024/11/12 05:34:55.600   34.744645894  137.764306033    41.0351   1  26   0.0022   0.0024   0.0049   0.0012  -0.0018  -0.0021  -0.42    3.8
2024/11/12 05:34:55.700   34.744645887  137.764306034    41.0366   1  26   0.0022   0.0024   0.0049   0.0012  -0.0017  -0.0021  -0.32    3.8
2024/11/12 05:34:55.800   34.744645893  137.764306043    41.0358   1  26   0.0022   0.0024   0.0048   0.0012  -0.0017  -0.0021  -0.22    3.8
2024/11/12 05:34:55.900   34.744645895  137.764306014    41.0365   1  26   0.0022   0.0024   0.0048   0.0012  -0.0017  -0.0021  -0.12    3.9
2024/11/12 05:34:56.000   34.744645886  137.764306040    41.0366   1  26   0.0022   0.0024   0.0048   0.0011  -0.0017  -0.0021  -0.02    3.9
2024/11/12 05:34:56.100   34.744645881  137.764306023    41.0379   1  26   0.0022   0.0024   0.0048   0.0012  -0.0017  -0.0021   0.08    3.9
2024/11/12 05:34:56.200   34.744645891  137.764306025    41.0360   1  26   0.0022   0.0024   0.0048   0.0012  -0.0017  -0.0021   0.18    4.0
2024/11/12 05:34:56.300   34.744645876  137.764306009    41.0388   1  26   0.0022   0.0024   0.0048   0.0012  -0.0017  -0.0021   0.28    4.0
2024/11/12 05:34:56.400   34.744645882  137.764306006    41.0379   1  26   0.0022   0.0024   0.0049   0.0012  -0.0017  -0.0021   0.38    4.0
2024/11/12 05:34:56.500   34.744645878  137.764306012    41.0392   1  26   0.0022   0.0024   0.0049   0.0012  -0.0018  -0.0021   0.48    4.0
2024/11/12 05:34:56.600   34.744645894  137.764306043    41.0339   1  26   0.0022   0.0024   0.0049   0.0012  -0.0017  -0.0021  -0.42    4.1
2024/11/12 05:34:56.700   34.744645901  137.764306035    41.0328   1  26   0.0022   0.0024   0.0049   0.0012  -0.0017  -0.0021  -0.32    4.1
2024/11/12 05:34:56.800   34.744645896  137.764306030    41.0325   1  26   0.0022   0.0024   0.0048   0.0012  -0.0017  -0.0021  -0.22    4.1
2024/11/12 05:34:56.900   34.744645895  137.764306034    41.0322   1  26   0.0022   0.0024   0.0048   0.0012  -0.0017  -0.0021  -0.12    4.2
2024/11/12 05:34:57.000   34.744645913  137.764306043    41.0332   1  26   0.0022   0.0024   0.0048   0.0012  -0.0017  -0.0021  -0.02    3.0
2024/11/12 05:34:57.100   34.744645889  137.764306017    41.0366   1  26   0.0022   0.0024   0.0048   0.0012  -0.0017  -0.0021   0.08    3.0
2024/11/12 05:34:57.200   34.744645895  137.764306018    41.0380   1  26   0.0022   0.0024   0.0048   0.0012  -0.0017  -0.0021   0.18    3.1
2024/11/12 05:34:57.300   34.744645904  137.764306026    41.0357   1  26   0.0022   0.0024   0.0048   0.0012  -0.0017  -0.0021   0.28    3.1
2024/11/12 05:34:57.400   34.744645900  137.764306013    41.0377   1  26   0.0022   0.0024   0.0049   0.0012  -0.0017  -0.0021   0.38    3.1
2024/11/12 05:34:57.500   34.744645904  137.764306026    41.0371   1  26   0.0022   0.0024   0.0049   0.0012  -0.0017  -0.0021   0.48    3.1
2024/11/12 05:34:57.600   34.744645912  137.764306021    41.0322   1  26   0.0022   0.0024   0.0049   0.0012  -0.0017  -0.0021  -0.42    3.1
2024/11/12 05:34:57.700   34.744645908  137.764306028    41.0352   1  26   0.0022   0.0024   0.0048   0.0012  -0.0017  -0.0021  -0.32    3.2
2024/11/12 05:34:57.800   34.744645902  137.764306018    41.0342   1  26   0.0022   0.0024   0.0048   0.0012  -0.0017  -0.0021  -0.22    3.2
2024/11/12 05:34:57.900   34.744645905  137.764306022    41.0362   1  26   0.0022   0.0024   0.0048   0.0012  -0.0017  -0.0021  -0.12    3.2
2024/11/12 05:34:58.000   34.744645901  137.764306012    41.0368   1  26   0.0022   0.0024   0.0048   0.0012  -0.0017  -0.0021  -0.02    3.2
2024/11/12 05:34:58.100   34.744645913  137.764306029    41.0346   1  26   0.0022   0.0024   0.0048   0.0012  -0.0017  -0.0021   0.08    3.2
2024/11/12 05:34:58.200   34.744645900  137.764306008    41.0374   1  26   0.0022   0.0024   0.0048   0.0012  -0.0017  -0.0021   0.18    3.2
2024/11/12 05:34:58.300   34.744645892  137.764306003    41.0401   1  26   0.0022   0.0024   0.0048   0.0012  -0.0017  -0.0021   0.28    3.3
2024/11/12 05:34:58.400   34.744645894  137.764306002    41.0400   1  26   0.0022   0.0024   0.0049   0.0012  -0.0017  -0.0021   0.38    3.3
