% program   : RTKPOST demo5 b34j
% inp file  : C:\Users\cs21014\Documents\Kitani\241112hyod\src\08\GNSS_MT\gnss0\ubx\241112_15.obs
% inp file  : C:\Users\cs21014\Documents\Kitani\241112hyod\src\rtk_base\COM4___9600_241112_050705.obs
% inp file  : C:\Users\cs21014\Documents\Kitani\241112hyod\src\rtk_base\COM4___9600_241112_050705.nav
% obs start : 2024/11/12 06:32:18.0 GPST (week2340 196338.0s)
% obs end   : 2024/11/12 06:37:15.4 GPST (week2340 196635.4s)
% pos mode  : Kinematic
% freqs     : L1+L2/E5b+L5
% solution  : Combined-Phase Reset
% elev mask : 15.0 deg
% dynamics  : on
% tidecorr  : on
% ionos opt : Broadcast
% tropo opt : Saastamoinen
% ephemeris : Broadcast
% navi sys  : GPS GLONASS Galileo QZSS BDS NavIC
% amb res   : Fix and Hold
% amb glo   : Fix and Hold
% val thres : 3.0
% antenna1  :                       ( 0.0000  0.0000  0.0000)
% antenna2  :                       ( 0.0000  0.0000  0.0000)
% ref pos   : 34.744454383  137.764618776    40.7897
%
% (lat/lon/height=WGS84/ellipsoidal,Q=1:fix,2:float,3:sbas,4:dgps,5:single,6:ppp,ns=# of satellites)
%  GPST                  latitude(deg) longitude(deg)  height(m)   Q  ns   sdn(m)   sde(m)   sdu(m)  sdne(m)  sdeu(m)  sdun(m) age(s)  ratio
2024/11/12 06:32:18.000   34.744632541  137.764301357    41.0062   1  24   0.0030   0.0031   0.0086   0.0008  -0.0026  -0.0032  -0.01    3.7
2024/11/12 06:32:18.100   34.744632542  137.764301364    41.0027   1  24   0.0030   0.0031   0.0086   0.0008  -0.0026  -0.0032   0.09    3.7
2024/11/12 06:32:18.200   34.744632548  137.764301364    41.0033   1  24   0.0030   0.0031   0.0086   0.0008  -0.0026  -0.0032   0.19    3.7
2024/11/12 06:32:18.300   34.744632537  137.764301365    41.0081   1  24   0.0030   0.0031   0.0086   0.0008  -0.0026  -0.0032   0.29    3.7
2024/11/12 06:32:18.400   34.744632536  137.764301360    41.0059   1  24   0.0030   0.0031   0.0086   0.0008  -0.0026  -0.0033   0.39    3.7
2024/11/12 06:32:18.500   34.744632542  137.764301362    41.0051   1  24   0.0030   0.0031   0.0086   0.0008  -0.0026  -0.0033   0.49    3.7
2024/11/12 06:32:18.600   34.744632545  137.764301365    41.0027   1  24   0.0030   0.0031   0.0086   0.0008  -0.0026  -0.0033  -0.41    3.7
2024/11/12 06:32:18.700   34.744632531  137.764301366    41.0040   1  24   0.0030   0.0031   0.0086   0.0008  -0.0026  -0.0032  -0.31    3.7
2024/11/12 06:32:18.800   34.744632533  137.764301364    41.0043   1  24   0.0030   0.0031   0.0086   0.0008  -0.0026  -0.0032  -0.21    3.7
2024/11/12 06:32:18.900   34.744632536  137.764301369    41.0027   1  24   0.0030   0.0031   0.0086   0.0008  -0.0026  -0.0032  -0.11    3.7
2024/11/12 06:32:19.000   34.744632540  137.764301367    41.0037   1  24   0.0030   0.0031   0.0086   0.0008  -0.0026  -0.0032  -0.01    3.6
2024/11/12 06:32:19.100   34.744632543  137.764301366    41.0025   1  24   0.0030   0.0031   0.0086   0.0008  -0.0026  -0.0032   0.09    3.6
2024/11/12 06:32:19.200   34.744632536  137.764301369    41.0030   1  24   0.0030   0.0031   0.0086   0.0008  -0.0026  -0.0032   0.19    3.6
2024/11/12 06:32:19.300   34.744632542  137.764301368    41.0063   1  24   0.0030   0.0031   0.0086   0.0008  -0.0026  -0.0032   0.29    3.6
2024/11/12 06:32:19.400   34.744632524  137.764301365    41.0070   1  24   0.0030   0.0031   0.0086   0.0008  -0.0026  -0.0033   0.39    3.6
2024/11/12 06:32:19.500   34.744632533  137.764301367    41.0051   1  24   0.0030   0.0031   0.0086   0.0008  -0.0026  -0.0033   0.49    3.6
2024/11/12 06:32:19.600   34.744632558  137.764301365    40.9960   1  24   0.0030   0.0031   0.0086   0.0008  -0.0026  -0.0033  -0.41    3.6
2024/11/12 06:32:19.700   34.744632547  137.764301377    40.9968   1  24   0.0030   0.0031   0.0086   0.0008  -0.0026  -0.0032  -0.31    3.6
2024/11/12 06:32:19.800   34.744632547  137.764301363    40.9996   1  24   0.0030   0.0031   0.0086   0.0008  -0.0026  -0.0032  -0.21    3.6
2024/11/12 06:32:19.900   34.744632551  137.764301366    41.0002   1  24   0.0030   0.0031   0.0086   0.0008  -0.0026  -0.0032  -0.11    3.6
2024/11/12 06:32:20.000   34.744632538  137.764301371    41.0031   1  24   0.0030   0.0031   0.0086   0.0008  -0.0026  -0.0032  -0.01    3.6
2024/11/12 06:32:20.100   34.744632545  137.764301360    41.0019   1  24   0.0030   0.0031   0.0086   0.0008  -0.0026  -0.0032   0.09    3.6
2024/11/12 06:32:20.200   34.744632541  137.764301365    41.0029   1  24   0.0030   0.0031   0.0086   0.0008  -0.0026  -0.0032   0.19    3.6
2024/11/12 06:32:20.300   34.744632537  137.764301371    41.0013   1  24   0.0030   0.0031   0.0086   0.0008  -0.0026  -0.0032   0.29    3.6
2024/11/12 06:32:20.400   34.744632542  137.764301369    41.0045   1  24   0.0030   0.0031   0.0086   0.0008  -0.0026  -0.0033   0.39    3.5
2024/11/12 06:32:20.500   34.744632539  137.764301363    41.0045   1  24   0.0030   0.0031   0.0086   0.0008  -0.0026  -0.0033   0.49    3.5
2024/11/12 06:32:20.600   34.744632538  137.764301370    41.0047   1  24   0.0030   0.0031   0.0086   0.0008  -0.0026  -0.0033  -0.41    3.5
2024/11/12 06:32:20.700   34.744632548  137.764301361    41.0022   1  24   0.0030   0.0031   0.0086   0.0008  -0.0026  -0.0032  -0.31    3.5
2024/11/12 06:32:20.800   34.744632550  137.764301359    41.0023   1  24   0.0030   0.0031   0.0086   0.0008  -0.0026  -0.0032  -0.21    3.5
2024/11/12 06:32:20.900   34.744632536  137.764301366    41.0037   1  24   0.0030   0.0031   0.0086   0.0008  -0.0026  -0.0032  -0.11    3.5
2024/11/12 06:32:21.000   34.744632547  137.764301368    41.0041   1  24   0.0030   0.0031   0.0086   0.0008  -0.0026  -0.0032  -0.01    3.5
2024/11/12 06:32:21.100   34.744632544  137.764301362    41.0062   1  24   0.0030   0.0031   0.0086   0.0008  -0.0026  -0.0032   0.09    3.5
2024/11/12 06:32:21.200   34.744632537  137.764301359    41.0070   1  24   0.0030   0.0031   0.0086   0.0008  -0.0026  -0.0032   0.19    3.5
2024/11/12 06:32:21.300   34.744632539  137.764301370    41.0067   1  24   0.0030   0.0031   0.0086   0.0008  -0.0026  -0.0033   0.29    3.5
2024/11/12 06:32:21.400   34.744632539  137.764301365    41.0058   1  24   0.0021   0.0022   0.0061   0.0005  -0.0018  -0.0023   0.39    6.2
2024/11/12 06:32:21.500   34.744632540  137.764301373    41.0051   1  24   0.0022   0.0022   0.0061   0.0005  -0.0018  -0.0023   0.49    6.2
2024/11/12 06:32:21.600   34.744632546  137.764301363    41.0003   1  24   0.0021   0.0022   0.0061   0.0005  -0.0018  -0.0023  -0.41    6.2
2024/11/12 06:32:21.700   34.744632549  137.764301367    40.9999   1  24   0.0021   0.0022   0.0061   0.0005  -0.0018  -0.0023  -0.31    6.2
2024/11/12 06:32:21.800   34.744632552  137.764301369    40.9996   1  24   0.0021   0.0022   0.0060   0.0005  -0.0018  -0.0023  -0.21    6.2
2024/11/12 06:32:21.900   34.744632549  137.764301360    41.0025   1  24   0.0021   0.0022   0.0060   0.0005  -0.0018  -0.0023  -0.11    6.3
2024/11/12 06:32:22.000   34.744632550  137.764301361    41.0030   1  24   0.0021   0.0022   0.0060   0.0005  -0.0018  -0.0023  -0.01    6.3
2024/11/12 06:32:22.100   34.744632549  137.764301357    41.0035   1  24   0.0021   0.0022   0.0060   0.0005  -0.0018  -0.0023   0.09    6.3
2024/11/12 06:32:22.200   34.744632550  137.764301358    41.0042   1  24   0.0021   0.0022   0.0060   0.0005  -0.0018  -0.0023   0.19    6.3
2024/11/12 06:32:22.300   34.744632556  137.764301362    41.0035   1  24   0.0021   0.0022   0.0060   0.0005  -0.0018  -0.0023   0.29    6.3
2024/11/12 06:32:22.400   34.744632541  137.764301367    41.0044   1  24   0.0021   0.0022   0.0060   0.0005  -0.0018  -0.0023   0.39    6.3
2024/11/12 06:32:22.500   34.744632553  137.764301366    41.0029   1  24   0.0021   0.0022   0.0061   0.0005  -0.0018  -0.0023   0.49    6.3
2024/11/12 06:32:22.600   34.744632561  137.764301379    41.0018   1  24   0.0021   0.0022   0.0060   0.0005  -0.0018  -0.0023  -0.41    6.3
2024/11/12 06:32:22.700   34.744632546  137.764301380    41.0022   1  24   0.0021   0.0022   0.0060   0.0005  -0.0018  -0.0023  -0.31    6.3
2024/11/12 06:32:22.800   34.744632552  137.764301368    41.0010   1  24   0.0021   0.0022   0.0060   0.0005  -0.0018  -0.0023  -0.21    6.3
2024/11/12 06:32:22.900   34.744632553  137.764301378    41.0020   1  24   0.0021   0.0022   0.0060   0.0005  -0.0018  -0.0023  -0.11    6.3
2024/11/12 06:32:23.000   34.744632558  137.764301371    41.0029   1  24   0.0021   0.0022   0.0060   0.0005  -0.0018  -0.0023  -0.01    6.3
2024/11/12 06:32:23.100   34.744632539  137.764301378    41.0052   1  24   0.0021   0.0022   0.0060   0.0005  -0.0018  -0.0023   0.09    6.4
2024/11/12 06:32:23.200   34.744632544  137.764301366    41.0039   1  24   0.0021   0.0022   0.0060   0.0005  -0.0018  -0.0023   0.19    6.4
2024/11/12 06:32:23.300   34.744632553  137.764301369    41.0035   1  24   0.0021   0.0022   0.0060   0.0005  -0.0018  -0.0023   0.29    6.4
2024/11/12 06:32:23.400   34.744632543  137.764301373    41.0049   1  24   0.0021   0.0022   0.0060   0.0005  -0.0018  -0.0023   0.39    6.6
2024/11/12 06:32:23.500   34.744632551  137.764301369    41.0028   1  24   0.0021   0.0022   0.0061   0.0005  -0.0018  -0.0023   0.49    6.6
2024/11/12 06:32:23.600   34.744632545  137.764301363    41.0042   1  24   0.0021   0.0022   0.0060   0.0005  -0.0018  -0.0023  -0.41    6.6
2024/11/12 06:32:23.700   34.744632538  137.764301368    41.0038   1  24   0.0021   0.0022   0.0060   0.0005  -0.0018  -0.0023  -0.31    6.6
2024/11/12 06:32:23.800   34.744632541  137.764301358    41.0056   1  24   0.0021   0.0022   0.0060   0.0005  -0.0018  -0.0023  -0.21    6.6
2024/11/12 06:32:23.900   34.744632536  137.764301368    41.0052   1  24   0.0021   0.0022   0.0060   0.0005  -0.0018  -0.0023  -0.11    6.6
2024/11/12 06:32:24.000   34.744632537  137.764301363    41.0031   1  24   0.0021   0.0022   0.0060   0.0005  -0.0018  -0.0023  -0.01    6.6
2024/11/12 06:32:24.100   34.744632536  137.764301370    41.0028   1  24   0.0021   0.0022   0.0060   0.0005  -0.0018  -0.0023   0.09    6.6
2024/11/12 06:32:24.200   34.744632543  137.764301368    41.0039   1  24   0.0021   0.0022   0.0060   0.0005  -0.0018  -0.0023   0.19    6.6
2024/11/12 06:32:24.300   34.744632552  137.764301360    41.0054   1  24   0.0021   0.0022   0.0060   0.0005  -0.0018  -0.0023   0.29    6.6
2024/11/12 06:32:24.400   34.744632542  137.764301359    41.0051   1  24   0.0021   0.0022   0.0060   0.0005  -0.0018  -0.0023   0.39    6.6
2024/11/12 06:32:24.500   34.744632537  137.764301367    41.0075   1  24   0.0021   0.0022   0.0061   0.0005  -0.0018  -0.0023   0.49    6.6
2024/11/12 06:32:24.600   34.744632541  137.764301367    41.0063   1  24   0.0021   0.0022   0.0060   0.0005  -0.0018  -0.0023  -0.41    6.7
2024/11/12 06:32:24.700   34.744632546  137.764301369    41.0051   1  24   0.0021   0.0022   0.0060   0.0005  -0.0018  -0.0023  -0.31    6.7
2024/11/12 06:32:24.800   34.744632532  137.764301364    41.0088   1  24   0.0021   0.0022   0.0060   0.0005  -0.0018  -0.0023  -0.21    6.7
2024/11/12 06:32:24.900   34.744632545  137.764301369    41.0061   1  24   0.0021   0.0022   0.0060   0.0005  -0.0018  -0.0023  -0.11    6.7
2024/11/12 06:32:25.000   34.744632552  137.764301359    41.0056   1  24   0.0021   0.0022   0.0060   0.0005  -0.0018  -0.0023  -0.01    6.7
2024/11/12 06:32:25.100   34.744632551  137.764301365    41.0055   1  24   0.0021   0.0022   0.0060   0.0005  -0.0018  -0.0023   0.09    6.8
2024/11/12 06:32:25.200   34.744632551  137.764301373    41.0044   1  24   0.0021   0.0022   0.0060   0.0005  -0.0018  -0.0023   0.19    6.8
2024/11/12 06:32:25.300   34.744632556  137.764301366    41.0037   1  24   0.0021   0.0022   0.0060   0.0005  -0.0018  -0.0023   0.29    6.8
2024/11/12 06:32:25.400   34.744632551  137.764301372    41.0033   1  24   0.0021   0.0022   0.0060   0.0005  -0.0018  -0.0023   0.39    6.8
2024/11/12 06:32:25.500   34.744632553  137.764301372    41.0035   1  24   0.0021   0.0022   0.0061   0.0005  -0.0018  -0.0023   0.49    6.8
2024/11/12 06:32:25.600   34.744632545  137.764301359    41.0022   1  24   0.0021   0.0022   0.0060   0.0005  -0.0018  -0.0023  -0.41    6.8
2024/11/12 06:32:25.700   34.744632538  137.764301364    41.0029   1  24   0.0021   0.0022   0.0060   0.0005  -0.0018  -0.0023  -0.31    6.8
2024/11/12 06:32:25.800   34.744632538  137.764301363    41.0035   1  24   0.0021   0.0022   0.0060   0.0005  -0.0018  -0.0023  -0.21    6.8
2024/11/12 06:32:25.900   34.744632539  137.764301360    41.0042   1  24   0.0021   0.0022   0.0060   0.0005  -0.0018  -0.0023  -0.11    6.9
2024/11/12 06:32:26.000   34.744632545  137.764301362    41.0034   1  24   0.0021   0.0022   0.0060   0.0005  -0.0018  -0.0023  -0.01    6.9
2024/11/12 06:32:26.100   34.744632535  137.764301362    41.0050   1  24   0.0021   0.0022   0.0060   0.0005  -0.0018  -0.0023   0.09    6.9
2024/11/12 06:32:26.200   34.744632535  137.764301362    41.0048   1  24   0.0021   0.0022   0.0060   0.0005  -0.0018  -0.0023   0.19    6.9
2024/11/12 06:32:26.300   34.744632535  137.764301364    41.0046   1  24   0.0021   0.0022   0.0060   0.0005  -0.0018  -0.0023   0.29    6.9
2024/11/12 06:32:26.400   34.744632533  137.764301352    41.0070   1  24   0.0021   0.0022   0.0060   0.0005  -0.0018  -0.0023   0.39    6.9
2024/11/12 06:32:26.500   34.744632541  137.764301373    41.0043   1  24   0.0021   0.0022   0.0061   0.0005  -0.0018  -0.0023   0.49    6.9
2024/11/12 06:32:26.600   34.744632563  137.764301372    40.9990   1  24   0.0021   0.0022   0.0060   0.0005  -0.0018  -0.0023  -0.41    6.9
2024/11/12 06:32:26.700   34.744632554  137.764301360    40.9995   1  24   0.0021   0.0022   0.0060   0.0005  -0.0018  -0.0023  -0.31    6.9
2024/11/12 06:32:26.800   34.744632559  137.764301366    40.9983   1  24   0.0021   0.0022   0.0060   0.0005  -0.0018  -0.0023  -0.21    6.9
2024/11/12 06:32:26.900   34.744632561  137.764301366    40.9989   1  24   0.0021   0.0022   0.0060   0.0005  -0.0018  -0.0023  -0.11    6.9
2024/11/12 06:32:27.000   34.744632553  137.764301368    41.0007   1  24   0.0021   0.0022   0.0060   0.0005  -0.0018  -0.0023  -0.01    6.9
2024/11/12 06:32:27.100   34.744632553  137.764301375    41.0008   1  24   0.0021   0.0022   0.0060   0.0005  -0.0018  -0.0023   0.09    6.9
2024/11/12 06:32:27.200   34.744632552  137.764301357    41.0036   1  24   0.0021   0.0022   0.0060   0.0005  -0.0018  -0.0023   0.19    6.9
2024/11/12 06:32:27.300   34.744632547  137.764301363    41.0036   1  24   0.0021   0.0022   0.0060   0.0005  -0.0018  -0.0023   0.29    6.9
2024/11/12 06:32:27.400   34.744632552  137.764301371    41.0034   1  24   0.0021   0.0022   0.0060   0.0005  -0.0018  -0.0023   0.39    7.0
2024/11/12 06:32:27.500   34.744632552  137.764301367    41.0025   1  24   0.0021   0.0022   0.0061   0.0005  -0.0018  -0.0023   0.49    7.0
2024/11/12 06:32:27.600   34.744632529  137.764301374    41.0017   1  24   0.0021   0.0022   0.0060   0.0005  -0.0018  -0.0023  -0.41    7.0
2024/11/12 06:32:27.700   34.744632531  137.764301370    41.0027   1  24   0.0021   0.0022   0.0060   0.0005  -0.0018  -0.0023  -0.31    7.0
2024/11/12 06:32:27.800   34.744632538  137.764301371    40.9993   1  24   0.0021   0.0022   0.0060   0.0005  -0.0018  -0.0023  -0.21    7.0
2024/11/12 06:32:27.900   34.744632539  137.764301362    41.0010   1  24   0.0021   0.0022   0.0060   0.0005  -0.0018  -0.0023  -0.11    7.0
2024/11/12 06:32:28.000   34.744632539  137.764301365    41.0021   1  24   0.0021   0.0022   0.0060   0.0005  -0.0018  -0.0023  -0.01    7.0
2024/11/12 06:32:28.100   34.744632523  137.764301374    41.0049   1  24   0.0021   0.0022   0.0060   0.0005  -0.0018  -0.0023   0.09    7.0
2024/11/12 06:32:28.200   34.744632524  137.764301363    41.0047   1  24   0.0021   0.0022   0.0060   0.0005  -0.0018  -0.0023   0.19    7.0
2024/11/12 06:32:28.300   34.744632529  137.764301370    41.0039   1  24   0.0021   0.0022   0.0060   0.0005  -0.0018  -0.0023   0.29    7.0
2024/11/12 06:32:28.400   34.744632521  137.764301368    41.0068   1  24   0.0021   0.0022   0.0060   0.0005  -0.0018  -0.0023   0.39    7.0
2024/11/12 06:32:28.500   34.744632536  137.764301368    41.0047   1  24   0.0021   0.0022   0.0061   0.0005  -0.0018  -0.0023   0.49    7.0
2024/11/12 06:32:28.600   34.744632554  137.764301363    40.9968   1  24   0.0021   0.0022   0.0060   0.0005  -0.0018  -0.0023  -0.41    7.0
2024/11/12 06:32:28.700   34.744632559  137.764301360    40.9965   1  24   0.0021   0.0022   0.0060   0.0005  -0.0018  -0.0023  -0.31    7.0
2024/11/12 06:32:28.800   34.744632558  137.764301368    40.9949   1  24   0.0021   0.0022   0.0060   0.0005  -0.0018  -0.0023  -0.21    7.0
2024/11/12 06:32:28.900   34.744632555  137.764301359    40.9959   1  24   0.0021   0.0022   0.0060   0.0005  -0.0018  -0.0023  -0.11    7.0
2024/11/12 06:32:29.000   34.744632562  137.764301361    40.9969   1  24   0.0021   0.0022   0.0060   0.0005  -0.0018  -0.0023  -0.01    7.0
2024/11/12 06:32:29.100   34.744632554  137.764301356    41.0000   1  24   0.0021   0.0022   0.0060   0.0005  -0.0018  -0.0023   0.09    7.0
2024/11/12 06:32:29.200   34.744632545  137.764301353    40.9998   1  24   0.0021   0.0022   0.0060   0.0005  -0.0018  -0.0023   0.19    7.0
2024/11/12 06:32:29.300   34.744632554  137.764301365    40.9987   1  24   0.0021   0.0022   0.0060   0.0005  -0.0018  -0.0023   0.29    7.0
2024/11/12 06:32:29.400   34.744632553  137.764301358    40.9983   1  24   0.0021   0.0022   0.0060   0.0005  -0.0018  -0.0023   0.39    7.0
2024/11/12 06:32:29.500   34.744632548  137.764301359    40.9992   1  24   0.0021   0.0022   0.0061   0.0005  -0.0018  -0.0023   0.49    7.0
2024/11/12 06:32:29.600   34.744632559  137.764301373    40.9969   1  24   0.0021   0.0022   0.0060   0.0005  -0.0018  -0.0023  -0.41    7.0
2024/11/12 06:32:29.700   34.744632554  137.764301373    40.9973   1  24   0.0021   0.0022   0.0060   0.0005  -0.0018  -0.0023  -0.31    7.0
2024/11/12 06:32:29.800   34.744632547  137.764301371    40.9988   1  24   0.0021   0.0022   0.0060   0.0005  -0.0018  -0.0023  -0.21    7.1
2024/11/12 06:32:29.900   34.744632554  137.764301373    40.9999   1  24   0.0021   0.0022   0.0060   0.0005  -0.0018  -0.0023  -0.11    7.1
2024/11/12 06:32:30.000   34.744632551  137.764301376    40.9994   1  24   0.0021   0.0022   0.0060   0.0005  -0.0018  -0.0023  -0.01    7.1
2024/11/12 06:32:30.100   34.744632552  137.764301380    40.9999   1  24   0.0021   0.0022   0.0060   0.0005  -0.0018  -0.0023   0.09    7.1
2024/11/12 06:32:30.200   34.744632542  137.764301372    41.0029   1  24   0.0021   0.0022   0.0060   0.0005  -0.0018  -0.0023   0.19    7.1
2024/11/12 06:32:30.300   34.744632550  137.764301365    41.0008   1  24   0.0021   0.0022   0.0060   0.0005  -0.0018  -0.0023   0.29    7.1
2024/11/12 06:32:30.400   34.744632545  137.764301375    41.0031   1  24   0.0021   0.0022   0.0060   0.0005  -0.0018  -0.0023   0.39    7.1
2024/11/12 06:32:30.500   34.744632553  137.764301385    41.0008   1  24   0.0021   0.0022   0.0061   0.0005  -0.0018  -0.0023   0.49    7.1
2024/11/12 06:32:30.600   34.744632549  137.764301364    40.9968   1  24   0.0021   0.0022   0.0060   0.0005  -0.0018  -0.0023  -0.41    7.1
2024/11/12 06:32:30.700   34.744632549  137.764301376    40.9955   1  24   0.0021   0.0022   0.0060   0.0005  -0.0018  -0.0023  -0.31    7.1
2024/11/12 06:32:30.800   34.744632560  137.764301360    40.9969   1  24   0.0021   0.0022   0.0060   0.0005  -0.0018  -0.0023  -0.21    7.1
2024/11/12 06:32:30.900   34.744632559  137.764301363    40.9974   1  24   0.0021   0.0022   0.0060   0.0005  -0.0018  -0.0023  -0.11    7.1
2024/11/12 06:32:31.000   34.744632549  137.764301365    40.9997   1  24   0.0021   0.0022   0.0060   0.0005  -0.0018  -0.0023  -0.01    7.1
2024/11/12 06:32:31.100   34.744632551  137.764301373    41.0003   1  24   0.0021   0.0022   0.0060   0.0005  -0.0018  -0.0023   0.09    7.1
2024/11/12 06:32:31.200   34.744632544  137.764301364    41.0023   1  24   0.0021   0.0022   0.0060   0.0005  -0.0018  -0.0023   0.19    7.1
2024/11/12 06:32:31.300   34.744632552  137.764301374    41.0003   1  24   0.0021   0.0022   0.0060   0.0005  -0.0018  -0.0023   0.29    7.1
2024/11/12 06:32:31.400   34.744632545  137.764301377    41.0009   1  24   0.0021   0.0022   0.0060   0.0005  -0.0018  -0.0023   0.39    7.1
2024/11/12 06:32:31.500   34.744632545  137.764301373    41.0024   1  24   0.0021   0.0022   0.0061   0.0005  -0.0018  -0.0023   0.49    7.1
2024/11/12 06:32:31.600   34.744632557  137.764301357    40.9958   1  24   0.0021   0.0022   0.0060   0.0005  -0.0018  -0.0023  -0.41    7.1
2024/11/12 06:32:31.700   34.744632553  137.764301365    40.9964   1  24   0.0021   0.0022   0.0060   0.0005  -0.0018  -0.0023  -0.31    7.1
2024/11/12 06:32:31.800   34.744632554  137.764301363    40.9958   1  24   0.0021   0.0022   0.0060   0.0005  -0.0018  -0.0023  -0.21    7.1
2024/11/12 06:32:31.900   34.744632555  137.764301360    40.9960   1  24   0.0021   0.0022   0.0060   0.0005  -0.0018  -0.0023  -0.11    7.1
2024/11/12 06:32:32.000   34.744632551  137.764301359    41.0000   1  24   0.0021   0.0022   0.0060   0.0005  -0.0018  -0.0023  -0.01    7.1
2024/11/12 06:32:32.100   34.744632544  137.764301356    41.0013   1  24   0.0021   0.0022   0.0060   0.0005  -0.0018  -0.0023   0.09    7.1
2024/11/12 06:32:32.200   34.744632540  137.764301358    41.0012   1  24   0.0021   0.0022   0.0060   0.0005  -0.0018  -0.0023   0.19    7.1
2024/11/12 06:32:32.300   34.744632536  137.764301356    41.0035   1  24   0.0021   0.0022   0.0060   0.0005  -0.0018  -0.0023   0.29    7.2
2024/11/12 06:32:32.400   34.744632542  137.764301349    41.0035   1  24   0.0021   0.0022   0.0060   0.0005  -0.0018  -0.0023   0.39    7.2
2024/11/12 06:32:32.500   34.744632533  137.764301365    41.0029   1  24   0.0021   0.0022   0.0061   0.0005  -0.0018  -0.0023   0.49    7.2
2024/11/12 06:32:32.600   34.744632553  137.764301373    40.9969   1  24   0.0021   0.0022   0.0060   0.0005  -0.0018  -0.0023  -0.41    7.2
2024/11/12 06:32:32.700   34.744632558  137.764301368    40.9960   1  24   0.0021   0.0022   0.0060   0.0005  -0.0018  -0.0023  -0.31    7.2
2024/11/12 06:32:32.800   34.744632549  137.764301392    40.9968   1  24   0.0021   0.0022   0.0060   0.0005  -0.0018  -0.0023  -0.21    7.2
2024/11/12 06:32:32.900   34.744632552  137.764301377    40.9968   1  24   0.0021   0.0022   0.0060   0.0005  -0.0018  -0.0023  -0.11    7.2
2024/11/12 06:32:33.000   34.744632544  137.764301368    40.9970   1  24   0.0021   0.0022   0.0060   0.0005  -0.0018  -0.0023  -0.01    7.2
2024/11/12 06:32:33.100   34.744632554  137.764301382    40.9962   1  24   0.0021   0.0022   0.0060   0.0005  -0.0018  -0.0023   0.09    7.2
2024/11/12 06:32:33.200   34.744632549  137.764301376    40.9987   1  24   0.0021   0.0022   0.0060   0.0005  -0.0018  -0.0023   0.19    7.2
2024/11/12 06:32:33.300   34.744632552  137.764301366    40.9987   1  24   0.0021   0.0022   0.0060   0.0005  -0.0018  -0.0023   0.29    7.2
2024/11/12 06:32:33.400   34.744632546  137.764301372    40.9998   1  24   0.0021   0.0022   0.0060   0.0005  -0.0018  -0.0023   0.39    7.2
2024/11/12 06:32:33.500   34.744632545  137.764301366    41.0005   1  24   0.0021   0.0022   0.0061   0.0005  -0.0018  -0.0023   0.49    7.2
2024/11/12 06:32:33.600   34.744632554  137.764301372    40.9974   1  24   0.0021   0.0022   0.0060   0.0005  -0.0018  -0.0023  -0.41    7.2
2024/11/12 06:32:33.700   34.744632555  137.764301366    40.9987   1  24   0.0021   0.0022   0.0060   0.0005  -0.0018  -0.0023  -0.31    7.2
2024/11/12 06:32:33.800   34.744632546  137.764301372    40.9996   1  24   0.0021   0.0022   0.0060   0.0005  -0.0018  -0.0023  -0.21    7.2
2024/11/12 06:32:33.900   34.744632551  137.764301369    40.9995   1  24   0.0021   0.0022   0.0060   0.0005  -0.0018  -0.0023  -0.11    7.2
2024/11/12 06:32:34.000   34.744632553  137.764301363    41.0002   1  24   0.0021   0.0022   0.0060   0.0005  -0.0018  -0.0023  -0.01    7.2
2024/11/12 06:32:34.100   34.744632541  137.764301364    41.0010   1  24   0.0021   0.0022   0.0060   0.0005  -0.0018  -0.0023   0.09    7.2
2024/11/12 06:32:34.200   34.744632549  137.764301369    41.0017   1  24   0.0021   0.0022   0.0060   0.0005  -0.0018  -0.0023   0.19    7.2
2024/11/12 06:32:34.300   34.744632543  137.764301370    41.0014   1  24   0.0021   0.0022   0.0060   0.0005  -0.0018  -0.0023   0.29    7.2
2024/11/12 06:32:34.400   34.744632543  137.764301371    41.0055   1  24   0.0021   0.0022   0.0060   0.0005  -0.0018  -0.0023   0.39    7.2
2024/11/12 06:32:34.500   34.744632540  137.764301360    41.0058   1  24   0.0021   0.0022   0.0061   0.0005  -0.0018  -0.0023   0.49    7.3
2024/11/12 06:32:34.600   34.744632558  137.764301359    40.9971   1  24   0.0021   0.0022   0.0060   0.0005  -0.0018  -0.0023  -0.41    7.3
2024/11/12 06:32:34.700   34.744632555  137.764301342    40.9980   1  24   0.0021   0.0022   0.0060   0.0005  -0.0018  -0.0023  -0.31    7.3
2024/11/12 06:32:34.800   34.744632554  137.764301348    40.9982   1  24   0.0021   0.0022   0.0060   0.0005  -0.0018  -0.0023  -0.21    7.3
2024/11/12 06:32:34.900   34.744632552  137.764301348    40.9986   1  24   0.0021   0.0022   0.0060   0.0005  -0.0018  -0.0023  -0.11    7.3
2024/11/12 06:32:35.000   34.744632544  137.764301352    41.0008   1  24   0.0021   0.0022   0.0060   0.0005  -0.0018  -0.0023  -0.01    7.3
2024/11/12 06:32:35.100   34.744632547  137.764301344    41.0016   1  24   0.0021   0.0022   0.0060   0.0005  -0.0018  -0.0023   0.09    7.3
2024/11/12 06:32:35.200   34.744632550  137.764301355    41.0030   1  24   0.0021   0.0022   0.0060   0.0005  -0.0018  -0.0023   0.19    7.3
2024/11/12 06:32:35.300   34.744632544  137.764301343    41.0040   1  24   0.0021   0.0022   0.0060   0.0005  -0.0018  -0.0023   0.29    7.3
2024/11/12 06:32:35.400   34.744632547  137.764301346    41.0019   1  24   0.0021   0.0022   0.0060   0.0005  -0.0018  -0.0023   0.39    7.3
2024/11/12 06:32:35.500   34.744632550  137.764301348    41.0023   1  24   0.0021   0.0022   0.0061   0.0005  -0.0018  -0.0023   0.49    7.3
2024/11/12 06:32:35.600   34.744632564  137.764301358    40.9996   1  24   0.0021   0.0022   0.0060   0.0005  -0.0018  -0.0023  -0.41    7.3
2024/11/12 06:32:35.700   34.744632553  137.764301356    40.9991   1  24   0.0021   0.0022   0.0060   0.0005  -0.0018  -0.0023  -0.31    7.3
2024/11/12 06:32:35.800   34.744632565  137.764301354    40.9964   1  24   0.0021   0.0022   0.0060   0.0005  -0.0018  -0.0023  -0.21    7.3
2024/11/12 06:32:35.900   34.744632561  137.764301357    40.9993   1  24   0.0021   0.0022   0.0060   0.0005  -0.0018  -0.0023  -0.11    7.3
2024/11/12 06:32:36.000   34.744632553  137.764301352    40.9999   1  24   0.0021   0.0022   0.0060   0.0005  -0.0018  -0.0023  -0.01    7.4
2024/11/12 06:32:36.100   34.744632555  137.764301353    41.0002   1  24   0.0021   0.0022   0.0060   0.0005  -0.0018  -0.0023   0.09    7.4
2024/11/12 06:32:36.200   34.744632545  137.764301363    41.0025   1  24   0.0021   0.0022   0.0060   0.0005  -0.0018  -0.0023   0.19    7.4
2024/11/12 06:32:36.300   34.744632560  137.764301355    40.9997   1  24   0.0021   0.0022   0.0060   0.0005  -0.0018  -0.0023   0.29    7.4
2024/11/12 06:32:36.400   34.744632557  137.764301350    41.0027   1  24   0.0021   0.0022   0.0060   0.0005  -0.0018  -0.0023   0.39    7.4
2024/11/12 06:32:36.500   34.744632546  137.764301347    41.0039   1  24   0.0021   0.0022   0.0061   0.0005  -0.0018  -0.0023   0.49    7.4
2024/11/12 06:32:36.600   34.744632545  137.764301350    40.9995   1  24   0.0021   0.0022   0.0060   0.0005  -0.0018  -0.0023  -0.41    7.4
2024/11/12 06:32:36.700   34.744632545  137.764301355    40.9968   1  24   0.0021   0.0022   0.0060   0.0005  -0.0018  -0.0023  -0.31    7.4
2024/11/12 06:32:36.800   34.744632540  137.764301356    41.0006   1  24   0.0021   0.0022   0.0060   0.0005  -0.0018  -0.0023  -0.21    7.4
2024/11/12 06:32:36.900   34.744632556  137.764301355    40.9957   1  24   0.0021   0.0022   0.0060   0.0005  -0.0018  -0.0023  -0.11    7.4
2024/11/12 06:32:37.000   34.744632543  137.764301355    40.9995   1  24   0.0021   0.0022   0.0060   0.0005  -0.0018  -0.0023  -0.01    7.4
2024/11/12 06:32:37.100   34.744632538  137.764301350    41.0008   1  24   0.0021   0.0022   0.0060   0.0005  -0.0018  -0.0023   0.09    7.4
2024/11/12 06:32:37.200   34.744632534  137.764301357    41.0021   1  24   0.0021   0.0022   0.0060   0.0005  -0.0018  -0.0023   0.19    7.4
2024/11/12 06:32:37.300   34.744632543  137.764301353    41.0022   1  24   0.0021   0.0022   0.0060   0.0005  -0.0018  -0.0023   0.29    7.4
2024/11/12 06:32:37.400   34.744632533  137.764301354    41.0057   1  24   0.0021   0.0022   0.0061   0.0005  -0.0018  -0.0023   0.39    7.5
2024/11/12 06:32:37.500   34.744632528  137.764301356    41.0041   1  24   0.0021   0.0022   0.0061   0.0005  -0.0018  -0.0023   0.49    7.5
2024/11/12 06:32:37.600   34.744632528  137.764301347    41.0056   1  24   0.0021   0.0022   0.0061   0.0005  -0.0018  -0.0023  -0.41    7.5
2024/11/12 06:32:37.700   34.744632526  137.764301352    41.0082   1  24   0.0021   0.0022   0.0060   0.0005  -0.0018  -0.0023  -0.31    7.5
2024/11/12 06:32:37.800   34.744632538  137.764301340    41.0044   1  24   0.0021   0.0022   0.0060   0.0005  -0.0018  -0.0023  -0.21    7.5
2024/11/12 06:32:37.900   34.744632532  137.764301352    41.0066   1  24   0.0021   0.0022   0.0060   0.0005  -0.0018  -0.0023  -0.11    7.5
2024/11/12 06:32:38.000   34.744632530  137.764301354    41.0069   1  24   0.0021   0.0022   0.0060   0.0005  -0.0018  -0.0023  -0.01    7.5
2024/11/12 06:32:38.100   34.744632526  137.764301344    41.0095   1  24   0.0021   0.0022   0.0060   0.0005  -0.0018  -0.0023   0.09    7.5
2024/11/12 06:32:38.200   34.744632520  137.764301350    41.0089   1  24   0.0021   0.0022   0.0060   0.0005  -0.0018  -0.0023   0.19    7.5
2024/11/12 06:32:38.300   34.744632530  137.764301346    41.0076   1  24   0.0021   0.0022   0.0060   0.0005  -0.0018  -0.0023   0.29    7.5
2024/11/12 06:32:38.400   34.744632527  137.764301352    41.0083   1  24   0.0021   0.0022   0.0061   0.0005  -0.0018  -0.0023   0.39    7.5
2024/11/12 06:32:38.500   34.744632520  137.764301357    41.0099   1  24   0.0021   0.0022   0.0061   0.0005  -0.0018  -0.0023   0.49    7.5
2024/11/12 06:32:38.600   34.744632534  137.764301351    41.0029   1  24   0.0021   0.0022   0.0061   0.0005  -0.0018  -0.0023  -0.41    7.5
2024/11/12 06:32:38.700   34.744632539  137.764301352    41.0044   1  24   0.0021   0.0022   0.0060   0.0005  -0.0018  -0.0023  -0.31    7.5
2024/11/12 06:32:38.800   34.744632534  137.764301362    41.0028   1  24   0.0021   0.0022   0.0060   0.0005  -0.0018  -0.0023  -0.21    7.5
2024/11/12 06:32:38.900   34.744632536  137.764301347    41.0025   1  24   0.0021   0.0022   0.0060   0.0005  -0.0018  -0.0023  -0.11    7.5
2024/11/12 06:32:39.000   34.744632532  137.764301349    41.0051   1  24   0.0021   0.0022   0.0060   0.0005  -0.0018  -0.0023  -0.01    7.5
2024/11/12 06:32:39.100   34.744632543  137.764301348    41.0047   1  24   0.0021   0.0022   0.0060   0.0005  -0.0018  -0.0023   0.09    7.5
2024/11/12 06:32:39.200   34.744632525  137.764301351    41.0058   1  24   0.0021   0.0022   0.0060   0.0005  -0.0018  -0.0023   0.19    7.5
2024/11/12 06:32:39.300   34.744632520  137.764301360    41.0088   1  24   0.0021   0.0022   0.0060   0.0005  -0.0018  -0.0023   0.29    7.5
2024/11/12 06:32:39.400   34.744632535  137.764301356    41.0076   1  24   0.0021   0.0022   0.0061   0.0005  -0.0018  -0.0023   0.39    7.5
2024/11/12 06:32:39.500   34.744632530  137.764301359    41.0055   1  24   0.0021   0.0022   0.0061   0.0005  -0.0018  -0.0023   0.49    7.5
2024/11/12 06:32:39.600   34.744632544  137.764301357    41.0029   1  24   0.0021   0.0022   0.0061   0.0005  -0.0018  -0.0023  -0.41    7.5
2024/11/12 06:32:39.700   34.744632542  137.764301355    41.0014   1  24   0.0021   0.0022   0.0060   0.0005  -0.0018  -0.0023  -0.31    7.5
2024/11/12 06:32:39.800   34.744632541  137.764301355    41.0015   1  24   0.0021   0.0022   0.0060   0.0005  -0.0018  -0.0023  -0.21    7.5
2024/11/12 06:32:39.900   34.744632541  137.764301355    41.0047   1  24   0.0021   0.0022   0.0060   0.0005  -0.0018  -0.0023  -0.11    7.5
2024/11/12 06:32:40.000   34.744632534  137.764301354    41.0068   1  24   0.0021   0.0022   0.0060   0.0005  -0.0018  -0.0023  -0.01    7.5
2024/11/12 06:32:40.100   34.744632534  137.764301348    41.0071   1  24   0.0021   0.0022   0.0060   0.0005  -0.0018  -0.0023   0.09    7.5
2024/11/12 06:32:40.200   34.744632540  137.764301351    41.0066   1  24   0.0021   0.0022   0.0060   0.0005  -0.0018  -0.0023   0.19    7.5
2024/11/12 06:32:40.300   34.744632541  137.764301354    41.0061   1  24   0.0021   0.0022   0.0060   0.0005  -0.0018  -0.0023   0.29    7.5
2024/11/12 06:32:40.400   34.744632538  137.764301338    41.0065   1  24   0.0021   0.0022   0.0061   0.0005  -0.0018  -0.0023   0.39    7.6
2024/11/12 06:32:40.500   34.744632532  137.764301358    41.0049   1  24   0.0021   0.0022   0.0061   0.0005  -0.0018  -0.0023   0.49    7.6
2024/11/12 06:32:40.600   34.744632547  137.764301357    40.9994   1  24   0.0021   0.0022   0.0061   0.0005  -0.0018  -0.0023  -0.41    7.6
2024/11/12 06:32:40.700   34.744632543  137.764301354    40.9997   1  24   0.0021   0.0022   0.0060   0.0005  -0.0018  -0.0023  -0.31    7.6
2024/11/12 06:32:40.800   34.744632546  137.764301346    41.0014   1  24   0.0021   0.0022   0.0060   0.0005  -0.0018  -0.0023  -0.21    7.6
2024/11/12 06:32:40.900   34.744632545  137.764301343    41.0008   1  24   0.0021   0.0022   0.0060   0.0005  -0.0018  -0.0023  -0.11    7.6
2024/11/12 06:32:41.000   34.744632538  137.764301356    41.0020   1  24   0.0021   0.0022   0.0060   0.0005  -0.0018  -0.0023  -0.01    7.6
2024/11/12 06:32:41.100   34.744632545  137.764301350    41.0043   1  24   0.0021   0.0022   0.0060   0.0005  -0.0018  -0.0023   0.09    7.6
2024/11/12 06:32:41.200   34.744632541  137.764301345    41.0047   1  24   0.0021   0.0022   0.0060   0.0005  -0.0018  -0.0023   0.19    7.6
2024/11/12 06:32:41.300   34.744632539  137.764301349    41.0050   1  24   0.0021   0.0022   0.0060   0.0005  -0.0018  -0.0023   0.29    7.6
2024/11/12 06:32:41.400   34.744632544  137.764301337    41.0037   1  24   0.0021   0.0022   0.0061   0.0005  -0.0018  -0.0023   0.39    7.6
2024/11/12 06:32:41.500   34.744632540  137.764301348    41.0066   1  24   0.0021   0.0022   0.0061   0.0005  -0.0018  -0.0023   0.49    7.6
2024/11/12 06:32:41.600   34.744632540  137.764301348    41.0041   1  24   0.0021   0.0022   0.0061   0.0005  -0.0018  -0.0023  -0.41    7.6
2024/11/12 06:32:41.700   34.744632541  137.764301336    41.0032   1  24   0.0021   0.0022   0.0060   0.0005  -0.0018  -0.0023  -0.31    7.6
2024/11/12 06:32:41.800   34.744632544  137.764301342    41.0029   1  24   0.0021   0.0022   0.0060   0.0005  -0.0018  -0.0023  -0.21    7.6
2024/11/12 06:32:41.900   34.744632540  137.764301341    41.0040   1  24   0.0021   0.0022   0.0060   0.0005  -0.0018  -0.0023  -0.11    7.6
2024/11/12 06:32:42.000   34.744632542  137.764301347    41.0034   1  24   0.0021   0.0022   0.0060   0.0005  -0.0018  -0.0023  -0.01    7.6
2024/11/12 06:32:42.100   34.744632537  137.764301337    41.0058   1  24   0.0021   0.0022   0.0060   0.0005  -0.0018  -0.0023   0.09    7.6
2024/11/12 06:32:42.200   34.744632526  137.764301343    41.0068   1  24   0.0021   0.0022   0.0060   0.0005  -0.0018  -0.0023   0.19    7.6
2024/11/12 06:32:42.300   34.744632529  137.764301344    41.0068   1  24   0.0021   0.0022   0.0060   0.0005  -0.0018  -0.0023   0.29    7.6
2024/11/12 06:32:42.400   34.744632531  137.764301353    41.0078   1  24   0.0021   0.0022   0.0061   0.0005  -0.0018  -0.0023   0.39    7.6
2024/11/12 06:32:42.500   34.744632522  137.764301344    41.0094   1  24   0.0021   0.0022   0.0061   0.0005  -0.0018  -0.0023   0.49    7.6
2024/11/12 06:32:42.600   34.744632528  137.764301329    41.0075   1  24   0.0021   0.0022   0.0061   0.0005  -0.0018  -0.0023  -0.41    7.6
2024/11/12 06:32:42.700   34.744632530  137.764301323    41.0039   1  24   0.0021   0.0022   0.0060   0.0005  -0.0018  -0.0023  -0.31    7.6
2024/11/12 06:32:42.800   34.744632525  137.764301341    41.0044   1  24   0.0021   0.0022   0.0060   0.0005  -0.0018  -0.0023  -0.21    7.7
2024/11/12 06:32:42.900   34.744632532  137.764301336    41.0047   1  24   0.0021   0.0022   0.0060   0.0005  -0.0018  -0.0023  -0.11    7.7
2024/11/12 06:32:43.000   34.744632532  137.764301336    41.0053   1  24   0.0021   0.0022   0.0060   0.0005  -0.0018  -0.0023  -0.01    7.7
2024/11/12 06:32:43.100   34.744632534  137.764301342    41.0041   1  24   0.0021   0.0022   0.0060   0.0005  -0.0018  -0.0023   0.09    7.7
2024/11/12 06:32:43.200   34.744632531  137.764301334    41.0053   1  24   0.0021   0.0022   0.0060   0.0005  -0.0018  -0.0023   0.19    7.7
2024/11/12 06:32:43.300   34.744632536  137.764301333    41.0063   1  24   0.0021   0.0022   0.0060   0.0005  -0.0018  -0.0023   0.29    7.7
2024/11/12 06:32:43.400   34.744632529  137.764301341    41.0066   1  24   0.0021   0.0022   0.0061   0.0005  -0.0018  -0.0023   0.39    7.7
2024/11/12 06:32:43.500   34.744632532  137.764301331    41.0066   1  24   0.0021   0.0022   0.0061   0.0005  -0.0018  -0.0023   0.49    7.7
2024/11/12 06:32:43.600   34.744632523  137.764301345    41.0062   1  24   0.0021   0.0022   0.0061   0.0005  -0.0018  -0.0023  -0.41    7.7
2024/11/12 06:32:43.700   34.744632523  137.764301333    41.0068   1  24   0.0021   0.0022   0.0060   0.0005  -0.0018  -0.0023  -0.31    7.7
2024/11/12 06:32:43.800   34.744632527  137.764301343    41.0035   1  24   0.0021   0.0022   0.0060   0.0005  -0.0018  -0.0023  -0.21    7.7
2024/11/12 06:32:43.900   34.744632530  137.764301342    41.0055   1  24   0.0021   0.0022   0.0060   0.0005  -0.0018  -0.0023  -0.11    7.7
2024/11/12 06:32:44.000   34.744632540  137.764301339    41.0033   1  24   0.0021   0.0022   0.0060   0.0005  -0.0018  -0.0023  -0.01    7.7
2024/11/12 06:32:44.100   34.744632525  137.764301342    41.0034   1  24   0.0021   0.0022   0.0060   0.0005  -0.0018  -0.0023   0.09    7.7
2024/11/12 06:32:44.200   34.744632515  137.764301340    41.0084   1  24   0.0021   0.0022   0.0060   0.0005  -0.0018  -0.0023   0.19    7.7
2024/11/12 06:32:44.300   34.744632525  137.764301339    41.0059   1  24   0.0021   0.0022   0.0060   0.0005  -0.0018  -0.0023   0.29    7.7
2024/11/12 06:32:44.400   34.744632519  137.764301343    41.0090   1  24   0.0021   0.0022   0.0061   0.0005  -0.0018  -0.0023   0.39    7.7
2024/11/12 06:32:44.500   34.744632514  137.764301339    41.0085   1  24   0.0021   0.0022   0.0061   0.0005  -0.0018  -0.0023   0.49    7.7
2024/11/12 06:32:44.600   34.744632524  137.764301340    41.0066   1  24   0.0021   0.0022   0.0061   0.0005  -0.0018  -0.0023  -0.41    7.7
2024/11/12 06:32:44.700   34.744632529  137.764301337    41.0043   1  24   0.0021   0.0022   0.0060   0.0005  -0.0018  -0.0023  -0.31    7.7
2024/11/12 06:32:44.800   34.744632528  137.764301351    41.0031   1  24   0.0021   0.0022   0.0060   0.0005  -0.0018  -0.0023  -0.21    7.7
2024/11/12 06:32:44.900   34.744632532  137.764301353    41.0032   1  24   0.0021   0.0022   0.0060   0.0005  -0.0018  -0.0023  -0.11    7.7
2024/11/12 06:32:45.000   34.744632531  137.764301345    41.0031   1  24   0.0021   0.0022   0.0060   0.0005  -0.0018  -0.0023  -0.01    7.7
2024/11/12 06:32:45.100   34.744632539  137.764301344    41.0029   1  24   0.0021   0.0022   0.0060   0.0005  -0.0018  -0.0023   0.09    7.7
2024/11/12 06:32:45.200   34.744632538  137.764301338    41.0016   1  24   0.0021   0.0022   0.0060   0.0005  -0.0018  -0.0023   0.19    7.7
2024/11/12 06:32:45.300   34.744632539  137.764301349    41.0029   1  24   0.0021   0.0022   0.0060   0.0005  -0.0018  -0.0023   0.29    7.7
2024/11/12 06:32:45.400   34.744632538  137.764301333    41.0038   1  24   0.0021   0.0022   0.0061   0.0005  -0.0018  -0.0023   0.39    7.7
2024/11/12 06:32:45.500   34.744632541  137.764301338    41.0055   1  24   0.0021   0.0022   0.0061   0.0005  -0.0018  -0.0023   0.49    7.7
2024/11/12 06:32:45.600   34.744632532  137.764301353    41.0034   1  24   0.0021   0.0022   0.0061   0.0005  -0.0018  -0.0023  -0.41    7.7
2024/11/12 06:32:45.700   34.744632537  137.764301344    41.0043   1  24   0.0021   0.0022   0.0061   0.0005  -0.0018  -0.0023  -0.31    7.7
2024/11/12 06:32:45.800   34.744632537  137.764301344    41.0037   1  24   0.0021   0.0022   0.0060   0.0005  -0.0018  -0.0023  -0.21    7.7
2024/11/12 06:32:45.900   34.744632536  137.764301343    41.0052   1  24   0.0021   0.0022   0.0060   0.0005  -0.0018  -0.0023  -0.11    7.7
2024/11/12 06:32:46.000   34.744632544  137.764301335    41.0032   1  24   0.0021   0.0022   0.0060   0.0005  -0.0018  -0.0023  -0.01    7.7
2024/11/12 06:32:46.100   34.744632535  137.764301342    41.0050   1  24   0.0021   0.0022   0.0060   0.0005  -0.0018  -0.0023   0.09    7.7
2024/11/12 06:32:46.200   34.744632547  137.764301342    41.0034   1  24   0.0021   0.0022   0.0060   0.0005  -0.0018  -0.0023   0.19    7.7
2024/11/12 06:32:46.300   34.744632542  137.764301335    41.0044   1  24   0.0021   0.0022   0.0061   0.0005  -0.0018  -0.0023   0.29    7.7
2024/11/12 06:32:46.400   34.744632529  137.764301347    41.0064   1  24   0.0021   0.0022   0.0061   0.0005  -0.0018  -0.0023   0.39    7.7
2024/11/12 06:32:46.500   34.744632536  137.764301345    41.0056   1  24   0.0021   0.0022   0.0061   0.0005  -0.0018  -0.0023   0.49    7.7
2024/11/12 06:32:46.600   34.744632541  137.764301325    41.0041   1  24   0.0021   0.0022   0.0061   0.0005  -0.0018  -0.0023  -0.41    7.7
2024/11/12 06:32:46.700   34.744632533  137.764301331    41.0044   1  24   0.0021   0.0022   0.0061   0.0005  -0.0018  -0.0023  -0.31    7.7
2024/11/12 06:32:46.800   34.744632530  137.764301325    41.0042   1  24   0.0021   0.0022   0.0060   0.0005  -0.0018  -0.0023  -0.21    7.7
2024/11/12 06:32:46.900   34.744632528  137.764301326    41.0041   1  24   0.0021   0.0022   0.0060   0.0005  -0.0018  -0.0023  -0.11    7.7
2024/11/12 06:32:47.000   34.744632526  137.764301332    41.0047   1  24   0.0021   0.0022   0.0060   0.0005  -0.0018  -0.0023  -0.01    7.7
2024/11/12 06:32:47.100   34.744632532  137.764301332    41.0060   1  24   0.0021   0.0022   0.0060   0.0005  -0.0018  -0.0023   0.09    7.7
2024/11/12 06:32:47.200   34.744632541  137.764301317    41.0053   1  24   0.0021   0.0022   0.0060   0.0005  -0.0018  -0.0023   0.19    7.7
2024/11/12 06:32:47.300   34.744632524  137.764301329    41.0073   1  24   0.0021   0.0022   0.0061   0.0005  -0.0018  -0.0023   0.29    7.7
2024/11/12 06:32:47.400   34.744632530  137.764301323    41.0085   1  24   0.0021   0.0022   0.0061   0.0005  -0.0018  -0.0023   0.39    7.7
2024/11/12 06:32:47.500   34.744632528  137.764301327    41.0065   1  24   0.0021   0.0022   0.0061   0.0005  -0.0018  -0.0023   0.49    7.7
2024/11/12 06:32:47.600   34.744632532  137.764301336    41.0021   1  24   0.0021   0.0022   0.0061   0.0005  -0.0018  -0.0023  -0.41    7.7
2024/11/12 06:32:47.700   34.744632535  137.764301335    41.0008   1  24   0.0021   0.0022   0.0061   0.0005  -0.0018  -0.0023  -0.31    7.8
2024/11/12 06:32:47.800   34.744632534  137.764301338    41.0001   1  24   0.0021   0.0022   0.0060   0.0005  -0.0018  -0.0023  -0.21    7.8
2024/11/12 06:32:47.900   34.744632525  137.764301333    41.0040   1  24   0.0021   0.0022   0.0060   0.0005  -0.0018  -0.0023  -0.11    7.8
2024/11/12 06:32:48.000   34.744632527  137.764301335    41.0029   1  24   0.0021   0.0022   0.0060   0.0005  -0.0018  -0.0023  -0.01    7.8
2024/11/12 06:32:48.100   34.744632530  137.764301334    41.0044   1  24   0.0021   0.0022   0.0060   0.0005  -0.0018  -0.0023   0.09    7.8
2024/11/12 06:32:48.200   34.744632517  137.764301329    41.0053   1  24   0.0021   0.0022   0.0060   0.0005  -0.0018  -0.0023   0.19    7.8
2024/11/12 06:32:48.300   34.744632520  137.764301345    41.0048   1  24   0.0021   0.0022   0.0061   0.0005  -0.0018  -0.0023   0.29    7.8
2024/11/12 06:32:48.400   34.744632523  137.764301338    41.0055   1  24   0.0021   0.0022   0.0061   0.0005  -0.0018  -0.0023   0.39    7.8
2024/11/12 06:32:48.500   34.744632523  137.764301331    41.0059   1  24   0.0021   0.0022   0.0061   0.0005  -0.0018  -0.0023   0.49    7.8
2024/11/12 06:32:48.600   34.744632533  137.764301340    41.0010   1  24   0.0021   0.0022   0.0061   0.0005  -0.0018  -0.0023  -0.41    7.8
2024/11/12 06:32:48.700   34.744632527  137.764301342    41.0031   1  24   0.0021   0.0022   0.0061   0.0005  -0.0018  -0.0023  -0.31    7.8
2024/11/12 06:32:48.800   34.744632528  137.764301344    41.0054   1  24   0.0021   0.0022   0.0061   0.0005  -0.0018  -0.0023  -0.21    7.8
2024/11/12 06:32:48.900   34.744632528  137.764301334    41.0040   1  24   0.0021   0.0022   0.0060   0.0005  -0.0018  -0.0023  -0.11    7.8
2024/11/12 06:32:49.000   34.744632536  137.764301345    41.0023   1  24   0.0021   0.0022   0.0060   0.0005  -0.0018  -0.0023  -0.01    7.8
2024/11/12 06:32:49.100   34.744632529  137.764301348    41.0035   1  24   0.0021   0.0022   0.0061   0.0005  -0.0018  -0.0023   0.09    7.8
2024/11/12 06:32:49.200   34.744632526  137.764301347    41.0051   1  24   0.0021   0.0022   0.0061   0.0005  -0.0018  -0.0023   0.19    7.8
2024/11/12 06:32:49.300   34.744632528  137.764301342    41.0045   1  24   0.0021   0.0022   0.0061   0.0005  -0.0018  -0.0023   0.29    7.8
2024/11/12 06:32:49.400   34.744632522  137.764301346    41.0071   1  24   0.0021   0.0022   0.0061   0.0005  -0.0018  -0.0023   0.39    7.8
2024/11/12 06:32:49.500   34.744632512  137.764301339    41.0100   1  24   0.0021   0.0022   0.0061   0.0005  -0.0018  -0.0023   0.49    7.8
2024/11/12 06:32:49.600   34.744632551  137.764301348    41.0004   1  24   0.0021   0.0022   0.0061   0.0005  -0.0018  -0.0023  -0.41    7.8
2024/11/12 06:32:49.700   34.744632547  137.764301344    41.0004   1  24   0.0021   0.0022   0.0061   0.0005  -0.0018  -0.0023  -0.31    7.8
2024/11/12 06:32:49.800   34.744632551  137.764301346    41.0016   1  24   0.0021   0.0022   0.0061   0.0005  -0.0018  -0.0023  -0.21    7.8
2024/11/12 06:32:49.900   34.744632539  137.764301348    41.0036   1  24   0.0021   0.0022   0.0061   0.0005  -0.0018  -0.0023  -0.11    7.8
2024/11/12 06:32:50.000   34.744632543  137.764301344    41.0035   1  24   0.0021   0.0022   0.0061   0.0005  -0.0018  -0.0023  -0.01    7.8
2024/11/12 06:32:50.100   34.744632543  137.764301350    41.0061   1  24   0.0021   0.0022   0.0061   0.0005  -0.0018  -0.0023   0.09    7.8
2024/11/12 06:32:50.200   34.744632541  137.764301343    41.0070   1  24   0.0021   0.0022   0.0061   0.0005  -0.0018  -0.0023   0.19    7.8
2024/11/12 06:32:50.300   34.744632535  137.764301337    41.0083   1  24   0.0021   0.0022   0.0061   0.0005  -0.0018  -0.0023   0.29    7.8
2024/11/12 06:32:50.400   34.744632535  137.764301343    41.0053   1  24   0.0021   0.0022   0.0061   0.0005  -0.0018  -0.0023   0.39    7.8
2024/11/12 06:32:50.500   34.744632549  137.764301346    41.0042   1  24   0.0021   0.0022   0.0061   0.0005  -0.0018  -0.0023   0.49    7.8
2024/11/12 06:32:50.600   34.744632530  137.764301353    41.0038   1  24   0.0021   0.0022   0.0061   0.0005  -0.0018  -0.0023  -0.41    7.8
2024/11/12 06:32:50.700   34.744632542  137.764301354    41.0046   1  24   0.0021   0.0022   0.0061   0.0005  -0.0018  -0.0023  -0.31    7.8
2024/11/12 06:32:50.800   34.744632546  137.764301359    41.0011   1  24   0.0021   0.0022   0.0061   0.0005  -0.0018  -0.0023  -0.21    7.8
2024/11/12 06:32:50.900   34.744632540  137.764301351    41.0004   1  24   0.0021   0.0022   0.0061   0.0005  -0.0018  -0.0023  -0.11    7.8
2024/11/12 06:32:51.000   34.744632548  137.764301353    41.0016   1  24   0.0021   0.0022   0.0061   0.0005  -0.0018  -0.0023  -0.01    7.8
2024/11/12 06:32:51.100   34.744632525  137.764301357    41.0056   1  24   0.0021   0.0022   0.0061   0.0005  -0.0018  -0.0023   0.09    7.8
2024/11/12 06:32:51.200   34.744632534  137.764301357    41.0057   1  24   0.0021   0.0022   0.0061   0.0005  -0.0018  -0.0023   0.19    7.8
2024/11/12 06:32:51.300   34.744632541  137.764301346    41.0065   1  24   0.0021   0.0022   0.0061   0.0005  -0.0018  -0.0023   0.29    7.8
2024/11/12 06:32:51.400   34.744632538  137.764301348    41.0075   1  24   0.0021   0.0022   0.0061   0.0005  -0.0018  -0.0023   0.39    7.8
2024/11/12 06:32:51.500   34.744632527  137.764301359    41.0073   1  24   0.0021   0.0022   0.0061   0.0005  -0.0018  -0.0023   0.49    7.8
2024/11/12 06:32:51.600   34.744632529  137.764301336    41.0073   1  24   0.0021   0.0022   0.0061   0.0005  -0.0018  -0.0023  -0.41    7.8
2024/11/12 06:32:51.700   34.744632551  137.764301333    41.0033   1  24   0.0021   0.0022   0.0061   0.0005  -0.0018  -0.0023  -0.31    7.8
2024/11/12 06:32:51.800   34.744632554  137.764301321    41.0027   1  24   0.0021   0.0022   0.0061   0.0005  -0.0018  -0.0023  -0.21    7.8
2024/11/12 06:32:51.900   34.744632542  137.764301349    41.0021   1  24   0.0021   0.0022   0.0061   0.0005  -0.0018  -0.0023  -0.11    7.8
2024/11/12 06:32:52.000   34.744632544  137.764301323    41.0027   1  24   0.0021   0.0022   0.0061   0.0005  -0.0018  -0.0023  -0.01    7.8
2024/11/12 06:32:52.100   34.744632559  137.764301342    40.9992   1  24   0.0021   0.0022   0.0061   0.0005  -0.0018  -0.0023   0.09    7.8
2024/11/12 06:32:52.200   34.744632542  137.764301329    41.0033   1  24   0.0021   0.0022   0.0061   0.0005  -0.0018  -0.0023   0.19    7.8
2024/11/12 06:32:52.300   34.744632555  137.764301324    41.0012   1  24   0.0021   0.0022   0.0061   0.0005  -0.0018  -0.0023   0.29    7.8
2024/11/12 06:32:52.400   34.744632558  137.764301337    40.9996   1  24   0.0021   0.0022   0.0061   0.0005  -0.0018  -0.0023   0.39    7.8
2024/11/12 06:32:52.500   34.744632539  137.764301340    41.0036   1  24   0.0022   0.0022   0.0061   0.0005  -0.0018  -0.0023   0.49    7.8
2024/11/12 06:32:52.600   34.744632554  137.764301330    40.9992   1  24   0.0022   0.0022   0.0061   0.0005  -0.0018  -0.0023  -0.41    7.8
2024/11/12 06:32:52.700   34.744632538  137.764301338    40.9996   1  24   0.0021   0.0022   0.0061   0.0005  -0.0018  -0.0024  -0.31    7.8
2024/11/12 06:32:52.800   34.744632536  137.764301343    41.0062   1  24   0.0021   0.0022   0.0061   0.0005  -0.0018  -0.0024  -0.21    7.8
2024/11/12 06:32:52.900   34.744632529  137.764301336    41.0076   1  24   0.0022   0.0022   0.0062   0.0005  -0.0017  -0.0024  -0.11    7.8
2024/11/12 06:32:53.000   34.744632520  137.764301339    41.0132   1  24   0.0022   0.0022   0.0062   0.0005  -0.0017  -0.0024  -0.01    7.8
2024/11/12 06:32:53.100   34.744632518  137.764301336    41.0172   1  24   0.0022   0.0022   0.0063   0.0005  -0.0017  -0.0024   0.09    7.8
2024/11/12 06:32:53.200   34.744632493  137.764301355    41.0224   1  24   0.0022   0.0022   0.0063   0.0004  -0.0017  -0.0025   0.19    7.8
2024/11/12 06:32:53.300   34.744632501  137.764301367    41.0259   1  24   0.0022   0.0022   0.0064   0.0004  -0.0017  -0.0025   0.29    7.8
2024/11/12 06:32:53.400   34.744632513  137.764301362    41.0196   1  23   0.0023   0.0022   0.0065  -0.0002  -0.0015  -0.0027   0.39    8.5
2024/11/12 06:32:53.500   34.744632530  137.764301366    41.0035   1  23   0.0022   0.0022   0.0064   0.0002  -0.0016  -0.0026   0.49    8.5
2024/11/12 06:32:53.600   34.744632574  137.764301366    40.9910   1  24   0.0022   0.0022   0.0064   0.0005  -0.0017  -0.0025  -0.41    8.5
2024/11/12 06:32:53.700   34.744632580  137.764301337    40.9883   1  24   0.0022   0.0022   0.0063   0.0005  -0.0017  -0.0024  -0.31    8.5
2024/11/12 06:32:53.800   34.744632501  137.764301452    41.0197   1  23   0.0022   0.0022   0.0063   0.0005  -0.0017  -0.0024  -0.21   13.2
2024/11/12 06:32:53.900   34.744632547  137.764301411    41.0399   1  23   0.0022   0.0022   0.0062   0.0005  -0.0017  -0.0024  -0.11   13.2
2024/11/12 06:32:54.000   34.744632588  137.764301295    41.0495   1  23   0.0021   0.0022   0.0062   0.0005  -0.0017  -0.0023  -0.01   13.2
2024/11/12 06:32:54.100   34.744632610  137.764301329    41.0692   1  24   0.0021   0.0022   0.0061   0.0005  -0.0017  -0.0023   0.09   13.1
2024/11/12 06:32:54.200   34.744632660  137.764301300    41.0677   1  24   0.0021   0.0022   0.0062   0.0005  -0.0017  -0.0023   0.19   13.0
2024/11/12 06:32:54.300   34.744632659  137.764301311    41.0662   1  24   0.0021   0.0022   0.0062   0.0005  -0.0017  -0.0023   0.29   13.0
2024/11/12 06:32:54.400   34.744632588  137.764301352    41.0418   1  23   0.0022   0.0022   0.0062   0.0005  -0.0017  -0.0023   0.39   13.4
2024/11/12 06:32:54.500   34.744632548  137.764301325    41.0231   1  24   0.0021   0.0022   0.0062   0.0005  -0.0018  -0.0023   0.49   13.0
2024/11/12 06:32:54.600   34.744632562  137.764301342    41.0084   1  24   0.0021   0.0022   0.0061   0.0005  -0.0018  -0.0023  -0.41   13.0
2024/11/12 06:32:54.700   34.744632552  137.764301341    41.0039   1  24   0.0021   0.0022   0.0061   0.0005  -0.0018  -0.0023  -0.31   13.0
2024/11/12 06:32:54.800   34.744632511  137.764301355    41.0028   1  24   0.0021   0.0022   0.0061   0.0005  -0.0018  -0.0023  -0.21   13.0
2024/11/12 06:32:54.900   34.744632497  137.764301338    41.0064   1  24   0.0021   0.0022   0.0061   0.0005  -0.0018  -0.0023  -0.11   13.1
2024/11/12 06:32:55.000   34.744632502  137.764301344    41.0101   1  24   0.0021   0.0022   0.0061   0.0005  -0.0018  -0.0023  -0.01   13.0
2024/11/12 06:32:55.100   34.744632531  137.764301349    41.0060   1  24   0.0021   0.0022   0.0061   0.0005  -0.0018  -0.0023   0.09   13.0
2024/11/12 06:32:55.200   34.744632498  137.764301332    41.0158   1  24   0.0021   0.0022   0.0061   0.0005  -0.0018  -0.0023   0.19   13.0
2024/11/12 06:32:55.300   34.744632482  137.764301367    41.0247   1  24   0.0021   0.0022   0.0061   0.0005  -0.0018  -0.0023   0.29   13.0
2024/11/12 06:32:55.400   34.744632499  137.764301355    41.0168   1  24   0.0021   0.0022   0.0061   0.0005  -0.0018  -0.0023   0.39   13.0
2024/11/12 06:32:55.500   34.744632521  137.764301335    41.0124   1  24   0.0021   0.0022   0.0061   0.0005  -0.0018  -0.0023   0.49   13.0
2024/11/12 06:32:55.600   34.744632538  137.764301341    41.0044   1  24   0.0021   0.0022   0.0061   0.0005  -0.0018  -0.0023  -0.41   13.0
2024/11/12 06:32:55.700   34.744632525  137.764301351    41.0038   1  24   0.0021   0.0022   0.0061   0.0005  -0.0018  -0.0023  -0.31   13.0
2024/11/12 06:32:55.800   34.744632534  137.764301334    41.0054   1  24   0.0021   0.0022   0.0061   0.0005  -0.0018  -0.0023  -0.21   13.0
2024/11/12 06:32:55.900   34.744632541  137.764301323    41.0037   1  24   0.0021   0.0022   0.0061   0.0005  -0.0018  -0.0023  -0.11   13.0
2024/11/12 06:32:56.000   34.744632541  137.764301334    41.0035   1  24   0.0021   0.0022   0.0061   0.0005  -0.0018  -0.0023  -0.01   13.0
2024/11/12 06:32:56.100   34.744632534  137.764301317    41.0058   1  24   0.0021   0.0022   0.0061   0.0005  -0.0018  -0.0023   0.09   13.0
2024/11/12 06:32:56.200   34.744632530  137.764301329    41.0089   1  24   0.0021   0.0022   0.0061   0.0005  -0.0018  -0.0023   0.19   13.0
2024/11/12 06:32:56.300   34.744632528  137.764301346    41.0097   1  24   0.0021   0.0022   0.0061   0.0005  -0.0018  -0.0023   0.29   13.0
2024/11/12 06:32:56.400   34.744632531  137.764301333    41.0062   1  24   0.0021   0.0022   0.0061   0.0005  -0.0018  -0.0023   0.39   13.0
2024/11/12 06:32:56.500   34.744632531  137.764301345    41.0034   1  24   0.0021   0.0022   0.0061   0.0005  -0.0018  -0.0023   0.49   13.0
2024/11/12 06:32:56.600   34.744632535  137.764301355    41.0035   1  24   0.0021   0.0022   0.0061   0.0005  -0.0018  -0.0023  -0.41   13.1
2024/11/12 06:32:56.700   34.744632543  137.764301346    41.0049   1  24   0.0021   0.0022   0.0061   0.0005  -0.0018  -0.0023  -0.31   13.1
2024/11/12 06:32:56.800   34.744632537  137.764301345    41.0063   1  24   0.0021   0.0022   0.0061   0.0005  -0.0018  -0.0023  -0.21   13.1
2024/11/12 06:32:56.900   34.744632550  137.764301352    41.0040   1  24   0.0021   0.0022   0.0061   0.0005  -0.0018  -0.0023  -0.11   13.1
2024/11/12 06:32:57.000   34.744632547  137.764301355    41.0035   1  24   0.0021   0.0022   0.0061   0.0005  -0.0018  -0.0023  -0.01   13.1
2024/11/12 06:32:57.100   34.744632545  137.764301343    41.0069   1  24   0.0021   0.0022   0.0061   0.0005  -0.0018  -0.0023   0.09   13.1
2024/11/12 06:32:57.200   34.744632551  137.764301352    41.0069   1  24   0.0021   0.0022   0.0061   0.0005  -0.0018  -0.0023   0.19   13.1
2024/11/12 06:32:57.300   34.744632547  137.764301344    41.0074   1  24   0.0021   0.0022   0.0061   0.0005  -0.0018  -0.0023   0.29   13.1
2024/11/12 06:32:57.400   34.744632545  137.764301338    41.0081   1  24   0.0021   0.0022   0.0061   0.0005  -0.0018  -0.0023   0.39   13.1
2024/11/12 06:32:57.500   34.744632540  137.764301342    41.0065   1  24   0.0021   0.0022   0.0061   0.0005  -0.0018  -0.0023   0.49   13.1
2024/11/12 06:32:57.600   34.744632533  137.764301333    41.0071   1  24   0.0021   0.0022   0.0061   0.0005  -0.0018  -0.0023  -0.41   13.1
2024/11/12 06:32:57.700   34.744632540  137.764301340    41.0070   1  24   0.0021   0.0022   0.0061   0.0005  -0.0018  -0.0023  -0.31   13.1
2024/11/12 06:32:57.800   34.744632528  137.764301334    41.0074   1  24   0.0021   0.0022   0.0061   0.0005  -0.0018  -0.0023  -0.21   13.1
2024/11/12 06:32:57.900   34.744632541  137.764301335    41.0046   1  24   0.0021   0.0022   0.0061   0.0005  -0.0018  -0.0023  -0.11   13.1
2024/11/12 06:32:58.000   34.744632539  137.764301343    41.0082   1  24   0.0021   0.0022   0.0061   0.0005  -0.0018  -0.0023  -0.01   13.1
2024/11/12 06:32:58.100   34.744632521  137.764301339    41.0071   1  24   0.0021   0.0022   0.0061   0.0005  -0.0018  -0.0023   0.09   13.1
2024/11/12 06:32:58.200   34.744632515  137.764301336    41.0096   1  24   0.0021   0.0022   0.0061   0.0005  -0.0018  -0.0023   0.19   13.1
2024/11/12 06:32:58.300   34.744632533  137.764301343    41.0083   1  24   0.0021   0.0022   0.0061   0.0005  -0.0018  -0.0023   0.29   13.0
2024/11/12 06:32:58.400   34.744632521  137.764301337    41.0104   1  24   0.0021   0.0022   0.0061   0.0005  -0.0018  -0.0023   0.39   13.1
2024/11/12 06:32:58.500   34.744632525  137.764301346    41.0048   1  24   0.0021   0.0022   0.0061   0.0005  -0.0018  -0.0023   0.49    3.1
2024/11/12 06:32:58.600   34.744632552  137.764301343    41.0024   1  24   0.0021   0.0022   0.0061   0.0005  -0.0018  -0.0023  -0.41    3.1
2024/11/12 06:32:58.700   34.744632545  137.764301327    41.0046   1  24   0.0021   0.0022   0.0061   0.0005  -0.0018  -0.0023  -0.31    3.1
2024/11/12 06:32:58.800   34.744632542  137.764301324    41.0015   1  24   0.0021   0.0022   0.0060   0.0005  -0.0018  -0.0023  -0.21    3.2
2024/11/12 06:32:58.900   34.744632547  137.764301333    41.0050   1  24   0.0021   0.0022   0.0060   0.0005  -0.0018  -0.0023  -0.11    3.2
2024/11/12 06:32:59.000   34.744632545  137.764301337    41.0034   1  24   0.0021   0.0022   0.0060   0.0005  -0.0018  -0.0023  -0.01    3.3
2024/11/12 06:32:59.100   34.744632540  137.764301334    41.0051   1  24   0.0021   0.0022   0.0060   0.0005  -0.0018  -0.0023   0.09    3.3
2024/11/12 06:32:59.200   34.744632545  137.764301322    41.0058   1  24   0.0021   0.0022   0.0060   0.0005  -0.0018  -0.0023   0.19    3.3
