% program   : RTKPOST demo5 b34j
% inp file  : C:\Users\cs21014\Documents\Kitani\241112hyod\src\06\GNSS_MT\gnss0\ubx\241112_15.obs
% inp file  : C:\Users\cs21014\Documents\Kitani\241112hyod\src\rtk_base\COM4___9600_241112_050705.obs
% inp file  : C:\Users\cs21014\Documents\Kitani\241112hyod\src\rtk_base\COM4___9600_241112_050705.nav
% obs start : 2024/11/12 06:09:18.0 GPST (week2340 194958.0s)
% obs end   : 2024/11/12 06:15:05.1 GPST (week2340 195305.1s)
% pos mode  : Kinematic
% freqs     : L1+L2/E5b+L5
% solution  : Combined-Phase Reset
% elev mask : 15.0 deg
% dynamics  : on
% tidecorr  : on
% ionos opt : Broadcast
% tropo opt : Saastamoinen
% ephemeris : Broadcast
% navi sys  : GPS GLONASS Galileo QZSS BDS NavIC
% amb res   : Fix and Hold
% amb glo   : Fix and Hold
% val thres : 3.0
% antenna1  :                       ( 0.0000  0.0000  0.0000)
% antenna2  :                       ( 0.0000  0.0000  0.0000)
% ref pos   : 34.744454383  137.764618776    40.7897
%
% (lat/lon/height=WGS84/ellipsoidal,Q=1:fix,2:float,3:sbas,4:dgps,5:single,6:ppp,ns=# of satellites)
%  GPST                  latitude(deg) longitude(deg)  height(m)   Q  ns   sdn(m)   sde(m)   sdu(m)  sdne(m)  sdeu(m)  sdun(m) age(s)  ratio
2024/11/12 06:09:18.000   34.744627532  137.764301070    40.9894   1  23   0.0032   0.0034   0.0079   0.0018  -0.0028  -0.0030  -0.02    9.6
2024/11/12 06:09:18.100   34.744627537  137.764301067    40.9877   1  23   0.0032   0.0034   0.0079   0.0018  -0.0028  -0.0031   0.08    9.6
2024/11/12 06:09:18.200   34.744627543  137.764301085    40.9879   1  23   0.0032   0.0034   0.0079   0.0018  -0.0028  -0.0031   0.18    9.6
2024/11/12 06:09:18.300   34.744627537  137.764301063    40.9873   1  23   0.0032   0.0034   0.0079   0.0018  -0.0028  -0.0031   0.28    9.6
2024/11/12 06:09:18.400   34.744627544  137.764301079    40.9846   1  23   0.0032   0.0034   0.0079   0.0018  -0.0028  -0.0031   0.38    9.5
2024/11/12 06:09:18.500   34.744627538  137.764301073    40.9868   1  23   0.0032   0.0034   0.0079   0.0018  -0.0028  -0.0031   0.48    9.5
2024/11/12 06:09:18.600   34.744627556  137.764301061    40.9839   1  23   0.0032   0.0034   0.0079   0.0018  -0.0028  -0.0031  -0.42    9.5
2024/11/12 06:09:18.700   34.744627553  137.764301059    40.9846   1  23   0.0032   0.0034   0.0079   0.0018  -0.0028  -0.0031  -0.32    9.5
2024/11/12 06:09:18.800   34.744627542  137.764301062    40.9869   1  23   0.0032   0.0034   0.0079   0.0018  -0.0028  -0.0031  -0.22    9.5
2024/11/12 06:09:18.900   34.744627550  137.764301083    40.9849   1  23   0.0032   0.0034   0.0079   0.0018  -0.0028  -0.0030  -0.12    9.5
2024/11/12 06:09:19.000   34.744627548  137.764301060    40.9844   1  23   0.0032   0.0034   0.0079   0.0018  -0.0028  -0.0030  -0.02    9.5
2024/11/12 06:09:19.100   34.744627551  137.764301070    40.9872   1  23   0.0032   0.0034   0.0079   0.0018  -0.0028  -0.0030   0.08    9.5
2024/11/12 06:09:19.200   34.744627551  137.764301069    40.9836   1  23   0.0032   0.0034   0.0078   0.0017  -0.0028  -0.0030   0.18    9.5
2024/11/12 06:09:19.300   34.744627548  137.764301064    40.9850   1  24   0.0031   0.0032   0.0075   0.0014  -0.0022  -0.0026   0.28    9.5
2024/11/12 06:09:19.400   34.744627547  137.764301060    40.9883   1  24   0.0031   0.0032   0.0075   0.0014  -0.0022  -0.0026   0.38    9.5
2024/11/12 06:09:19.500   34.744627536  137.764301049    40.9900   1  24   0.0031   0.0032   0.0075   0.0014  -0.0022  -0.0026   0.48    9.5
2024/11/12 06:09:19.600   34.744627538  137.764301043    40.9860   1  24   0.0031   0.0032   0.0075   0.0014  -0.0022  -0.0026  -0.42    9.4
2024/11/12 06:09:19.700   34.744627546  137.764301057    40.9837   1  24   0.0031   0.0032   0.0075   0.0014  -0.0022  -0.0026  -0.32    9.4
2024/11/12 06:09:19.800   34.744627534  137.764301047    40.9867   1  24   0.0031   0.0032   0.0075   0.0014  -0.0022  -0.0026  -0.22    9.4
2024/11/12 06:09:19.900   34.744627544  137.764301039    40.9861   1  24   0.0031   0.0032   0.0075   0.0014  -0.0022  -0.0026  -0.12    9.4
2024/11/12 06:09:20.000   34.744627527  137.764301040    40.9885   1  24   0.0031   0.0032   0.0075   0.0014  -0.0022  -0.0026  -0.02    9.4
2024/11/12 06:09:20.100   34.744627539  137.764301052    40.9867   1  24   0.0031   0.0032   0.0075   0.0014  -0.0022  -0.0026   0.08    9.4
2024/11/12 06:09:20.200   34.744627527  137.764301051    40.9875   1  24   0.0031   0.0032   0.0075   0.0014  -0.0022  -0.0026   0.18    9.4
2024/11/12 06:09:20.300   34.744627546  137.764301059    40.9832   1  24   0.0031   0.0032   0.0075   0.0014  -0.0022  -0.0026   0.28    9.4
2024/11/12 06:09:20.400   34.744627531  137.764301053    40.9873   1  24   0.0031   0.0032   0.0075   0.0014  -0.0022  -0.0026   0.38    9.4
2024/11/12 06:09:20.500   34.744627522  137.764301033    40.9901   1  24   0.0031   0.0032   0.0075   0.0014  -0.0023  -0.0026   0.48    9.4
2024/11/12 06:09:20.600   34.744627546  137.764301065    40.9885   1  24   0.0031   0.0032   0.0075   0.0014  -0.0023  -0.0026  -0.42    9.4
2024/11/12 06:09:20.700   34.744627533  137.764301053    40.9928   1  24   0.0031   0.0032   0.0075   0.0014  -0.0022  -0.0026  -0.32    9.4
2024/11/12 06:09:20.800   34.744627532  137.764301060    40.9916   1  24   0.0031   0.0032   0.0075   0.0014  -0.0022  -0.0026  -0.22    9.4
2024/11/12 06:09:20.900   34.744627519  137.764301033    40.9997   1  24   0.0022   0.0023   0.0053   0.0010  -0.0016  -0.0019  -0.12    3.1
2024/11/12 06:09:21.000   34.744627515  137.764301023    41.0003   1  24   0.0022   0.0022   0.0053   0.0010  -0.0016  -0.0018  -0.02    3.1
2024/11/12 06:09:21.100   34.744627515  137.764301032    40.9996   1  24   0.0022   0.0022   0.0053   0.0010  -0.0016  -0.0018   0.08    3.2
2024/11/12 06:09:21.200   34.744627516  137.764301041    40.9996   1  24   0.0022   0.0022   0.0052   0.0010  -0.0016  -0.0018   0.18    3.2
2024/11/12 06:09:21.300   34.744627507  137.764301025    41.0010   1  24   0.0022   0.0022   0.0053   0.0010  -0.0016  -0.0018   0.28    3.3
2024/11/12 06:09:21.400   34.744627512  137.764301043    40.9999   1  24   0.0022   0.0022   0.0053   0.0010  -0.0016  -0.0018   0.38    3.3
2024/11/12 06:09:21.500   34.744627509  137.764301034    41.0014   1  24   0.0022   0.0022   0.0053   0.0010  -0.0016  -0.0018   0.48    3.3
2024/11/12 06:09:21.600   34.744627516  137.764300997    40.9975   1  24   0.0022   0.0022   0.0053   0.0010  -0.0016  -0.0018  -0.42    3.3
2024/11/12 06:09:21.700   34.744627537  137.764301012    40.9940   1  24   0.0022   0.0022   0.0053   0.0010  -0.0016  -0.0018  -0.32    3.4
2024/11/12 06:09:21.800   34.744627532  137.764301017    40.9946   1  24   0.0022   0.0022   0.0052   0.0010  -0.0016  -0.0018  -0.22    3.5
2024/11/12 06:09:21.900   34.744627524  137.764301006    40.9944   1  24   0.0022   0.0022   0.0052   0.0010  -0.0016  -0.0018  -0.12    3.5
2024/11/12 06:09:22.000   34.744627516  137.764301004    40.9986   1  24   0.0022   0.0022   0.0052   0.0010  -0.0016  -0.0018  -0.02    3.5
2024/11/12 06:09:22.100   34.744627518  137.764301001    40.9979   1  24   0.0022   0.0022   0.0052   0.0010  -0.0016  -0.0018   0.08    3.5
2024/11/12 06:09:22.200   34.744627515  137.764301000    40.9987   1  24   0.0022   0.0022   0.0052   0.0010  -0.0016  -0.0018   0.18    3.6
2024/11/12 06:09:22.300   34.744627512  137.764301005    41.0001   1  24   0.0022   0.0022   0.0053   0.0010  -0.0016  -0.0018   0.28    3.6
2024/11/12 06:09:22.400   34.744627512  137.764301000    41.0014   1  24   0.0022   0.0022   0.0053   0.0010  -0.0016  -0.0018   0.38    3.6
2024/11/12 06:09:22.500   34.744627504  137.764300999    40.9995   1  24   0.0022   0.0022   0.0053   0.0010  -0.0016  -0.0018   0.48    3.6
2024/11/12 06:09:22.600   34.744627522  137.764301006    40.9976   1  24   0.0022   0.0022   0.0053   0.0010  -0.0016  -0.0018  -0.42    3.6
2024/11/12 06:09:22.700   34.744627523  137.764301010    40.9969   1  24   0.0022   0.0022   0.0053   0.0010  -0.0016  -0.0018  -0.32    3.6
2024/11/12 06:09:22.800   34.744627529  137.764301038    40.9950   1  24   0.0022   0.0022   0.0053   0.0010  -0.0016  -0.0018  -0.22    3.7
2024/11/12 06:09:22.900   34.744627518  137.764301002    40.9984   1  24   0.0022   0.0022   0.0052   0.0010  -0.0016  -0.0018  -0.12    3.8
2024/11/12 06:09:23.000   34.744627511  137.764301012    40.9978   1  24   0.0022   0.0022   0.0052   0.0010  -0.0016  -0.0018  -0.02    3.8
2024/11/12 06:09:23.100   34.744627508  137.764300998    40.9996   1  24   0.0022   0.0022   0.0052   0.0010  -0.0016  -0.0018   0.08    3.8
2024/11/12 06:09:23.200   34.744627521  137.764301024    40.9990   1  24   0.0022   0.0022   0.0053   0.0010  -0.0016  -0.0018   0.18    3.8
2024/11/12 06:09:23.300   34.744627523  137.764301018    40.9969   1  24   0.0022   0.0022   0.0053   0.0010  -0.0016  -0.0018   0.28    3.8
2024/11/12 06:09:23.400   34.744627515  137.764301002    40.9992   1  24   0.0022   0.0022   0.0053   0.0010  -0.0016  -0.0018   0.38    3.8
2024/11/12 06:09:23.500   34.744627510  137.764301015    40.9988   1  24   0.0022   0.0022   0.0053   0.0010  -0.0016  -0.0018   0.48    3.9
2024/11/12 06:09:23.600   34.744627520  137.764301012    40.9969   1  24   0.0022   0.0022   0.0053   0.0010  -0.0016  -0.0018  -0.42    3.9
2024/11/12 06:09:23.700   34.744627532  137.764301004    40.9972   1  24   0.0022   0.0022   0.0053   0.0010  -0.0016  -0.0018  -0.32    3.9
2024/11/12 06:09:23.800   34.744627515  137.764300993    40.9995   1  24   0.0022   0.0022   0.0053   0.0010  -0.0016  -0.0018  -0.22    3.9
2024/11/12 06:09:23.900   34.744627521  137.764301027    40.9966   1  24   0.0022   0.0022   0.0053   0.0010  -0.0016  -0.0018  -0.12    4.0
2024/11/12 06:09:24.000   34.744627512  137.764301011    40.9977   1  24   0.0022   0.0022   0.0053   0.0010  -0.0016  -0.0018  -0.02    4.0
2024/11/12 06:09:24.100   34.744627518  137.764300997    41.0004   1  24   0.0022   0.0022   0.0053   0.0010  -0.0016  -0.0019   0.08    4.0
2024/11/12 06:09:24.200   34.744627505  137.764301013    40.9968   1  24   0.0022   0.0022   0.0053   0.0010  -0.0016  -0.0019   0.18    3.6
2024/11/12 06:09:24.300   34.744627510  137.764301017    40.9969   1  24   0.0022   0.0022   0.0053   0.0010  -0.0016  -0.0019   0.28    3.6
2024/11/12 06:09:24.400   34.744627501  137.764300991    41.0004   1  24   0.0022   0.0023   0.0053   0.0010  -0.0016  -0.0019   0.38    3.7
2024/11/12 06:09:24.500   34.744627488  137.764301001    41.0016   1  24   0.0022   0.0023   0.0054   0.0010  -0.0017  -0.0019   0.48    3.7
2024/11/12 06:09:24.600   34.744627512  137.764301019    40.9988   1  24   0.0022   0.0023   0.0054   0.0011  -0.0017  -0.0019  -0.42    3.7
2024/11/12 06:09:24.700   34.744627498  137.764301006    41.0022   1  24   0.0022   0.0023   0.0054   0.0011  -0.0018  -0.0020  -0.32    3.7
2024/11/12 06:09:24.800   34.744627532  137.764301040    40.9917   1  23   0.0023   0.0024   0.0055   0.0012  -0.0020  -0.0021  -0.22    6.0
2024/11/12 06:09:24.900   34.744627524  137.764301036    40.9913   1  23   0.0023   0.0024   0.0056   0.0012  -0.0020  -0.0021  -0.12    6.0
2024/11/12 06:09:25.000   34.744627535  137.764301036    40.9926   1  23   0.0023   0.0024   0.0056   0.0012  -0.0020  -0.0021  -0.02    6.1
2024/11/12 06:09:25.100   34.744627540  137.764301057    40.9916   1  24   0.0023   0.0024   0.0056   0.0012  -0.0020  -0.0021   0.08    6.1
2024/11/12 06:09:25.200   34.744627537  137.764301060    40.9886   1  24   0.0023   0.0024   0.0056   0.0012  -0.0020  -0.0021   0.18    6.1
2024/11/12 06:09:25.300   34.744627544  137.764301045    40.9900   1  23   0.0023   0.0024   0.0056   0.0012  -0.0020  -0.0022   0.28    6.1
2024/11/12 06:09:25.400   34.744627542  137.764301055    40.9894   1  24   0.0023   0.0024   0.0056   0.0012  -0.0020  -0.0022   0.38    6.1
2024/11/12 06:09:25.500   34.744627552  137.764301055    40.9861   1  24   0.0023   0.0024   0.0056   0.0012  -0.0020  -0.0022   0.48    6.2
2024/11/12 06:09:25.600   34.744627535  137.764301055    40.9889   1  24   0.0023   0.0024   0.0056   0.0012  -0.0020  -0.0022  -0.42    6.2
2024/11/12 06:09:25.700   34.744627524  137.764301046    40.9924   1  24   0.0023   0.0024   0.0056   0.0012  -0.0020  -0.0021  -0.32    6.2
2024/11/12 06:09:25.800   34.744627538  137.764301044    40.9895   1  24   0.0023   0.0024   0.0056   0.0012  -0.0020  -0.0021  -0.22    6.2
2024/11/12 06:09:25.900   34.744627537  137.764301033    40.9909   1  24   0.0023   0.0024   0.0056   0.0012  -0.0020  -0.0021  -0.12    6.2
2024/11/12 06:09:26.000   34.744627536  137.764301058    40.9891   1  24   0.0023   0.0024   0.0056   0.0012  -0.0020  -0.0021  -0.02    6.3
2024/11/12 06:09:26.100   34.744627540  137.764301042    40.9881   1  24   0.0023   0.0024   0.0056   0.0012  -0.0020  -0.0021   0.08    6.3
2024/11/12 06:09:26.200   34.744627537  137.764301056    40.9889   1  24   0.0023   0.0024   0.0056   0.0012  -0.0020  -0.0021   0.18    6.3
2024/11/12 06:09:26.300   34.744627543  137.764301046    40.9890   1  24   0.0023   0.0024   0.0056   0.0012  -0.0020  -0.0021   0.28    6.3
2024/11/12 06:09:26.400   34.744627542  137.764301053    40.9885   1  24   0.0023   0.0024   0.0056   0.0012  -0.0020  -0.0022   0.38    6.3
2024/11/12 06:09:26.500   34.744627521  137.764301039    40.9910   1  24   0.0023   0.0024   0.0056   0.0012  -0.0020  -0.0022   0.48    6.3
2024/11/12 06:09:26.600   34.744627544  137.764301051    40.9884   1  24   0.0023   0.0024   0.0056   0.0012  -0.0020  -0.0022  -0.42    6.4
2024/11/12 06:09:26.700   34.744627543  137.764301053    40.9890   1  23   0.0023   0.0024   0.0056   0.0012  -0.0020  -0.0022  -0.32    6.4
2024/11/12 06:09:26.800   34.744627540  137.764301053    40.9879   1  23   0.0023   0.0024   0.0056   0.0012  -0.0020  -0.0021  -0.22    6.4
2024/11/12 06:09:26.900   34.744627533  137.764301059    40.9890   1  23   0.0023   0.0024   0.0056   0.0012  -0.0020  -0.0021  -0.12    6.4
2024/11/12 06:09:27.000   34.744627536  137.764301057    40.9903   1  24   0.0023   0.0024   0.0056   0.0012  -0.0020  -0.0021  -0.02    6.4
2024/11/12 06:09:27.100   34.744627531  137.764301053    40.9899   1  23   0.0023   0.0024   0.0055   0.0012  -0.0020  -0.0021   0.08    6.4
2024/11/12 06:09:27.200   34.744627527  137.764301054    40.9916   1  24   0.0022   0.0023   0.0054   0.0011  -0.0018  -0.0020   0.18    6.4
2024/11/12 06:09:27.300   34.744627533  137.764301051    40.9891   1  24   0.0022   0.0023   0.0054   0.0011  -0.0017  -0.0020   0.28    6.4
2024/11/12 06:09:27.400   34.744627530  137.764301060    40.9921   1  24   0.0022   0.0023   0.0054   0.0011  -0.0017  -0.0019   0.38    6.5
2024/11/12 06:09:27.500   34.744627519  137.764301054    40.9904   1  24   0.0022   0.0023   0.0053   0.0010  -0.0017  -0.0019   0.48    6.5
2024/11/12 06:09:27.600   34.744627530  137.764301039    40.9875   1  24   0.0022   0.0023   0.0053   0.0010  -0.0016  -0.0019  -0.42    6.5
2024/11/12 06:09:27.700   34.744627526  137.764301035    40.9910   1  24   0.0022   0.0023   0.0053   0.0010  -0.0016  -0.0019  -0.32    6.5
2024/11/12 06:09:27.800   34.744627527  137.764301038    40.9911   1  24   0.0022   0.0022   0.0053   0.0010  -0.0016  -0.0019  -0.22    6.5
2024/11/12 06:09:27.900   34.744627523  137.764301031    40.9927   1  24   0.0022   0.0022   0.0053   0.0010  -0.0016  -0.0019  -0.12    6.6
2024/11/12 06:09:28.000   34.744627536  137.764301054    40.9879   1  24   0.0022   0.0022   0.0053   0.0010  -0.0016  -0.0019  -0.02    6.6
2024/11/12 06:09:28.100   34.744627539  137.764301050    40.9875   1  24   0.0022   0.0022   0.0053   0.0010  -0.0016  -0.0019   0.08    6.6
2024/11/12 06:09:28.200   34.744627535  137.764301042    40.9885   1  24   0.0022   0.0022   0.0053   0.0010  -0.0016  -0.0019   0.18    6.6
2024/11/12 06:09:28.300   34.744627514  137.764301027    40.9941   1  24   0.0022   0.0022   0.0053   0.0010  -0.0016  -0.0019   0.28    6.7
2024/11/12 06:09:28.400   34.744627532  137.764301048    40.9889   1  24   0.0022   0.0023   0.0053   0.0010  -0.0016  -0.0019   0.38    6.7
2024/11/12 06:09:28.500   34.744627534  137.764301049    40.9882   1  24   0.0022   0.0023   0.0053   0.0010  -0.0016  -0.0019   0.48    6.7
2024/11/12 06:09:28.600   34.744627532  137.764301054    40.9891   1  24   0.0022   0.0023   0.0053   0.0010  -0.0016  -0.0019  -0.42    6.7
2024/11/12 06:09:28.700   34.744627532  137.764301033    40.9921   1  24   0.0022   0.0023   0.0053   0.0010  -0.0017  -0.0019  -0.32    6.7
2024/11/12 06:09:28.800   34.744627538  137.764301045    40.9890   1  24   0.0022   0.0023   0.0054   0.0010  -0.0017  -0.0019  -0.22    6.7
2024/11/12 06:09:28.900   34.744627531  137.764301052    40.9917   1  24   0.0022   0.0023   0.0054   0.0011  -0.0017  -0.0020  -0.12    6.7
2024/11/12 06:09:29.000   34.744627532  137.764301028    40.9933   1  24   0.0022   0.0023   0.0054   0.0011  -0.0018  -0.0020  -0.02    6.7
2024/11/12 06:09:29.100   34.744627536  137.764301035    40.9930   1  24   0.0022   0.0023   0.0054   0.0011  -0.0018  -0.0020   0.08    6.8
2024/11/12 06:09:29.200   34.744627543  137.764301054    40.9885   1  23   0.0023   0.0024   0.0055   0.0012  -0.0020  -0.0021   0.18    6.8
2024/11/12 06:09:29.300   34.744627541  137.764301055    40.9889   1  23   0.0023   0.0024   0.0056   0.0012  -0.0020  -0.0021   0.28    6.8
2024/11/12 06:09:29.400   34.744627547  137.764301055    40.9863   1  23   0.0023   0.0024   0.0056   0.0012  -0.0020  -0.0022   0.38    6.8
2024/11/12 06:09:29.500   34.744627549  137.764301056    40.9855   1  23   0.0023   0.0024   0.0056   0.0012  -0.0020  -0.0022   0.48    6.8
2024/11/12 06:09:29.600   34.744627537  137.764301043    40.9892   1  23   0.0023   0.0024   0.0056   0.0012  -0.0020  -0.0022  -0.42    6.8
2024/11/12 06:09:29.700   34.744627540  137.764301044    40.9892   1  23   0.0023   0.0024   0.0056   0.0012  -0.0020  -0.0022  -0.32    6.8
2024/11/12 06:09:29.800   34.744627526  137.764301050    40.9918   1  23   0.0023   0.0024   0.0056   0.0012  -0.0020  -0.0021  -0.22    6.8
2024/11/12 06:09:29.900   34.744627535  137.764301053    40.9906   1  23   0.0023   0.0024   0.0056   0.0012  -0.0020  -0.0021  -0.12    6.8
2024/11/12 06:09:30.000   34.744627523  137.764301032    40.9918   1  23   0.0023   0.0024   0.0056   0.0012  -0.0020  -0.0021  -0.02    6.9
2024/11/12 06:09:30.100   34.744627520  137.764301040    40.9936   1  23   0.0023   0.0024   0.0056   0.0012  -0.0020  -0.0021   0.08    6.9
2024/11/12 06:09:30.200   34.744627537  137.764301045    40.9898   1  23   0.0023   0.0024   0.0056   0.0012  -0.0020  -0.0021   0.18    6.9
2024/11/12 06:09:30.300   34.744627533  137.764301053    40.9893   1  23   0.0023   0.0024   0.0056   0.0012  -0.0020  -0.0022   0.28    6.9
2024/11/12 06:09:30.400   34.744627541  137.764301067    40.9876   1  23   0.0023   0.0024   0.0056   0.0012  -0.0020  -0.0022   0.38    6.9
2024/11/12 06:09:30.500   34.744627538  137.764301058    40.9892   1  23   0.0023   0.0024   0.0056   0.0012  -0.0020  -0.0022   0.48    6.9
2024/11/12 06:09:30.600   34.744627532  137.764301039    40.9893   1  23   0.0023   0.0024   0.0056   0.0012  -0.0020  -0.0022  -0.42    6.9
2024/11/12 06:09:30.700   34.744627539  137.764301050    40.9887   1  23   0.0023   0.0024   0.0056   0.0012  -0.0020  -0.0022  -0.32    6.9
2024/11/12 06:09:30.800   34.744627532  137.764301040    40.9908   1  23   0.0023   0.0024   0.0056   0.0012  -0.0020  -0.0021  -0.22    7.0
2024/11/12 06:09:30.900   34.744627525  137.764301034    40.9912   1  23   0.0023   0.0024   0.0056   0.0012  -0.0020  -0.0021  -0.12    7.0
2024/11/12 06:09:31.000   34.744627527  137.764301046    40.9914   1  23   0.0023   0.0024   0.0056   0.0012  -0.0020  -0.0021  -0.02    7.0
2024/11/12 06:09:31.100   34.744627520  137.764301045    40.9936   1  23   0.0023   0.0024   0.0056   0.0012  -0.0020  -0.0021   0.08    7.0
2024/11/12 06:09:31.200   34.744627527  137.764301048    40.9936   1  23   0.0023   0.0024   0.0056   0.0012  -0.0020  -0.0021   0.18    7.0
2024/11/12 06:09:31.300   34.744627523  137.764301047    40.9923   1  23   0.0023   0.0024   0.0056   0.0012  -0.0020  -0.0022   0.28    7.0
2024/11/12 06:09:31.400   34.744627521  137.764301047    40.9932   1  23   0.0023   0.0024   0.0056   0.0012  -0.0020  -0.0022   0.38    7.0
2024/11/12 06:09:31.500   34.744627529  137.764301053    40.9922   1  23   0.0023   0.0024   0.0056   0.0012  -0.0020  -0.0022   0.48    7.0
2024/11/12 06:09:31.600   34.744627545  137.764301043    40.9907   1  23   0.0023   0.0024   0.0056   0.0012  -0.0020  -0.0022  -0.42    7.0
2024/11/12 06:09:31.700   34.744627545  137.764301049    40.9901   1  23   0.0023   0.0024   0.0056   0.0012  -0.0020  -0.0022  -0.32    7.0
2024/11/12 06:09:31.800   34.744627554  137.764301061    40.9904   1  23   0.0023   0.0024   0.0056   0.0012  -0.0020  -0.0021  -0.22    7.1
2024/11/12 06:09:31.900   34.744627542  137.764301060    40.9914   1  23   0.0023   0.0024   0.0056   0.0012  -0.0020  -0.0021  -0.12    7.1
2024/11/12 06:09:32.000   34.744627539  137.764301053    40.9913   1  23   0.0023   0.0024   0.0056   0.0012  -0.0020  -0.0021  -0.02    7.1
2024/11/12 06:09:32.100   34.744627547  137.764301038    40.9922   1  23   0.0023   0.0024   0.0056   0.0012  -0.0020  -0.0021   0.08    7.1
2024/11/12 06:09:32.200   34.744627531  137.764301048    40.9919   1  23   0.0023   0.0024   0.0056   0.0012  -0.0020  -0.0021   0.18    7.1
2024/11/12 06:09:32.300   34.744627550  137.764301058    40.9921   1  23   0.0023   0.0024   0.0056   0.0012  -0.0020  -0.0022   0.28    7.1
2024/11/12 06:09:32.400   34.744627545  137.764301038    40.9907   1  23   0.0023   0.0024   0.0056   0.0012  -0.0020  -0.0022   0.38    7.1
2024/11/12 06:09:32.500   34.744627539  137.764301063    40.9899   1  23   0.0023   0.0024   0.0056   0.0012  -0.0020  -0.0022   0.48    7.1
2024/11/12 06:09:32.600   34.744627537  137.764301065    40.9881   1  23   0.0023   0.0024   0.0056   0.0012  -0.0020  -0.0022  -0.42    7.2
2024/11/12 06:09:32.700   34.744627532  137.764301066    40.9902   1  23   0.0023   0.0024   0.0056   0.0012  -0.0020  -0.0022  -0.32    7.2
2024/11/12 06:09:32.800   34.744627535  137.764301059    40.9892   1  23   0.0023   0.0024   0.0056   0.0012  -0.0020  -0.0021  -0.22    7.2
2024/11/12 06:09:32.900   34.744627529  137.764301060    40.9914   1  23   0.0023   0.0024   0.0056   0.0012  -0.0020  -0.0021  -0.12    7.2
2024/11/12 06:09:33.000   34.744627517  137.764301069    40.9893   1  23   0.0023   0.0024   0.0056   0.0012  -0.0020  -0.0021  -0.02    7.2
2024/11/12 06:09:33.100   34.744627522  137.764301043    40.9949   1  23   0.0023   0.0024   0.0056   0.0012  -0.0020  -0.0021   0.08    7.2
2024/11/12 06:09:33.200   34.744627520  137.764301052    40.9945   1  23   0.0023   0.0024   0.0056   0.0012  -0.0020  -0.0021   0.18    7.2
2024/11/12 06:09:33.300   34.744627521  137.764301059    40.9926   1  23   0.0023   0.0024   0.0056   0.0012  -0.0020  -0.0022   0.28    7.2
2024/11/12 06:09:33.400   34.744627506  137.764301054    40.9952   1  23   0.0023   0.0024   0.0056   0.0012  -0.0020  -0.0022   0.38    7.2
2024/11/12 06:09:33.500   34.744627514  137.764301063    40.9939   1  23   0.0023   0.0024   0.0056   0.0012  -0.0020  -0.0022   0.48    7.2
2024/11/12 06:09:33.600   34.744627540  137.764301062    40.9853   1  23   0.0023   0.0024   0.0056   0.0012  -0.0020  -0.0022  -0.42    7.2
2024/11/12 06:09:33.700   34.744627537  137.764301057    40.9871   1  23   0.0023   0.0024   0.0056   0.0012  -0.0020  -0.0022  -0.32    7.2
2024/11/12 06:09:33.800   34.744627527  137.764301056    40.9867   1  23   0.0023   0.0024   0.0056   0.0012  -0.0020  -0.0021  -0.22    7.3
2024/11/12 06:09:33.900   34.744627534  137.764301066    40.9856   1  23   0.0023   0.0024   0.0056   0.0012  -0.0020  -0.0021  -0.12    7.3
2024/11/12 06:09:34.000   34.744627540  137.764301069    40.9850   1  23   0.0023   0.0024   0.0056   0.0012  -0.0020  -0.0021  -0.02    7.3
2024/11/12 06:09:34.100   34.744627532  137.764301064    40.9862   1  23   0.0023   0.0024   0.0056   0.0012  -0.0020  -0.0021   0.08    7.3
2024/11/12 06:09:34.200   34.744627540  137.764301074    40.9865   1  23   0.0023   0.0024   0.0056   0.0012  -0.0020  -0.0021   0.18    7.3
2024/11/12 06:09:34.300   34.744627538  137.764301057    40.9867   1  23   0.0023   0.0024   0.0056   0.0012  -0.0020  -0.0022   0.28    7.3
2024/11/12 06:09:34.400   34.744627536  137.764301063    40.9857   1  23   0.0023   0.0024   0.0056   0.0012  -0.0020  -0.0022   0.38    7.3
2024/11/12 06:09:34.500   34.744627532  137.764301083    40.9850   1  23   0.0023   0.0024   0.0056   0.0012  -0.0020  -0.0022   0.48    7.3
2024/11/12 06:09:34.600   34.744627538  137.764301058    40.9873   1  23   0.0023   0.0024   0.0056   0.0012  -0.0020  -0.0022  -0.42    7.3
2024/11/12 06:09:34.700   34.744627533  137.764301052    40.9897   1  23   0.0023   0.0024   0.0056   0.0012  -0.0020  -0.0022  -0.32    7.3
2024/11/12 06:09:34.800   34.744627536  137.764301061    40.9893   1  23   0.0023   0.0024   0.0056   0.0012  -0.0020  -0.0021  -0.22    7.4
2024/11/12 06:09:34.900   34.744627524  137.764301059    40.9907   1  23   0.0023   0.0024   0.0056   0.0012  -0.0020  -0.0021  -0.12    7.4
2024/11/12 06:09:35.000   34.744627522  137.764301053    40.9928   1  23   0.0023   0.0024   0.0056   0.0012  -0.0020  -0.0021  -0.02    7.4
2024/11/12 06:09:35.100   34.744627529  137.764301062    40.9926   1  23   0.0023   0.0024   0.0056   0.0012  -0.0020  -0.0021   0.08    7.4
2024/11/12 06:09:35.200   34.744627526  137.764301063    40.9927   1  23   0.0023   0.0024   0.0056   0.0012  -0.0020  -0.0021   0.18    7.4
2024/11/12 06:09:35.300   34.744627523  137.764301054    40.9938   1  23   0.0023   0.0024   0.0056   0.0012  -0.0020  -0.0022   0.28    7.4
2024/11/12 06:09:35.400   34.744627525  137.764301048    40.9931   1  23   0.0023   0.0024   0.0056   0.0012  -0.0020  -0.0022   0.38    7.4
2024/11/12 06:09:35.500   34.744627536  137.764301054    40.9923   1  23   0.0023   0.0024   0.0056   0.0012  -0.0020  -0.0022   0.48    7.4
2024/11/12 06:09:35.600   34.744627533  137.764301062    40.9911   1  23   0.0023   0.0024   0.0056   0.0012  -0.0020  -0.0022  -0.42    7.4
2024/11/12 06:09:35.700   34.744627546  137.764301058    40.9872   1  23   0.0023   0.0024   0.0056   0.0012  -0.0020  -0.0022  -0.32    7.4
2024/11/12 06:09:35.800   34.744627540  137.764301055    40.9892   1  23   0.0023   0.0024   0.0056   0.0012  -0.0020  -0.0021  -0.22    7.4
2024/11/12 06:09:35.900   34.744627527  137.764301053    40.9914   1  23   0.0023   0.0024   0.0056   0.0012  -0.0020  -0.0021  -0.12    7.5
2024/11/12 06:09:36.000   34.744627536  137.764301056    40.9896   1  23   0.0023   0.0024   0.0056   0.0012  -0.0020  -0.0021  -0.02    7.5
2024/11/12 06:09:36.100   34.744627536  137.764301063    40.9897   1  23   0.0023   0.0024   0.0056   0.0012  -0.0020  -0.0021   0.08    7.5
2024/11/12 06:09:36.200   34.744627525  137.764301043    40.9906   1  23   0.0023   0.0024   0.0056   0.0012  -0.0020  -0.0021   0.18    7.5
2024/11/12 06:09:36.300   34.744627525  137.764301049    40.9924   1  23   0.0023   0.0024   0.0056   0.0012  -0.0020  -0.0022   0.28    7.5
2024/11/12 06:09:36.400   34.744627531  137.764301056    40.9924   1  23   0.0023   0.0024   0.0056   0.0012  -0.0020  -0.0022   0.38    7.5
2024/11/12 06:09:36.500   34.744627525  137.764301058    40.9917   1  23   0.0023   0.0024   0.0056   0.0012  -0.0020  -0.0022   0.48    7.5
2024/11/12 06:09:36.600   34.744627536  137.764301066    40.9877   1  23   0.0023   0.0024   0.0056   0.0012  -0.0020  -0.0022  -0.42    7.5
2024/11/12 06:09:36.700   34.744627533  137.764301064    40.9880   1  23   0.0023   0.0024   0.0056   0.0012  -0.0020  -0.0022  -0.32    7.5
2024/11/12 06:09:36.800   34.744627546  137.764301075    40.9863   1  23   0.0023   0.0024   0.0056   0.0012  -0.0020  -0.0021  -0.22    7.5
2024/11/12 06:09:36.900   34.744627537  137.764301076    40.9876   1  23   0.0023   0.0024   0.0056   0.0012  -0.0020  -0.0021  -0.12    7.5
2024/11/12 06:09:37.000   34.744627533  137.764301065    40.9886   1  23   0.0023   0.0024   0.0056   0.0012  -0.0020  -0.0021  -0.02    7.5
2024/11/12 06:09:37.100   34.744627521  137.764301065    40.9904   1  23   0.0023   0.0024   0.0056   0.0012  -0.0020  -0.0021   0.08    7.6
2024/11/12 06:09:37.200   34.744627522  137.764301076    40.9912   1  23   0.0023   0.0024   0.0056   0.0012  -0.0020  -0.0021   0.18    7.6
2024/11/12 06:09:37.300   34.744627526  137.764301076    40.9890   1  23   0.0023   0.0024   0.0056   0.0012  -0.0020  -0.0022   0.28    7.6
2024/11/12 06:09:37.400   34.744627524  137.764301077    40.9908   1  23   0.0023   0.0024   0.0056   0.0012  -0.0020  -0.0022   0.38    7.6
2024/11/12 06:09:37.500   34.744627510  137.764301066    40.9916   1  23   0.0023   0.0024   0.0056   0.0012  -0.0020  -0.0022   0.48    7.6
2024/11/12 06:09:37.600   34.744627541  137.764301051    40.9852   1  23   0.0023   0.0024   0.0056   0.0012  -0.0020  -0.0022  -0.42    7.6
2024/11/12 06:09:37.700   34.744627552  137.764301069    40.9841   1  23   0.0023   0.0024   0.0056   0.0012  -0.0020  -0.0022  -0.32    7.6
2024/11/12 06:09:37.800   34.744627545  137.764301070    40.9845   1  23   0.0023   0.0024   0.0056   0.0012  -0.0020  -0.0021  -0.22    7.6
2024/11/12 06:09:37.900   34.744627543  137.764301067    40.9861   1  23   0.0023   0.0024   0.0056   0.0012  -0.0020  -0.0021  -0.12    7.6
2024/11/12 06:09:38.000   34.744627548  137.764301071    40.9837   1  23   0.0023   0.0024   0.0056   0.0012  -0.0020  -0.0021  -0.02    7.6
2024/11/12 06:09:38.100   34.744627544  137.764301077    40.9858   1  23   0.0023   0.0024   0.0056   0.0012  -0.0020  -0.0021   0.08    7.7
2024/11/12 06:09:38.200   34.744627539  137.764301062    40.9850   1  23   0.0023   0.0024   0.0056   0.0012  -0.0020  -0.0021   0.18    7.7
2024/11/12 06:09:38.300   34.744627543  137.764301079    40.9865   1  23   0.0023   0.0024   0.0056   0.0012  -0.0020  -0.0022   0.28    7.7
2024/11/12 06:09:38.400   34.744627531  137.764301063    40.9878   1  23   0.0023   0.0024   0.0056   0.0012  -0.0020  -0.0022   0.38    7.7
2024/11/12 06:09:38.500   34.744627531  137.764301067    40.9880   1  23   0.0023   0.0024   0.0056   0.0012  -0.0020  -0.0022   0.48    7.7
2024/11/12 06:09:38.600   34.744627521  137.764301066    40.9942   1  23   0.0023   0.0024   0.0056   0.0012  -0.0020  -0.0022  -0.42    7.7
2024/11/12 06:09:38.700   34.744627518  137.764301049    40.9953   1  23   0.0023   0.0024   0.0056   0.0012  -0.0020  -0.0022  -0.32    7.7
2024/11/12 06:09:38.800   34.744627519  137.764301056    40.9952   1  23   0.0023   0.0024   0.0056   0.0012  -0.0020  -0.0021  -0.22    7.7
2024/11/12 06:09:38.900   34.744627513  137.764301058    40.9952   1  23   0.0023   0.0024   0.0056   0.0012  -0.0020  -0.0021  -0.12    7.7
2024/11/12 06:09:39.000   34.744627524  137.764301066    40.9933   1  23   0.0023   0.0024   0.0056   0.0012  -0.0020  -0.0021  -0.02    7.7
2024/11/12 06:09:39.100   34.744627521  137.764301064    40.9940   1  23   0.0023   0.0024   0.0056   0.0012  -0.0020  -0.0021   0.08    7.8
2024/11/12 06:09:39.200   34.744627514  137.764301057    40.9956   1  23   0.0023   0.0024   0.0056   0.0012  -0.0020  -0.0021   0.18    7.8
2024/11/12 06:09:39.300   34.744627518  137.764301057    40.9973   1  23   0.0023   0.0024   0.0056   0.0012  -0.0020  -0.0022   0.28    7.8
2024/11/12 06:09:39.400   34.744627505  137.764301054    40.9975   1  23   0.0023   0.0024   0.0056   0.0012  -0.0020  -0.0022   0.38    7.8
2024/11/12 06:09:39.500   34.744627513  137.764301066    40.9943   1  23   0.0023   0.0024   0.0056   0.0012  -0.0020  -0.0022   0.48    7.8
2024/11/12 06:09:39.600   34.744627544  137.764301070    40.9838   1  23   0.0023   0.0024   0.0056   0.0012  -0.0020  -0.0022  -0.42    7.8
2024/11/12 06:09:39.700   34.744627545  137.764301074    40.9825   1  23   0.0023   0.0024   0.0056   0.0012  -0.0020  -0.0022  -0.32    7.8
2024/11/12 06:09:39.800   34.744627548  137.764301062    40.9846   1  23   0.0023   0.0024   0.0056   0.0012  -0.0020  -0.0021  -0.22    7.8
2024/11/12 06:09:39.900   34.744627550  137.764301066    40.9830   1  23   0.0023   0.0024   0.0056   0.0012  -0.0020  -0.0021  -0.12    7.8
2024/11/12 06:09:40.000   34.744627546  137.764301075    40.9826   1  23   0.0023   0.0024   0.0056   0.0012  -0.0020  -0.0021  -0.02    7.8
2024/11/12 06:09:40.100   34.744627536  137.764301069    40.9845   1  23   0.0023   0.0024   0.0056   0.0012  -0.0020  -0.0021   0.08    7.8
2024/11/12 06:09:40.200   34.744627543  137.764301064    40.9852   1  23   0.0023   0.0024   0.0056   0.0012  -0.0020  -0.0021   0.18    7.8
2024/11/12 06:09:40.300   34.744627552  137.764301076    40.9836   1  23   0.0023   0.0024   0.0056   0.0012  -0.0020  -0.0022   0.28    7.8
2024/11/12 06:09:40.400   34.744627545  137.764301089    40.9839   1  23   0.0023   0.0024   0.0056   0.0012  -0.0020  -0.0022   0.38    7.8
2024/11/12 06:09:40.500   34.744627541  137.764301076    40.9823   1  23   0.0023   0.0024   0.0056   0.0012  -0.0020  -0.0022   0.48    7.8
2024/11/12 06:09:40.600   34.744627550  137.764301056    40.9862   1  23   0.0023   0.0024   0.0056   0.0012  -0.0020  -0.0022  -0.42    7.8
2024/11/12 06:09:40.700   34.744627546  137.764301060    40.9873   1  23   0.0023   0.0024   0.0056   0.0012  -0.0020  -0.0022  -0.32    7.8
2024/11/12 06:09:40.800   34.744627540  137.764301067    40.9864   1  23   0.0023   0.0024   0.0056   0.0012  -0.0020  -0.0021  -0.22    7.8
2024/11/12 06:09:40.900   34.744627535  137.764301048    40.9881   1  23   0.0023   0.0024   0.0056   0.0012  -0.0020  -0.0021  -0.12    7.8
2024/11/12 06:09:41.000   34.744627536  137.764301060    40.9898   1  23   0.0023   0.0024   0.0056   0.0012  -0.0020  -0.0021  -0.02    7.9
2024/11/12 06:09:41.100   34.744627542  137.764301066    40.9882   1  23   0.0023   0.0024   0.0056   0.0012  -0.0020  -0.0021   0.08    7.9
2024/11/12 06:09:41.200   34.744627532  137.764301053    40.9879   1  23   0.0023   0.0024   0.0056   0.0012  -0.0020  -0.0021   0.18    7.9
2024/11/12 06:09:41.300   34.744627534  137.764301064    40.9900   1  23   0.0023   0.0024   0.0056   0.0012  -0.0020  -0.0022   0.28    7.9
2024/11/12 06:09:41.400   34.744627532  137.764301051    40.9907   1  23   0.0023   0.0024   0.0056   0.0012  -0.0020  -0.0022   0.38    7.9
2024/11/12 06:09:41.500   34.744627540  137.764301076    40.9865   1  23   0.0023   0.0024   0.0056   0.0012  -0.0020  -0.0022   0.48    7.9
2024/11/12 06:09:41.600   34.744627548  137.764301078    40.9861   1  23   0.0023   0.0024   0.0056   0.0012  -0.0020  -0.0022  -0.42    7.9
2024/11/12 06:09:41.700   34.744627543  137.764301067    40.9846   1  23   0.0023   0.0024   0.0056   0.0012  -0.0020  -0.0022  -0.32    7.9
2024/11/12 06:09:41.800   34.744627542  137.764301068    40.9858   1  23   0.0023   0.0024   0.0056   0.0012  -0.0020  -0.0021  -0.22    7.9
2024/11/12 06:09:41.900   34.744627538  137.764301067    40.9881   1  23   0.0023   0.0024   0.0056   0.0012  -0.0020  -0.0021  -0.12    7.9
2024/11/12 06:09:42.000   34.744627531  137.764301068    40.9864   1  23   0.0023   0.0024   0.0056   0.0012  -0.0020  -0.0021  -0.02    7.9
2024/11/12 06:09:42.100   34.744627537  137.764301085    40.9874   1  23   0.0023   0.0024   0.0056   0.0012  -0.0020  -0.0021   0.08    7.9
2024/11/12 06:09:42.200   34.744627538  137.764301072    40.9861   1  23   0.0023   0.0024   0.0056   0.0012  -0.0020  -0.0021   0.18    8.0
2024/11/12 06:09:42.300   34.744627536  137.764301077    40.9878   1  23   0.0023   0.0024   0.0056   0.0012  -0.0020  -0.0022   0.28    8.0
2024/11/12 06:09:42.400   34.744627543  137.764301098    40.9872   1  23   0.0023   0.0024   0.0056   0.0012  -0.0020  -0.0022   0.38    8.0
2024/11/12 06:09:42.500   34.744627539  137.764301087    40.9874   1  23   0.0023   0.0024   0.0056   0.0012  -0.0020  -0.0022   0.48    8.0
2024/11/12 06:09:42.600   34.744627535  137.764301045    40.9904   1  23   0.0023   0.0024   0.0056   0.0012  -0.0020  -0.0022  -0.42    8.0
2024/11/12 06:09:42.700   34.744627541  137.764301048    40.9877   1  23   0.0023   0.0024   0.0056   0.0012  -0.0020  -0.0022  -0.32    8.0
2024/11/12 06:09:42.800   34.744627538  137.764301049    40.9880   1  23   0.0023   0.0024   0.0056   0.0012  -0.0020  -0.0022  -0.22    8.0
2024/11/12 06:09:42.900   34.744627541  137.764301052    40.9888   1  23   0.0023   0.0024   0.0056   0.0012  -0.0020  -0.0021  -0.12    8.0
2024/11/12 06:09:43.000   34.744627532  137.764301049    40.9899   1  23   0.0023   0.0024   0.0056   0.0012  -0.0020  -0.0021  -0.02    8.0
2024/11/12 06:09:43.100   34.744627535  137.764301057    40.9910   1  23   0.0023   0.0024   0.0056   0.0012  -0.0020  -0.0021   0.08    8.0
2024/11/12 06:09:43.200   34.744627534  137.764301051    40.9911   1  23   0.0023   0.0024   0.0056   0.0012  -0.0020  -0.0021   0.18    8.1
2024/11/12 06:09:43.300   34.744627537  137.764301045    40.9893   1  23   0.0023   0.0024   0.0056   0.0012  -0.0020  -0.0022   0.28    8.1
2024/11/12 06:09:43.400   34.744627535  137.764301060    40.9886   1  23   0.0023   0.0024   0.0056   0.0012  -0.0020  -0.0022   0.38    8.1
2024/11/12 06:09:43.500   34.744627534  137.764301060    40.9887   1  23   0.0023   0.0024   0.0056   0.0012  -0.0020  -0.0022   0.48    8.1
2024/11/12 06:09:43.600   34.744627535  137.764301045    40.9914   1  23   0.0023   0.0024   0.0056   0.0012  -0.0020  -0.0022  -0.42    8.1
2024/11/12 06:09:43.700   34.744627536  137.764301063    40.9889   1  23   0.0023   0.0024   0.0056   0.0012  -0.0020  -0.0022  -0.32    8.1
2024/11/12 06:09:43.800   34.744627531  137.764301065    40.9894   1  23   0.0023   0.0024   0.0056   0.0012  -0.0020  -0.0022  -0.22    8.1
2024/11/12 06:09:43.900   34.744627525  137.764301045    40.9918   1  23   0.0023   0.0024   0.0056   0.0012  -0.0020  -0.0021  -0.12    8.1
2024/11/12 06:09:44.000   34.744627545  137.764301064    40.9895   1  23   0.0023   0.0024   0.0056   0.0012  -0.0020  -0.0021  -0.02    8.1
2024/11/12 06:09:44.100   34.744627532  137.764301051    40.9899   1  23   0.0023   0.0024   0.0056   0.0012  -0.0020  -0.0021   0.08    8.1
2024/11/12 06:09:44.200   34.744627528  137.764301055    40.9910   1  23   0.0023   0.0024   0.0056   0.0012  -0.0020  -0.0021   0.18    8.2
2024/11/12 06:09:44.300   34.744627537  137.764301066    40.9882   1  23   0.0023   0.0024   0.0056   0.0012  -0.0020  -0.0022   0.28    8.2
2024/11/12 06:09:44.400   34.744627539  137.764301056    40.9884   1  23   0.0023   0.0024   0.0056   0.0012  -0.0020  -0.0022   0.38    8.2
2024/11/12 06:09:44.500   34.744627531  137.764301054    40.9921   1  23   0.0023   0.0024   0.0056   0.0012  -0.0020  -0.0022   0.48    8.2
2024/11/12 06:09:44.600   34.744627541  137.764301047    40.9877   1  23   0.0023   0.0024   0.0056   0.0012  -0.0020  -0.0022  -0.42    8.2
2024/11/12 06:09:44.700   34.744627536  137.764301047    40.9888   1  23   0.0023   0.0024   0.0056   0.0012  -0.0020  -0.0022  -0.32    8.2
2024/11/12 06:09:44.800   34.744627533  137.764301044    40.9901   1  23   0.0023   0.0024   0.0056   0.0012  -0.0020  -0.0022  -0.22    8.2
2024/11/12 06:09:44.900   34.744627544  137.764301061    40.9898   1  23   0.0023   0.0024   0.0056   0.0012  -0.0020  -0.0021  -0.12    8.2
2024/11/12 06:09:45.000   34.744627535  137.764301048    40.9909   1  23   0.0023   0.0024   0.0056   0.0012  -0.0020  -0.0021  -0.02    8.2
2024/11/12 06:09:45.100   34.744627530  137.764301042    40.9898   1  23   0.0023   0.0024   0.0056   0.0012  -0.0020  -0.0021   0.08    8.2
2024/11/12 06:09:45.200   34.744627537  137.764301059    40.9902   1  23   0.0023   0.0024   0.0056   0.0012  -0.0020  -0.0021   0.18    8.2
2024/11/12 06:09:45.300   34.744627532  137.764301048    40.9908   1  23   0.0023   0.0024   0.0056   0.0012  -0.0020  -0.0022   0.28    8.2
2024/11/12 06:09:45.400   34.744627526  137.764301036    40.9925   1  23   0.0023   0.0024   0.0056   0.0012  -0.0020  -0.0022   0.38    8.2
2024/11/12 06:09:45.500   34.744627528  137.764301043    40.9899   1  23   0.0023   0.0024   0.0056   0.0012  -0.0020  -0.0022   0.48    8.3
2024/11/12 06:09:45.600   34.744627537  137.764301068    40.9867   1  23   0.0023   0.0024   0.0056   0.0012  -0.0020  -0.0022  -0.42    8.3
2024/11/12 06:09:45.700   34.744627545  137.764301060    40.9849   1  23   0.0023   0.0024   0.0056   0.0012  -0.0020  -0.0022  -0.32    8.3
2024/11/12 06:09:45.800   34.744627555  137.764301080    40.9853   1  23   0.0023   0.0024   0.0056   0.0012  -0.0020  -0.0022  -0.22    8.3
2024/11/12 06:09:45.900   34.744627538  137.764301069    40.9874   1  23   0.0023   0.0024   0.0056   0.0012  -0.0020  -0.0021  -0.12    8.3
2024/11/12 06:09:46.000   34.744627540  137.764301062    40.9867   1  23   0.0023   0.0024   0.0056   0.0012  -0.0020  -0.0021  -0.02    8.3
2024/11/12 06:09:46.100   34.744627525  137.764301060    40.9873   1  23   0.0023   0.0024   0.0056   0.0012  -0.0020  -0.0021   0.08    8.3
2024/11/12 06:09:46.200   34.744627545  137.764301069    40.9859   1  23   0.0023   0.0024   0.0056   0.0012  -0.0020  -0.0021   0.18    8.3
2024/11/12 06:09:46.300   34.744627540  137.764301083    40.9860   1  23   0.0023   0.0024   0.0056   0.0012  -0.0020  -0.0022   0.28    8.3
2024/11/12 06:09:46.400   34.744627533  137.764301069    40.9868   1  23   0.0023   0.0024   0.0056   0.0012  -0.0020  -0.0022   0.38    8.3
2024/11/12 06:09:46.500   34.744627532  137.764301070    40.9869   1  23   0.0023   0.0024   0.0056   0.0012  -0.0020  -0.0022   0.48    8.3
2024/11/12 06:09:46.600   34.744627538  137.764301059    40.9875   1  23   0.0023   0.0024   0.0056   0.0012  -0.0020  -0.0022  -0.42    8.3
2024/11/12 06:09:46.700   34.744627539  137.764301061    40.9864   1  23   0.0023   0.0024   0.0056   0.0012  -0.0020  -0.0022  -0.32    8.3
2024/11/12 06:09:46.800   34.744627541  137.764301064    40.9877   1  23   0.0023   0.0024   0.0056   0.0012  -0.0020  -0.0022  -0.22    8.3
2024/11/12 06:09:46.900   34.744627551  137.764301074    40.9854   1  23   0.0023   0.0024   0.0056   0.0012  -0.0020  -0.0021  -0.12    8.3
2024/11/12 06:09:47.000   34.744627535  137.764301072    40.9885   1  23   0.0023   0.0024   0.0056   0.0012  -0.0020  -0.0021  -0.02    8.3
2024/11/12 06:09:47.100   34.744627532  137.764301069    40.9869   1  23   0.0023   0.0024   0.0056   0.0012  -0.0020  -0.0021   0.08    8.3
2024/11/12 06:09:47.200   34.744627544  137.764301079    40.9858   1  23   0.0023   0.0024   0.0056   0.0012  -0.0020  -0.0021   0.18    8.3
2024/11/12 06:09:47.300   34.744627541  137.764301062    40.9878   1  23   0.0023   0.0024   0.0056   0.0012  -0.0020  -0.0022   0.28    8.3
2024/11/12 06:09:47.400   34.744627538  137.764301063    40.9909   1  23   0.0023   0.0024   0.0056   0.0012  -0.0020  -0.0022   0.38    8.3
2024/11/12 06:09:47.500   34.744627534  137.764301075    40.9870   1  23   0.0023   0.0024   0.0056   0.0012  -0.0020  -0.0022   0.48    8.3
2024/11/12 06:09:47.600   34.744627535  137.764301058    40.9899   1  23   0.0023   0.0024   0.0056   0.0012  -0.0020  -0.0022  -0.42    8.3
2024/11/12 06:09:47.700   34.744627537  137.764301072    40.9895   1  23   0.0023   0.0024   0.0056   0.0012  -0.0020  -0.0022  -0.32    8.3
2024/11/12 06:09:47.800   34.744627545  137.764301067    40.9887   1  23   0.0023   0.0024   0.0056   0.0012  -0.0020  -0.0022  -0.22    8.4
2024/11/12 06:09:47.900   34.744627532  137.764301057    40.9875   1  23   0.0023   0.0024   0.0056   0.0012  -0.0020  -0.0021  -0.12    8.4
2024/11/12 06:09:48.000   34.744627545  137.764301072    40.9868   1  23   0.0023   0.0024   0.0056   0.0012  -0.0020  -0.0021  -0.02    8.4
2024/11/12 06:09:48.100   34.744627548  137.764301071    40.9880   1  23   0.0023   0.0024   0.0056   0.0012  -0.0020  -0.0021   0.08    8.4
2024/11/12 06:09:48.200   34.744627538  137.764301071    40.9865   1  23   0.0023   0.0024   0.0056   0.0012  -0.0020  -0.0021   0.18    8.4
2024/11/12 06:09:48.300   34.744627538  137.764301064    40.9882   1  23   0.0023   0.0024   0.0056   0.0012  -0.0020  -0.0022   0.28    8.4
2024/11/12 06:09:48.400   34.744627550  137.764301069    40.9862   1  23   0.0023   0.0024   0.0056   0.0012  -0.0020  -0.0022   0.38    8.4
2024/11/12 06:09:48.500   34.744627546  137.764301072    40.9849   1  23   0.0023   0.0024   0.0056   0.0012  -0.0020  -0.0022   0.48    8.4
2024/11/12 06:09:48.600   34.744627551  137.764301074    40.9875   1  23   0.0023   0.0024   0.0056   0.0012  -0.0020  -0.0022  -0.42    8.4
2024/11/12 06:09:48.700   34.744627541  137.764301060    40.9876   1  23   0.0023   0.0024   0.0056   0.0012  -0.0020  -0.0022  -0.32    8.4
2024/11/12 06:09:48.800   34.744627540  137.764301061    40.9893   1  23   0.0023   0.0024   0.0056   0.0012  -0.0020  -0.0022  -0.22    8.4
2024/11/12 06:09:48.900   34.744627539  137.764301056    40.9891   1  23   0.0023   0.0024   0.0056   0.0012  -0.0020  -0.0021  -0.12    8.4
2024/11/12 06:09:49.000   34.744627550  137.764301065    40.9883   1  23   0.0023   0.0024   0.0056   0.0012  -0.0020  -0.0021  -0.02    8.4
2024/11/12 06:09:49.100   34.744627541  137.764301070    40.9887   1  23   0.0023   0.0024   0.0056   0.0012  -0.0020  -0.0021   0.08    8.4
2024/11/12 06:09:49.200   34.744627538  137.764301054    40.9898   1  23   0.0023   0.0024   0.0056   0.0012  -0.0020  -0.0021   0.18    8.4
2024/11/12 06:09:49.300   34.744627540  137.764301086    40.9870   1  23   0.0023   0.0024   0.0056   0.0012  -0.0020  -0.0022   0.28    8.4
2024/11/12 06:09:49.400   34.744627541  137.764301081    40.9900   1  23   0.0023   0.0024   0.0056   0.0012  -0.0020  -0.0022   0.38    8.4
2024/11/12 06:09:49.500   34.744627534  137.764301058    40.9897   1  23   0.0023   0.0024   0.0056   0.0012  -0.0020  -0.0022   0.48    8.4
2024/11/12 06:09:49.600   34.744627546  137.764301064    40.9872   1  23   0.0023   0.0024   0.0056   0.0012  -0.0020  -0.0022  -0.42    8.4
2024/11/12 06:09:49.700   34.744627540  137.764301052    40.9876   1  23   0.0023   0.0024   0.0056   0.0012  -0.0020  -0.0022  -0.32    8.4
2024/11/12 06:09:49.800   34.744627547  137.764301050    40.9860   1  23   0.0023   0.0024   0.0056   0.0012  -0.0020  -0.0022  -0.22    8.4
2024/11/12 06:09:49.900   34.744627539  137.764301066    40.9860   1  23   0.0023   0.0024   0.0056   0.0012  -0.0020  -0.0021  -0.12    8.4
2024/11/12 06:09:50.000   34.744627531  137.764301059    40.9874   1  23   0.0023   0.0024   0.0056   0.0012  -0.0020  -0.0021  -0.02    8.5
2024/11/12 06:09:50.100   34.744627541  137.764301059    40.9871   1  23   0.0023   0.0024   0.0056   0.0012  -0.0020  -0.0021   0.08    8.5
2024/11/12 06:09:50.200   34.744627542  137.764301062    40.9853   1  23   0.0023   0.0024   0.0056   0.0012  -0.0020  -0.0021   0.18    8.5
2024/11/12 06:09:50.300   34.744627527  137.764301060    40.9891   1  23   0.0023   0.0024   0.0056   0.0012  -0.0020  -0.0022   0.28    8.5
2024/11/12 06:09:50.400   34.744627533  137.764301059    40.9885   1  23   0.0023   0.0024   0.0056   0.0012  -0.0020  -0.0022   0.38    8.5
2024/11/12 06:09:50.500   34.744627535  137.764301066    40.9869   1  23   0.0023   0.0024   0.0056   0.0012  -0.0020  -0.0022   0.48    8.5
2024/11/12 06:09:50.600   34.744627538  137.764301062    40.9889   1  23   0.0023   0.0024   0.0056   0.0012  -0.0020  -0.0022  -0.42    8.5
2024/11/12 06:09:50.700   34.744627534  137.764301064    40.9885   1  23   0.0023   0.0024   0.0056   0.0012  -0.0020  -0.0022  -0.32    8.5
2024/11/12 06:09:50.800   34.744627527  137.764301059    40.9887   1  23   0.0023   0.0024   0.0056   0.0012  -0.0020  -0.0022  -0.22    8.5
2024/11/12 06:09:50.900   34.744627529  137.764301065    40.9902   1  23   0.0023   0.0024   0.0056   0.0012  -0.0020  -0.0021  -0.12    8.5
2024/11/12 06:09:51.000   34.744627531  137.764301059    40.9891   1  23   0.0023   0.0024   0.0056   0.0012  -0.0020  -0.0021  -0.02    8.5
2024/11/12 06:09:51.100   34.744627528  137.764301066    40.9890   1  23   0.0023   0.0024   0.0056   0.0012  -0.0020  -0.0021   0.08    8.5
2024/11/12 06:09:51.200   34.744627525  137.764301069    40.9900   1  23   0.0023   0.0024   0.0056   0.0012  -0.0020  -0.0021   0.18    8.5
2024/11/12 06:09:51.300   34.744627520  137.764301061    40.9902   1  23   0.0023   0.0024   0.0056   0.0012  -0.0020  -0.0022   0.28    8.5
2024/11/12 06:09:51.400   34.744627530  137.764301069    40.9893   1  23   0.0023   0.0024   0.0056   0.0012  -0.0020  -0.0022   0.38    8.5
2024/11/12 06:09:51.500   34.744627529  137.764301087    40.9872   1  23   0.0023   0.0024   0.0056   0.0012  -0.0020  -0.0022   0.48    8.5
2024/11/12 06:09:51.600   34.744627546  137.764301064    40.9830   1  23   0.0023   0.0024   0.0056   0.0012  -0.0020  -0.0022  -0.42    8.5
2024/11/12 06:09:51.700   34.744627546  137.764301067    40.9834   1  23   0.0023   0.0024   0.0056   0.0012  -0.0020  -0.0022  -0.32    8.5
2024/11/12 06:09:51.800   34.744627540  137.764301057    40.9831   1  23   0.0023   0.0024   0.0056   0.0012  -0.0020  -0.0022  -0.22    8.5
2024/11/12 06:09:51.900   34.744627540  137.764301065    40.9862   1  23   0.0023   0.0024   0.0056   0.0012  -0.0020  -0.0021  -0.12    8.5
2024/11/12 06:09:52.000   34.744627545  137.764301063    40.9866   1  23   0.0023   0.0024   0.0056   0.0012  -0.0020  -0.0021  -0.02    8.5
2024/11/12 06:09:52.100   34.744627530  137.764301052    40.9887   1  23   0.0023   0.0024   0.0056   0.0012  -0.0020  -0.0021   0.08    8.5
2024/11/12 06:09:52.200   34.744627536  137.764301084    40.9868   1  23   0.0023   0.0024   0.0056   0.0012  -0.0020  -0.0022   0.18    8.5
2024/11/12 06:09:52.300   34.744627543  137.764301062    40.9873   1  23   0.0023   0.0024   0.0056   0.0012  -0.0020  -0.0022   0.28    8.5
2024/11/12 06:09:52.400   34.744627540  137.764301064    40.9858   1  23   0.0023   0.0024   0.0056   0.0012  -0.0020  -0.0022   0.38    8.5
2024/11/12 06:09:52.500   34.744627538  137.764301072    40.9868   1  23   0.0023   0.0024   0.0056   0.0012  -0.0020  -0.0022   0.48    8.5
2024/11/12 06:09:52.600   34.744627540  137.764301080    40.9863   1  23   0.0023   0.0024   0.0056   0.0012  -0.0020  -0.0022  -0.42    8.5
2024/11/12 06:09:52.700   34.744627533  137.764301062    40.9901   1  23   0.0023   0.0024   0.0056   0.0012  -0.0020  -0.0022  -0.32    8.5
2024/11/12 06:09:52.800   34.744627529  137.764301072    40.9892   1  23   0.0023   0.0024   0.0056   0.0012  -0.0020  -0.0022  -0.22    8.5
2024/11/12 06:09:52.900   34.744627538  137.764301076    40.9873   1  23   0.0023   0.0024   0.0056   0.0012  -0.0020  -0.0021  -0.12    8.5
2024/11/12 06:09:53.000   34.744627531  137.764301070    40.9882   1  23   0.0023   0.0024   0.0056   0.0012  -0.0020  -0.0021  -0.02    8.5
2024/11/12 06:09:53.100   34.744627536  137.764301074    40.9878   1  23   0.0023   0.0024   0.0056   0.0012  -0.0020  -0.0021   0.08    8.5
2024/11/12 06:09:53.200   34.744627520  137.764301062    40.9891   1  23   0.0023   0.0024   0.0056   0.0012  -0.0020  -0.0022   0.18    8.5
2024/11/12 06:09:53.300   34.744627539  137.764301073    40.9877   1  23   0.0023   0.0024   0.0056   0.0012  -0.0020  -0.0022   0.28    8.5
2024/11/12 06:09:53.400   34.744627527  137.764301067    40.9876   1  23   0.0023   0.0024   0.0056   0.0012  -0.0020  -0.0022   0.38    8.5
2024/11/12 06:09:53.500   34.744627525  137.764301074    40.9899   1  23   0.0023   0.0024   0.0056   0.0012  -0.0020  -0.0022   0.48    8.5
2024/11/12 06:09:53.600   34.744627532  137.764301056    40.9901   1  23   0.0023   0.0024   0.0056   0.0012  -0.0020  -0.0022  -0.42    8.5
2024/11/12 06:09:53.700   34.744627540  137.764301068    40.9888   1  23   0.0023   0.0024   0.0056   0.0012  -0.0020  -0.0022  -0.32    8.5
2024/11/12 06:09:53.800   34.744627543  137.764301061    40.9890   1  23   0.0023   0.0024   0.0056   0.0012  -0.0020  -0.0022  -0.22    8.6
2024/11/12 06:09:53.900   34.744627542  137.764301069    40.9888   1  23   0.0023   0.0024   0.0056   0.0012  -0.0020  -0.0021  -0.12    8.6
2024/11/12 06:09:54.000   34.744627545  137.764301075    40.9859   1  23   0.0023   0.0024   0.0056   0.0012  -0.0020  -0.0021  -0.02    8.6
2024/11/12 06:09:54.100   34.744627545  137.764301070    40.9860   1  23   0.0023   0.0024   0.0056   0.0012  -0.0020  -0.0021   0.08    8.6
2024/11/12 06:09:54.200   34.744627548  137.764301071    40.9877   1  23   0.0023   0.0024   0.0056   0.0012  -0.0020  -0.0022   0.18    8.6
2024/11/12 06:09:54.300   34.744627541  137.764301060    40.9875   1  23   0.0023   0.0024   0.0056   0.0012  -0.0020  -0.0022   0.28    8.6
2024/11/12 06:09:54.400   34.744627542  137.764301070    40.9892   1  23   0.0023   0.0024   0.0056   0.0012  -0.0020  -0.0022   0.38    8.6
2024/11/12 06:09:54.500   34.744627544  137.764301073    40.9863   1  23   0.0023   0.0024   0.0056   0.0012  -0.0020  -0.0022   0.48    8.6
2024/11/12 06:09:54.600   34.744627538  137.764301065    40.9845   1  23   0.0023   0.0024   0.0056   0.0012  -0.0020  -0.0022  -0.42    8.6
2024/11/12 06:09:54.700   34.744627539  137.764301066    40.9822   1  23   0.0023   0.0024   0.0056   0.0012  -0.0020  -0.0022  -0.32    8.6
2024/11/12 06:09:54.800   34.744627543  137.764301074    40.9858   1  23   0.0023   0.0024   0.0056   0.0012  -0.0020  -0.0022  -0.22    8.6
2024/11/12 06:09:54.900   34.744627532  137.764301071    40.9864   1  23   0.0023   0.0024   0.0056   0.0012  -0.0020  -0.0021  -0.12    8.6
2024/11/12 06:09:55.000   34.744627535  137.764301076    40.9858   1  23   0.0023   0.0024   0.0056   0.0012  -0.0020  -0.0021  -0.02    8.6
2024/11/12 06:09:55.100   34.744627534  137.764301079    40.9864   1  23   0.0023   0.0024   0.0056   0.0012  -0.0020  -0.0021   0.08    8.6
2024/11/12 06:09:55.200   34.744627521  137.764301068    40.9873   1  23   0.0023   0.0024   0.0056   0.0012  -0.0020  -0.0022   0.18    8.6
2024/11/12 06:09:55.300   34.744627527  137.764301072    40.9876   1  23   0.0023   0.0024   0.0056   0.0012  -0.0020  -0.0022   0.28    8.6
2024/11/12 06:09:55.400   34.744627529  137.764301078    40.9862   1  23   0.0023   0.0024   0.0056   0.0012  -0.0020  -0.0022   0.38    8.7
2024/11/12 06:09:55.500   34.744627535  137.764301065    40.9865   1  23   0.0023   0.0024   0.0056   0.0012  -0.0020  -0.0022   0.48    8.7
2024/11/12 06:09:55.600   34.744627538  137.764301075    40.9878   1  23   0.0023   0.0024   0.0056   0.0012  -0.0020  -0.0022  -0.42    8.7
2024/11/12 06:09:55.700   34.744627537  137.764301066    40.9881   1  23   0.0023   0.0024   0.0056   0.0012  -0.0020  -0.0022  -0.32    8.7
2024/11/12 06:09:55.800   34.744627541  137.764301062    40.9881   1  23   0.0023   0.0024   0.0056   0.0012  -0.0020  -0.0022  -0.22    8.7
2024/11/12 06:09:55.900   34.744627541  137.764301071    40.9877   1  23   0.0023   0.0024   0.0056   0.0012  -0.0020  -0.0021  -0.12    8.7
2024/11/12 06:09:56.000   34.744627541  137.764301067    40.9874   1  23   0.0023   0.0024   0.0056   0.0012  -0.0020  -0.0021  -0.02    8.7
2024/11/12 06:09:56.100   34.744627552  137.764301072    40.9845   1  23   0.0023   0.0024   0.0056   0.0012  -0.0020  -0.0021   0.08    8.7
2024/11/12 06:09:56.200   34.744627552  137.764301076    40.9841   1  23   0.0023   0.0024   0.0056   0.0012  -0.0020  -0.0022   0.18    8.7
2024/11/12 06:09:56.300   34.744627550  137.764301081    40.9845   1  23   0.0023   0.0024   0.0056   0.0012  -0.0020  -0.0022   0.28    8.7
2024/11/12 06:09:56.400   34.744627555  137.764301084    40.9824   1  23   0.0023   0.0024   0.0056   0.0012  -0.0020  -0.0022   0.38    8.7
2024/11/12 06:09:56.500   34.744627559  137.764301085    40.9843   1  23   0.0023   0.0024   0.0056   0.0012  -0.0020  -0.0022   0.48    8.7
2024/11/12 06:09:56.600   34.744627534  137.764301069    40.9878   1  23   0.0023   0.0024   0.0056   0.0012  -0.0020  -0.0022  -0.42    8.7
2024/11/12 06:09:56.700   34.744627535  137.764301052    40.9890   1  23   0.0023   0.0024   0.0056   0.0012  -0.0020  -0.0022  -0.32    8.7
2024/11/12 06:09:56.800   34.744627534  137.764301075    40.9893   1  23   0.0023   0.0024   0.0056   0.0012  -0.0020  -0.0022  -0.22    8.7
2024/11/12 06:09:56.900   34.744627533  137.764301067    40.9893   1  23   0.0023   0.0024   0.0056   0.0012  -0.0020  -0.0021  -0.12    8.7
2024/11/12 06:09:57.000   34.744627536  137.764301065    40.9897   1  23   0.0023   0.0024   0.0056   0.0012  -0.0020  -0.0021  -0.02    8.7
2024/11/12 06:09:57.100   34.744627522  137.764301066    40.9910   1  23   0.0023   0.0024   0.0056   0.0012  -0.0020  -0.0021   0.08    8.7
2024/11/12 06:09:57.200   34.744627530  137.764301067    40.9891   1  23   0.0023   0.0024   0.0056   0.0012  -0.0020  -0.0021   0.18    8.7
2024/11/12 06:09:57.300   34.744627535  137.764301063    40.9898   1  24   0.0022   0.0024   0.0056   0.0012  -0.0020  -0.0022   0.28    8.7
2024/11/12 06:09:57.400   34.744627543  137.764301060    40.9878   1  24   0.0022   0.0024   0.0056   0.0012  -0.0020  -0.0022   0.38    8.8
2024/11/12 06:09:57.500   34.744627536  137.764301063    40.9904   1  24   0.0022   0.0024   0.0056   0.0012  -0.0020  -0.0022   0.48    8.8
2024/11/12 06:09:57.600   34.744627547  137.764301071    40.9898   1  24   0.0022   0.0024   0.0055   0.0012  -0.0020  -0.0022  -0.42    8.8
2024/11/12 06:09:57.700   34.744627534  137.764301059    40.9923   1  24   0.0022   0.0024   0.0055   0.0012  -0.0020  -0.0022  -0.32    8.8
2024/11/12 06:09:57.800   34.744627546  137.764301069    40.9907   1  24   0.0022   0.0024   0.0055   0.0012  -0.0020  -0.0022  -0.22    8.8
2024/11/12 06:09:57.900   34.744627539  137.764301068    40.9916   1  24   0.0022   0.0024   0.0055   0.0012  -0.0020  -0.0022  -0.12    8.8
2024/11/12 06:09:58.000   34.744627536  137.764301066    40.9902   1  24   0.0022   0.0024   0.0055   0.0012  -0.0020  -0.0022  -0.02    8.8
2024/11/12 06:09:58.100   34.744627549  137.764301064    40.9890   1  24   0.0022   0.0024   0.0055   0.0012  -0.0020  -0.0022   0.08    8.8
2024/11/12 06:09:58.200   34.744627532  137.764301054    40.9916   1  24   0.0022   0.0024   0.0055   0.0012  -0.0020  -0.0022   0.18    8.8
2024/11/12 06:09:58.300   34.744627536  137.764301069    40.9892   1  24   0.0022   0.0024   0.0055   0.0012  -0.0020  -0.0022   0.28    8.8
2024/11/12 06:09:58.400   34.744627549  137.764301071    40.9897   1  24   0.0022   0.0024   0.0055   0.0012  -0.0020  -0.0022   0.38    8.8
2024/11/12 06:09:58.500   34.744627545  137.764301061    40.9890   1  24   0.0022   0.0024   0.0055   0.0012  -0.0020  -0.0022   0.48    8.8
2024/11/12 06:09:58.600   34.744627540  137.764301054    40.9933   1  24   0.0022   0.0024   0.0055   0.0012  -0.0020  -0.0022  -0.42    8.8
2024/11/12 06:09:58.700   34.744627548  137.764301062    40.9917   1  24   0.0022   0.0024   0.0055   0.0012  -0.0020  -0.0022  -0.32    8.8
2024/11/12 06:09:58.800   34.744627546  137.764301069    40.9891   1  24   0.0022   0.0024   0.0055   0.0012  -0.0020  -0.0022  -0.22    8.8
2024/11/12 06:09:58.900   34.744627548  137.764301063    40.9899   1  24   0.0022   0.0024   0.0055   0.0012  -0.0020  -0.0022  -0.12    8.9
2024/11/12 06:09:59.000   34.744627549  137.764301058    40.9910   1  24   0.0022   0.0024   0.0055   0.0012  -0.0020  -0.0022  -0.02    8.9
2024/11/12 06:09:59.100   34.744627544  137.764301062    40.9903   1  24   0.0022   0.0024   0.0055   0.0012  -0.0020  -0.0022   0.08    8.9
2024/11/12 06:09:59.200   34.744627546  137.764301068    40.9906   1  24   0.0022   0.0024   0.0055   0.0012  -0.0020  -0.0022   0.18    8.9
